[
  {
    "name": "統一超商沙鹿沙田路天仁店(公話)",
    "lat": 24.2225502,
    "lng": 120.5565017,
    "address": "433臺中市沙鹿區沙田路17之19號(公話)"
  },
  {
    "name": "社團法人臺中市忘憂草協會",
    "lat": 24.223072,
    "lng": 120.556216,
    "address": "433臺中市沙鹿區斗抵里天仁一街30號"
  },
  {
    "name": "臺中市沙鹿區斗抵社區發展協會",
    "lat": 24.2257,
    "lng": 120.554311,
    "address": "433臺中市沙鹿區斗抵里斗潭路197號"
  },
  {
    "name": "統一超商沙鹿沙田路斗抵店(公話)",
    "lat": 24.229544,
    "lng": 120.558549,
    "address": "433臺中市沙鹿區沙田路43號之12"
  },
  {
    "name": "沙鹿火車站商圈",
    "lat": 24.2344038,
    "lng": 120.5575244,
    "address": "433臺中市沙鹿區大同街19-8號"
  },
  {
    "name": "臺中市沙鹿區興安社區發展協會",
    "lat": 24.234988,
    "lng": 120.558353,
    "address": "433臺中市沙鹿區興安里鎮南路二段500號一樓"
  },
  {
    "name": "華南商業銀行沙鹿分行",
    "lat": 24.235064,
    "lng": 120.559105,
    "address": "433臺中市沙鹿區沙田路112號"
  },
  {
    "name": "臺中市公車沙鹿火車站",
    "lat": 24.235924,
    "lng": 120.558955,
    "address": "433臺中市沙鹿區沙田路129號(交接箱CSLL2916)"
  },
  {
    "name": "臺鐵局沙鹿站候車室(新)",
    "lat": 24.2369471,
    "lng": 120.5558941,
    "address": "433臺中市沙鹿區沙鹿里中正街94號"
  },
  {
    "name": "臺鐵局沙鹿站候車室",
    "lat": 24.237014,
    "lng": 120.557534,
    "address": "433臺中市沙鹿區中正街94號"
  },
  {
    "name": "臺中市公車沙鹿市場站",
    "lat": 24.237683,
    "lng": 120.559638,
    "address": "433臺中市沙鹿區沙田路191號"
  },
  {
    "name": "沙鹿公有零售市場公話-市集",
    "lat": 24.2382378,
    "lng": 120.5591784,
    "address": "433臺中市沙鹿區新興街37號"
  },
  {
    "name": "沙鹿郵局",
    "lat": 24.239267,
    "lng": 120.559871,
    "address": "433臺中市沙鹿區中山路341號"
  },
  {
    "name": "全家便利商店梧棲區中華路金牌店(公話)",
    "lat": 24.239462,
    "lng": 120.549614,
    "address": "435臺中市梧棲區中華路一段1001號"
  },
  {
    "name": "第一商業銀行(沙鹿分行)",
    "lat": 24.2395712,
    "lng": 120.5599635,
    "address": "433臺中市沙鹿區中山路355號"
  }
]
