[
  {
    "name": "統一超商大雅雅潭路雅勝店(公話)",
    "lat": 24.220492,
    "lng": 120.656511,
    "address": "428臺中市大雅區雅潭路四段491號"
  },
  {
    "name": "臺中市公車國際花市站",
    "lat": 24.2206993,
    "lng": 120.6574346,
    "address": "428臺中市大雅區雅潭路四段482號"
  },
  {
    "name": "臺中市立圖書館大雅分館",
    "lat": 24.221774,
    "lng": 120.650204,
    "address": "428臺中市大雅區雅潭路四段800號"
  },
  {
    "name": "統一超商大雅學府路雅潭店(公話)",
    "lat": 24.221779,
    "lng": 120.649817,
    "address": "428臺中市大雅區學府路209號"
  },
  {
    "name": "統一超商大雅中山北路亞和店(公話)",
    "lat": 24.22204,
    "lng": 120.645436,
    "address": "428臺中市大雅區中山北路410號"
  },
  {
    "name": "臺灣銀行大雅分行",
    "lat": 24.2221045,
    "lng": 120.6450243,
    "address": "428臺中市大雅區中清路三段1080號"
  },
  {
    "name": "臺中市大雅區大雅社區發展協會",
    "lat": 24.222668,
    "lng": 120.647787,
    "address": "428臺中市大雅區大雅里永和路222號"
  },
  {
    "name": "第一商業銀行(大雅分行)",
    "lat": 24.2227134,
    "lng": 120.6480663,
    "address": "428臺中市大雅區中清東路96號"
  },
  {
    "name": "大雅郵局",
    "lat": 24.223208,
    "lng": 120.647768,
    "address": "428臺中市大雅區中清路二段127號"
  },
  {
    "name": "全家便利商店大雅中清東路好雅店(公話)",
    "lat": 24.223744,
    "lng": 120.64783,
    "address": "428臺中市大雅區中清東路171號"
  },
  {
    "name": "臺中市大雅第一公有零售市場(公話)",
    "lat": 24.2243885,
    "lng": 120.6490597,
    "address": "428臺中市大雅區大雅路50號之3(公話)"
  },
  {
    "name": "大雅區衛生所",
    "lat": 24.224992,
    "lng": 120.646896,
    "address": "428臺中市大雅區中清東路232號"
  },
  {
    "name": "臺中市公車大雅區大雅分局站",
    "lat": 24.225103,
    "lng": 120.646557,
    "address": "428臺中市大雅區中清東路251巷口(FYTY6912)"
  },
  {
    "name": "統一超商大雅神林南路神林店(公話)",
    "lat": 24.226068,
    "lng": 120.656369,
    "address": "428臺中市大雅區神林南路144號"
  },
  {
    "name": "全家便利商店大雅中清路中科店(公話)",
    "lat": 24.227982,
    "lng": 120.643278,
    "address": "428臺中市大雅區中清路四段61號"
  },
  {
    "name": "臺中市大雅區上雅社區發展協會",
    "lat": 24.228107,
    "lng": 120.650893,
    "address": "428臺中市大雅區上雅里雅環路二段171巷19號"
  },
  {
    "name": "大雅區公所",
    "lat": 24.22911,
    "lng": 120.647768,
    "address": "428臺中市大雅區雅環路二段301號"
  },
  {
    "name": "大雅區戶政事務所",
    "lat": 24.229192,
    "lng": 120.648406,
    "address": "428臺中市大雅區雅環路二段299號2樓"
  },
  {
    "name": "統一超商大雅雅環路環雅店(公話)",
    "lat": 24.229404,
    "lng": 120.647854,
    "address": "428臺中市大雅區雅環路二段320號"
  },
  {
    "name": "臺中市麥之鄉產業發展協會",
    "lat": 24.239016,
    "lng": 120.65313,
    "address": "428臺中市大雅區員林里大林路212巷65號"
  }
]
