[
  {
    "dataType": "wifi",
    "category": "其他",
    "name": "台中市北區賴村社區發展協會",
    "lat": 24.160485,
    "lng": 120.677266,
    "address": "404臺中市北區賴村里梅亭街447號"
  },
  {
    "dataType": "wifi",
    "category": "其他",
    "name": "統一超商北區德化街新德化店(公話)",
    "lat": 24.161484,
    "lng": 120.664877,
    "address": "404臺中市北區德化街660號"
  },
  {
    "dataType": "wifi",
    "category": "洽公場所",
    "name": "國軍臺中總醫院中清院區-掛號室",
    "lat": 24.162564,
    "lng": 120.672228,
    "address": "404臺中市北區忠明路500號"
  },
  {
    "dataType": "wifi",
    "category": "公立醫院",
    "name": "國軍臺中總醫院中清分院-五病房區1",
    "lat": 24.162629,
    "lng": 120.6723,
    "address": "404臺中市北區忠明路500號"
  },
  {
    "dataType": "wifi",
    "category": "公立醫院",
    "name": "國軍臺中總醫院中清分院-五病房區2",
    "lat": 24.162629,
    "lng": 120.6723,
    "address": "404臺中市北區忠明路500號"
  },
  {
    "dataType": "wifi",
    "category": "其他",
    "name": "統一超商北區忠明路忠權店(公話)",
    "lat": 24.162685,
    "lng": 120.669395,
    "address": "404臺中市北區忠明路424號"
  },
  {
    "dataType": "wifi",
    "category": "其他",
    "name": "臺中市公車803醫院中清分院站",
    "lat": 24.16275,
    "lng": 120.67195,
    "address": "404臺中市北區忠明路500號_(交接箱TCYT6040)"
  },
  {
    "dataType": "wifi",
    "category": "洽公場所",
    "name": "國軍臺中總醫院中清院區-門診",
    "lat": 24.162849,
    "lng": 120.672211,
    "address": "403臺中市北區忠明路500號"
  },
  {
    "dataType": "wifi",
    "category": "洽公場所",
    "name": "國軍臺中總醫院中清院區-體檢中心",
    "lat": 24.162849,
    "lng": 120.672211,
    "address": "403臺中市北區忠明路500號"
  },
  {
    "dataType": "wifi",
    "category": "其他",
    "name": "統一超商北區進化北路元保店(公話)",
    "lat": 24.163117,
    "lng": 120.67685,
    "address": "404臺中市北區進化北路413號"
  },
  {
    "dataType": "wifi",
    "category": "大眾運輸節點",
    "name": "臺中市公車衛道新世界站",
    "lat": 24.16326,
    "lng": 120.67977,
    "address": "404臺中市北區進化北路378號之7(TCPT6115)"
  },
  {
    "dataType": "wifi",
    "category": "其他",
    "name": "臺中市公車西屯太原路口站",
    "lat": 24.163434,
    "lng": 120.663091,
    "address": "407臺中市西屯區西屯路二段8號(TCHL4160)"
  },
  {
    "dataType": "wifi",
    "category": "其他",
    "name": "統一超商西屯西屯路華美店(公話)",
    "lat": 24.163825,
    "lng": 120.661267,
    "address": "407臺中市西屯區西屯路二段19號"
  },
  {
    "dataType": "wifi",
    "category": "其他",
    "name": "臺中市公車中清太原路口站",
    "lat": 24.16428,
    "lng": 120.67393,
    "address": "404臺中市北區中清路一段425號前門口(TCYT6031)"
  },
  {
    "dataType": "wifi",
    "category": "其他",
    "name": "臺中市公車三信公園站",
    "lat": 24.1649,
    "lng": 120.661675,
    "address": "407臺中市西屯區漢口路二段148號前交接箱(TCHL4260)"
  },
  {
    "dataType": "wifi",
    "category": "其他",
    "name": "統一超商西屯漢口路福漢店(公話)",
    "lat": 24.165014,
    "lng": 120.661688,
    "address": "407臺中市西屯區漢口路二段112號"
  },
  {
    "dataType": "wifi",
    "category": "其他",
    "name": "社團法人中華傳愛社區服務協會(傳動)",
    "lat": 24.165397,
    "lng": 120.673436,
    "address": "404臺中市北區明新里中清路一段447號八樓"
  },
  {
    "dataType": "wifi",
    "category": "其他",
    "name": "統一超商北區山西路昌鴻店(公話)",
    "lat": 24.165719,
    "lng": 120.675424,
    "address": "404臺中市北區山西路一段48號"
  },
  {
    "dataType": "wifi",
    "category": "其他",
    "name": "統一超商西屯寧夏路寧夏店(公話)",
    "lat": 24.166554,
    "lng": 120.661324,
    "address": "407臺中市西屯區寧夏路105號"
  },
  {
    "dataType": "wifi",
    "category": "其他",
    "name": "財團法人天主教曉明社會福利基金會",
    "lat": 24.167112,
    "lng": 120.674005,
    "address": "404臺中市北區賴明里漢口路四段17號"
  },
  {
    "dataType": "wifi",
    "category": "洽公場所",
    "name": "台中漢口路郵局",
    "lat": 24.167123,
    "lng": 120.671302,
    "address": "404臺中市北區漢口路三段189號"
  },
  {
    "dataType": "wifi",
    "category": "其他",
    "name": "臺中市公車賴厝國小站",
    "lat": 24.167145,
    "lng": 120.678782,
    "address": "404臺中市北區漢口路四段253號旁(賴厝國小對面PT6123交接箱內)"
  },
  {
    "dataType": "wifi",
    "category": "其他",
    "name": "臺中市公車曉明女中(漢口路)站(公話)",
    "lat": 24.167309,
    "lng": 120.674218,
    "address": "404臺中市北區漢口路四段21號(公話)"
  },
  {
    "dataType": "wifi",
    "category": "其他",
    "name": "統一超商北區陝西路陜西店(公話)",
    "lat": 24.168518,
    "lng": 120.668352,
    "address": "404臺中市北區陝西路48號"
  },
  {
    "dataType": "wifi",
    "category": "其他",
    "name": "武昌公園",
    "lat": 24.168789,
    "lng": 120.668238,
    "address": "404臺中市北區陜西路66號對面(公話亭)"
  },
  {
    "dataType": "wifi",
    "category": "其他",
    "name": "OK超商北區武昌路武昌店(公話)",
    "lat": 24.168854,
    "lng": 120.671643,
    "address": "404臺中市北區武昌路201號之1(公話)"
  },
  {
    "dataType": "wifi",
    "category": "其他",
    "name": "統一超商西屯寧夏路文華店(公話)",
    "lat": 24.169063,
    "lng": 120.660231,
    "address": "407臺中市西屯區寧夏路232號"
  },
  {
    "dataType": "wifi",
    "category": "其他",
    "name": "統一超商北區中清路亞太店(公話)",
    "lat": 24.170258,
    "lng": 120.672397,
    "address": "404臺中市北區中清路一段508號"
  },
  {
    "dataType": "wifi",
    "category": "其他",
    "name": "統一超商西屯漢成四街漢成店(公話)",
    "lat": 24.170404,
    "lng": 120.665184,
    "address": "407臺中市西屯區漢成四街2號"
  },
  {
    "dataType": "wifi",
    "category": "其他",
    "name": "統一超商北區北平路東義店(公話)",
    "lat": 24.171411,
    "lng": 120.677748,
    "address": "404臺中市北區北平路二段141號"
  },
  {
    "dataType": "wifi",
    "category": "旅遊景點",
    "name": "統一超商北區北平路新北平店(公話)",
    "lat": 24.171473,
    "lng": 120.675098,
    "address": "404臺中市北區北平路二段96號"
  },
  {
    "dataType": "wifi",
    "category": "其他",
    "name": "全家便利商店台中北平路嘉農店(公話)",
    "lat": 24.171636,
    "lng": 120.672423,
    "address": "404臺中市北區北平路二段8號"
  },
  {
    "dataType": "wifi",
    "category": "其他",
    "name": "台中市北區賴興社區發展協會",
    "lat": 24.171644,
    "lng": 120.67566,
    "address": "404臺中市北區賴興里山西路二段125號四樓"
  },
  {
    "dataType": "wifi",
    "category": "洽公場所",
    "name": "長青服務中心",
    "lat": 24.172166,
    "lng": 120.668786,
    "address": "404臺中市北區北平路一段65號"
  },
  {
    "dataType": "wifi",
    "category": "其他",
    "name": "統一超商西屯河南路安河店(公話)",
    "lat": 24.172369,
    "lng": 120.660965,
    "address": "407臺中市西屯區河南路二段14號"
  },
  {
    "dataType": "wifi",
    "category": "洽公場所",
    "name": "臺灣土地銀行北屯分行",
    "lat": 24.172915,
    "lng": 120.678904,
    "address": "404臺中市北區文心路四段232號"
  },
  {
    "dataType": "wifi",
    "category": "其他",
    "name": "全家便利商店北區青島路新東義店(公話)",
    "lat": 24.173107,
    "lng": 120.673934,
    "address": "404臺中市北區青島路一段12號"
  },
  {
    "dataType": "wifi",
    "category": "大眾運輸節點",
    "name": "臺中市公車台灣日報站",
    "lat": 24.1732,
    "lng": 120.6664,
    "address": "407臺中市西屯區文心路三段361號(TCSN4081交接箱)"
  },
  {
    "dataType": "wifi",
    "category": "其他",
    "name": "臺中市西屯區大石社區發展協會",
    "lat": 24.17321,
    "lng": 120.66152,
    "address": "407臺中市西屯區大石里皇城街30號"
  },
  {
    "dataType": "wifi",
    "category": "洽公場所",
    "name": "中油公司台中直銷中心",
    "lat": 24.173908,
    "lng": 120.674203,
    "address": "406臺中市北屯區文心路四段121號"
  },
  {
    "dataType": "wifi",
    "category": "其他",
    "name": "臺中捷運中清文心站(公話)",
    "lat": 24.173972,
    "lng": 120.670811,
    "address": "404臺中市北區文心路三段700號(公話)"
  },
  {
    "dataType": "wifi",
    "category": "其他",
    "name": "統一超商北屯瀋陽路瀋陽店(公話)",
    "lat": 24.174079,
    "lng": 120.678632,
    "address": "406臺中市北屯區瀋陽路一段104號"
  },
  {
    "dataType": "wifi",
    "category": "洽公場所",
    "name": "華南商業銀行水湳分行",
    "lat": 24.174235,
    "lng": 120.672648,
    "address": "406臺中市北屯區文心路四段81號"
  },
  {
    "dataType": "wifi",
    "category": "其他",
    "name": "山西路瀋陽路口",
    "lat": 24.17429,
    "lng": 120.6765,
    "address": "406臺中市北屯區瀋陽路一段68號(TCSN3071)"
  },
  {
    "dataType": "wifi",
    "category": "其他",
    "name": "統一超商西屯中清西二街真安店(公話)",
    "lat": 24.175238,
    "lng": 120.666272,
    "address": "407臺中市西屯區中清西二街79號(公話)"
  },
  {
    "dataType": "wifi",
    "category": "其他",
    "name": "臺中市北屯區水湳社區發展協會",
    "lat": 24.176864,
    "lng": 120.672421,
    "address": "406臺中市北屯區水湳里瀋陽北路21號"
  },
  {
    "dataType": "wifi",
    "category": "旅遊景點",
    "name": "臺中市水湳市場商圈(四平路13號)",
    "lat": 24.177756,
    "lng": 120.669877,
    "address": "406臺中市北屯區四平路13號(公話)"
  },
  {
    "dataType": "wifi",
    "category": "洽公場所",
    "name": "台中水湳郵局",
    "lat": 24.177825,
    "lng": 120.669725,
    "address": "406臺中市北屯區四平路1號"
  },
  {
    "dataType": "wifi",
    "category": "其他",
    "name": "臺中市公車大鵬國小站",
    "lat": 24.178078,
    "lng": 120.665381,
    "address": "407臺中市西屯區大鵬路59號旁(交接箱TCSN5050)"
  },
  {
    "dataType": "wifi",
    "category": "大眾運輸節點",
    "name": "臺中市公車仁愛社區站",
    "lat": 24.17839,
    "lng": 120.67034,
    "address": "406臺中市北屯區四平路27號前面過郵局公園前(TCSN4021)"
  },
  {
    "dataType": "wifi",
    "category": "大眾運輸節點",
    "name": "臺中市國光客運水湳站(公話)",
    "lat": 24.179063,
    "lng": 120.6682,
    "address": "406臺中市北屯區中清路二段346號"
  },
  {
    "dataType": "wifi",
    "category": "洽公場所",
    "name": "臺灣土地銀行中清分行",
    "lat": 24.179106,
    "lng": 120.667991,
    "address": "406臺中市北屯區中清路68-2號"
  },
  {
    "dataType": "wifi",
    "category": "大眾運輸節點",
    "name": "臺中市統聯客運水湳站(公話)",
    "lat": 24.179384,
    "lng": 120.667882,
    "address": "406臺中市北屯區中清路二段366號"
  },
  {
    "dataType": "wifi",
    "category": "其他",
    "name": "全家便利商店北屯中清路中泰店(公話)",
    "lat": 24.179963,
    "lng": 120.667056,
    "address": "406臺中市北屯區中清路二段409號"
  }
]
