[
  {
    "dataType": "wifi",
    "category": "其他",
    "name": "財團法人老五老基金會(大德)",
    "lat": 24.18151,
    "lng": 120.671907,
    "address": "406臺中市北屯區大德里1.平德路38-3號2.大連路三段203號(豐田公園)(大德社區活動中心)"
  },
  {
    "dataType": "wifi",
    "category": "其他",
    "name": "大德公園",
    "lat": 24.18164,
    "lng": 120.671919,
    "address": "406臺中市北屯區平德路3號平德路公園(公話)"
  },
  {
    "dataType": "wifi",
    "category": "其他",
    "name": "臺中市公車陳平站",
    "lat": 24.181841,
    "lng": 120.666121,
    "address": "406臺中市北屯區中清路二段519號前(TCSN1051交接箱內)"
  },
  {
    "dataType": "wifi",
    "category": "其他",
    "name": "統一超商北屯中清路萬寶店(公話)",
    "lat": 24.182665,
    "lng": 120.665539,
    "address": "406臺中市北屯區中清路二段567號"
  },
  {
    "dataType": "wifi",
    "category": "其他",
    "name": "中清路二段陳平路口",
    "lat": 24.18341,
    "lng": 120.66518,
    "address": "406臺中市北屯區中清路二段601號(TCSN1091)"
  },
  {
    "dataType": "wifi",
    "category": "其他",
    "name": "統一超商北屯中清路新象店(公話)",
    "lat": 24.185971,
    "lng": 120.664078,
    "address": "406臺中市北屯區中清路二段786號"
  },
  {
    "dataType": "wifi",
    "category": "其他",
    "name": "統一超商北屯敦化路敦煌店(公話)",
    "lat": 24.187404,
    "lng": 120.667954,
    "address": "406臺中市北屯區敦化路一段473號"
  },
  {
    "dataType": "wifi",
    "category": "其他",
    "name": "臺中市北屯區新平社區發展協會",
    "lat": 24.187573,
    "lng": 120.660436,
    "address": "406臺中市北屯區新平里經貿二路138號五樓"
  },
  {
    "dataType": "wifi",
    "category": "洽公場所",
    "name": "臺中敦化路郵局",
    "lat": 24.189919,
    "lng": 120.672468,
    "address": "406臺中市北屯區敦化路一段627號"
  },
  {
    "dataType": "wifi",
    "category": "其他",
    "name": "統一超商北屯區后庄路后庄店(公話)",
    "lat": 24.190615,
    "lng": 120.665594,
    "address": "406臺中市北屯區后庄路141號"
  },
  {
    "dataType": "wifi",
    "category": "洽公場所",
    "name": "財政部中區國稅局東山稽徵所",
    "lat": 24.195206,
    "lng": 120.679357,
    "address": "406臺中市北屯區豐樂路二段168號"
  },
  {
    "dataType": "wifi",
    "category": "其他",
    "name": "統一超商北屯同榮路同榮店(公話)",
    "lat": 24.195911,
    "lng": 120.661916,
    "address": "406臺中市北屯區同榮路161號"
  }
]
