[
  {
    "name": "華南商業銀行彰化分行",
    "lat": 24.080906,
    "lng": 120.539877,
    "address": "500彰化縣彰化市光復路152號"
  },
  {
    "name": "臺鐵局彰化站候車大廳出口處",
    "lat": 24.0813999,
    "lng": 120.538335,
    "address": "500彰化縣彰化市三民路1號"
  },
  {
    "name": "臺鐵局彰化站第1月台行李房",
    "lat": 24.0816314,
    "lng": 120.5362556,
    "address": "500彰化縣彰化市三民路1號"
  },
  {
    "name": "臺鐵局彰化站第3月台電梯處",
    "lat": 24.0816314,
    "lng": 120.5362556,
    "address": "500彰化縣彰化市三民路1號"
  },
  {
    "name": "臺鐵局彰化站第2月台6車處",
    "lat": 24.0816314,
    "lng": 120.5362556,
    "address": "500彰化縣彰化市三民路1號"
  },
  {
    "name": "臺鐵局彰化站第1月台7-8車位置",
    "lat": 24.0816314,
    "lng": 120.5384443,
    "address": "500彰化縣彰化市三民路1號"
  },
  {
    "name": "臺鐵局彰化站第3月台行車室",
    "lat": 24.0816314,
    "lng": 120.5384443,
    "address": "500彰化縣彰化市三民路1號"
  },
  {
    "name": "臺鐵局彰化站候車室",
    "lat": 24.081651,
    "lng": 120.538428,
    "address": "500彰化縣彰化市三民路1號"
  },
  {
    "name": "臺鐵局彰化站第1月台4-5車處",
    "lat": 24.081651,
    "lng": 120.538428,
    "address": "500彰化縣彰化市三民路1號"
  },
  {
    "name": "彰化縣彰化客運彰化站(試辦單位)",
    "lat": 24.081677,
    "lng": 120.539471,
    "address": "500彰化縣彰化市中正路一段563號"
  },
  {
    "name": "彰化縣警察局交通警察隊第三分隊",
    "lat": 24.081959,
    "lng": 120.539405,
    "address": "500彰化縣彰化市三民路2號"
  },
  {
    "name": "彰化縣統聯客運彰化站",
    "lat": 24.08228,
    "lng": 120.539525,
    "address": "500彰化縣彰化市三民路8號"
  },
  {
    "name": "彰化縣警察局彰化分局中正派出所",
    "lat": 24.083044,
    "lng": 120.532401,
    "address": "500彰化縣彰化市西勢街150號"
  },
  {
    "name": "臺鐵局彰化機務段扇形車庫",
    "lat": 24.086127,
    "lng": 120.539841,
    "address": "500彰化縣彰化市彰美路一段1號"
  },
  {
    "name": "彰化過溝仔郵局",
    "lat": 24.08872,
    "lng": 120.538232,
    "address": "500彰化縣彰化市新興里彰美路一段166號"
  },
  {
    "name": "彰化縣彰化市新興華社區活動中心_華興公園",
    "lat": 24.090882,
    "lng": 120.537656,
    "address": "500彰化縣彰化市彰新路一段117號"
  }
]
