[
  {
    "name": "臺中市政府交通局2樓",
    "lat": 24.1401,
    "lng": 120.6773,
    "address": "403臺中市西區民權路101號"
  },
  {
    "name": "國立台灣美術館戶外大門廣場",
    "lat": 24.140661,
    "lng": 120.663072,
    "address": "403臺中市西區五權西路一段2號"
  },
  {
    "name": "國立台灣美術館戶外星光草坪",
    "lat": 24.140762,
    "lng": 120.66423,
    "address": "403臺中市西區五權西路一段2號"
  },
  {
    "name": "國立台灣美術館戶外美術園區停車場(美村路)",
    "lat": 24.140815,
    "lng": 120.662125,
    "address": "403臺中市西區五權西路一段2號"
  },
  {
    "name": "財團法人臺中市私立肯納自閉症社會福利基金會",
    "lat": 24.140957,
    "lng": 120.677149,
    "address": "400臺中市中區大墩里三民路二段17巷23號"
  },
  {
    "name": "國立臺灣美術館3樓資料中心",
    "lat": 24.140984,
    "lng": 120.662775,
    "address": "403臺中市西區五權西路一段2號3樓"
  },
  {
    "name": "中西區衛生所",
    "lat": 24.141093,
    "lng": 120.676005,
    "address": "403臺中市西區民權路105號"
  },
  {
    "name": "國立臺灣美術館1樓大廳",
    "lat": 24.141111,
    "lng": 120.663032,
    "address": "403臺中市西區五權西路一段2號"
  },
  {
    "name": "萊爾富便利商店西區民生路中堂店(公話)",
    "lat": 24.141128,
    "lng": 120.672814,
    "address": "403臺中市西區民生路109號"
  },
  {
    "name": "西區區公所",
    "lat": 24.141207,
    "lng": 120.671222,
    "address": "403臺中市西區金山路11號"
  },
  {
    "name": "大墩文化中心",
    "lat": 24.141399,
    "lng": 120.665768,
    "address": "403臺中市西區英才路600號"
  },
  {
    "name": "大墩文化中心2F",
    "lat": 24.141499,
    "lng": 120.666024,
    "address": "403臺中市西區英才路600號"
  },
  {
    "name": "上海商銀台中分行",
    "lat": 24.141507,
    "lng": 120.678747,
    "address": "400臺中市中區三民路二段46號"
  },
  {
    "name": "國立台灣美術館演講廳",
    "lat": 24.141521,
    "lng": 120.664715,
    "address": "403臺中市西區五權西路一段2號"
  },
  {
    "name": "臺中市公車大墩文化中心(英才路)站",
    "lat": 24.141696,
    "lng": 120.665924,
    "address": "403臺中市西區英才路600號(公話)"
  },
  {
    "name": "國立台灣美術館戶外碑林廣場",
    "lat": 24.141709,
    "lng": 120.664977,
    "address": "403臺中市西區五權西路一段2號"
  },
  {
    "name": "全家便利商店西區民生路全球店(公話)",
    "lat": 24.141811,
    "lng": 120.672155,
    "address": "403臺中市西區民生路131號"
  },
  {
    "name": "行政院勞動部勞工保險局臺中市辦事處洽公櫃台",
    "lat": 24.141828,
    "lng": 120.675255,
    "address": "403臺中市西區民權路131號"
  },
  {
    "name": "臺中市西區平和社區發展協會",
    "lat": 24.142253,
    "lng": 120.672737,
    "address": "403臺中市西區平和里民生路126巷21號一樓"
  },
  {
    "name": "臺中市第二市場(六角亭)",
    "lat": 24.142366,
    "lng": 120.678812,
    "address": "400臺中市中區臺灣大道一段395號"
  },
  {
    "name": "統一超商西區民生路新五廊店(公話)",
    "lat": 24.142624,
    "lng": 120.671201,
    "address": "403臺中市西區民生路155號"
  },
  {
    "name": "華南商業銀行台中分行",
    "lat": 24.1427,
    "lng": 120.675073,
    "address": "400臺中市中區民權路174號"
  },
  {
    "name": "臺中市第二市場(臺灣大道一段366號)",
    "lat": 24.1427359,
    "lng": 120.6794983,
    "address": "400臺中市中區臺灣大道一段366號前(第二市場對面)(TCMC6030交接箱)"
  },
  {
    "name": "臺中市第二市場",
    "lat": 24.1427364,
    "lng": 120.6784897,
    "address": "400臺中市中區臺灣大道一段395號第二市場管理室門口柱子"
  },
  {
    "name": "OK超商中區中山路富大店(公話)",
    "lat": 24.14277,
    "lng": 120.6777,
    "address": "400臺中市中區中山路276號"
  },
  {
    "name": "臺灣土地銀行西臺中分行",
    "lat": 24.1428,
    "lng": 120.668905,
    "address": "403臺中市西區五權路2-4號"
  },
  {
    "name": "統一超商西區五權路安龍店(公話)",
    "lat": 24.14281,
    "lng": 120.6689,
    "address": "403臺中市西區五權路2號之12"
  },
  {
    "name": "兆豐國際商銀台中分行",
    "lat": 24.143232,
    "lng": 120.674048,
    "address": "400臺中市中區民權路216號"
  },
  {
    "name": "兆豐國際商銀臺中分行3樓",
    "lat": 24.143232,
    "lng": 120.674048,
    "address": "400臺中市中區民權路216號3樓"
  },
  {
    "name": "臺中市公車臺中公園(自由路)站",
    "lat": 24.143328,
    "lng": 120.6737,
    "address": "400臺中市中區自由路2段90之1號(TCMC1050)"
  },
  {
    "name": "臺灣中小企業銀行臺中分行",
    "lat": 24.143337,
    "lng": 120.67871,
    "address": "400臺中市中區中正路224號"
  },
  {
    "name": "臺中市向上國中(公話亭)",
    "lat": 24.1436022,
    "lng": 120.6619665,
    "address": "403臺中市西區美村路一段389號(公話亭)"
  },
  {
    "name": "統一超商中區中華路鑫華新店(公話)",
    "lat": 24.143768,
    "lng": 120.675007,
    "address": "400臺中市中區中華路一段75號"
  },
  {
    "name": "臺中市立圖書館中區分館",
    "lat": 24.14385,
    "lng": 120.679515,
    "address": "400臺中市中區成功路300號7樓"
  },
  {
    "name": "中區區公所",
    "lat": 24.143889,
    "lng": 120.679552,
    "address": "400臺中市中區成功路300號3樓"
  },
  {
    "name": "全家便利商店中區民族路日日新店(公話)",
    "lat": 24.143902,
    "lng": 120.675038,
    "address": "400臺中市中區民族路216號"
  },
  {
    "name": "內政部營建署城鄉發展分署中區規劃隊(民生)",
    "lat": 24.143972,
    "lng": 120.668238,
    "address": "403臺中市西區民生路215-1號3樓"
  },
  {
    "name": "中區戶政事務所",
    "lat": 24.144106,
    "lng": 120.679567,
    "address": "400臺中市中區興中街80號"
  },
  {
    "name": "臺中市公車臺灣大道中華路站",
    "lat": 24.1441489,
    "lng": 120.6760628,
    "address": "400臺中市中區臺灣大道一段501號"
  },
  {
    "name": "第一商業銀行(北台中分行)",
    "lat": 24.1441489,
    "lng": 120.6773529,
    "address": "400臺中市中區臺灣大道一段501號"
  },
  {
    "name": "台中市中區大誠社區發展協會",
    "lat": 24.144284,
    "lng": 120.676383,
    "address": "400臺中市中區中華里中山路328號B1"
  },
  {
    "name": "全家便利商店中區中華路日新店(公話)",
    "lat": 24.144455,
    "lng": 120.675768,
    "address": "400臺中市中區中華路一段109號"
  },
  {
    "name": "台中英才郵局",
    "lat": 24.144563,
    "lng": 120.665928,
    "address": "403臺中市西區民生路200號"
  },
  {
    "name": "台中英才郵局國際包裹驗關室",
    "lat": 24.144913,
    "lng": 120.665996,
    "address": "403臺中市西區民生路200號7樓"
  },
  {
    "name": "財政部中區國稅局民權稽徵所",
    "lat": 24.1451,
    "lng": 120.667,
    "address": "403臺中市西區民生路168號"
  },
  {
    "name": "財政部中區國稅局6樓會議室",
    "lat": 24.145131,
    "lng": 120.667575,
    "address": "403臺中市西區民生路168號6樓"
  },
  {
    "name": "財政部國有財產署中區分署",
    "lat": 24.145148,
    "lng": 120.667495,
    "address": "403臺中市西區民生路168號3、4樓"
  },
  {
    "name": "財政部國有財產署中區分署3F洽公區",
    "lat": 24.145148,
    "lng": 120.667495,
    "address": "403臺中市西區民生路168號3樓"
  },
  {
    "name": "財政部國有財產署中區分署4F開標會議室",
    "lat": 24.145148,
    "lng": 120.667495,
    "address": "403臺中市西區民生路168號4樓"
  },
  {
    "name": "財團法人弘道老人福利基金會(後龍)",
    "lat": 24.145247,
    "lng": 120.671837,
    "address": "403臺中市西區後龍里民權路234號四樓"
  },
  {
    "name": "財團法人天主教聖心基金會(柳川)",
    "lat": 24.145276,
    "lng": 120.679551,
    "address": "400臺中市中區柳川里光復路136號"
  },
  {
    "name": "全家便利商店中區中華路鑫華店(公話)",
    "lat": 24.145896,
    "lng": 120.677733,
    "address": "400臺中市中區中華路一段150號"
  },
  {
    "name": "財團法人向上社會福利基金會",
    "lat": 24.146782,
    "lng": 120.679594,
    "address": "400臺中市中區大誠里公園路48號"
  },
  {
    "name": "全家便利商店西區向上路向上店(公話)",
    "lat": 24.14685,
    "lng": 120.666792,
    "address": "403臺中市西區向上路一段36號"
  },
  {
    "name": "中華路夜市商圈",
    "lat": 24.1469988,
    "lng": 120.6787472,
    "address": "404臺中市北區中華路公園路口(TCYT3200)"
  },
  {
    "name": "統一超商西區五權路台麗店(公話)",
    "lat": 24.147059,
    "lng": 120.672564,
    "address": "403臺中市西區五權路119號"
  },
  {
    "name": "台中中正路郵局",
    "lat": 24.147255,
    "lng": 120.673927,
    "address": "403臺中市西區中正路451號"
  },
  {
    "name": "全家便利商店西區民權路後龍店(公話)",
    "lat": 24.147543,
    "lng": 120.670077,
    "address": "403臺中市西區民權路302號"
  },
  {
    "name": "全家便利商店西區向上北路尚美店(公話)",
    "lat": 24.147902,
    "lng": 120.660669,
    "address": "403臺中市西區向上北路192號"
  },
  {
    "name": "臺中市公車美村向上北路口站",
    "lat": 24.14826,
    "lng": 120.66156,
    "address": "403臺中市西區美村路一段242號前(TCMF2590)"
  },
  {
    "name": "西區商圈(美村路241號)",
    "lat": 24.1488,
    "lng": 120.66179,
    "address": "403臺中市西區美村路一段241號前(TCMF2602)"
  },
  {
    "name": "全家便利商店西區公正路市民店(公話)",
    "lat": 24.148931,
    "lng": 120.662932,
    "address": "403臺中市西區公正路103號"
  },
  {
    "name": "臺中市市民廣場5",
    "lat": 24.14913,
    "lng": 120.6632,
    "address": "403臺中市西區公正路中興街口(公話)"
  },
  {
    "name": "臺中市市民廣場3",
    "lat": 24.14914,
    "lng": 120.66406,
    "address": "403臺中市西區公正路公益路155巷口"
  },
  {
    "name": "全家便利商店西區五權路金可店(公話)",
    "lat": 24.149347,
    "lng": 120.674985,
    "address": "403臺中市西區五權路205號(公話)"
  },
  {
    "name": "台中市民廣場",
    "lat": 24.150127,
    "lng": 120.66394,
    "address": "403臺中市西區公益路163-1號"
  },
  {
    "name": "台中公益路郵局",
    "lat": 24.150631,
    "lng": 120.660753,
    "address": "403臺中市西區公益里公益路193號"
  },
  {
    "name": "臺中市市民廣場4",
    "lat": 24.150709,
    "lng": 120.663121,
    "address": "403臺中市西區公益路中興街交叉口"
  },
  {
    "name": "統一超商西區公益路市民店(公話)",
    "lat": 24.150739,
    "lng": 120.662775,
    "address": "403臺中市西區公益路157號"
  },
  {
    "name": "臺中市市民廣場2",
    "lat": 24.150748,
    "lng": 120.664151,
    "address": "403臺中市西區公益路公益路155巷交叉口"
  },
  {
    "name": "臺中市西區大和社區發展協會",
    "lat": 24.150801,
    "lng": 120.67231,
    "address": "403臺中市西區和龍里西屯路一段169號"
  },
  {
    "name": "全家便利商店西區篤行路篤行店(公話)",
    "lat": 24.1508073,
    "lng": 120.6737032,
    "address": "403臺中市西區篤行路188號(公話)"
  },
  {
    "name": "社團法人台中市啟明重建福利協會",
    "lat": 24.150915,
    "lng": 120.677635,
    "address": "404臺中市北區光大里公園路184號B1"
  },
  {
    "name": "統一超商北區日興街光大國宅店(公話)",
    "lat": 24.150934,
    "lng": 120.675544,
    "address": "404臺中市北區日興街180號"
  },
  {
    "name": "臺中市草悟道(勤美1)",
    "lat": 24.150939,
    "lng": 120.663404,
    "address": "403臺中市西區公益路館前路交叉口"
  },
  {
    "name": "臺中市草悟道(全國)",
    "lat": 24.15177,
    "lng": 120.66338,
    "address": "403臺中市西區館前路英才路470巷交叉口"
  },
  {
    "name": "社團法人臺中市篤行關懷協會",
    "lat": 24.152042,
    "lng": 120.674978,
    "address": "404臺中市北區文莊里文化街69號"
  },
  {
    "name": "台中五權路郵局",
    "lat": 24.152103,
    "lng": 120.678591,
    "address": "404臺中市北區五權路311、313號"
  },
  {
    "name": "OK超商北區五權路柳川店(公話)",
    "lat": 24.152378,
    "lng": 120.679112,
    "address": "404臺中市北區五權路329號之2"
  },
  {
    "name": "臺中市公車臺中二中站",
    "lat": 24.152629,
    "lng": 120.677155,
    "address": "404臺中市北區中清路一段25巷口"
  },
  {
    "name": "勤美誠品綠園道公話亭3",
    "lat": 24.15293,
    "lng": 120.66294,
    "address": "403臺中市西區中興街247號斜對面配電箱旁公話亭"
  },
  {
    "name": "臺中市北區中達社區發展協會",
    "lat": 24.152944,
    "lng": 120.671702,
    "address": "404臺中市北區中達里中達街29號旁(中達球場)"
  },
  {
    "name": "臺中市西區忠明社區發展協會",
    "lat": 24.153911,
    "lng": 120.661016,
    "address": "403臺中市西區忠明里長春街27號"
  },
  {
    "name": "美村路明義街口(TCCM2050)",
    "lat": 24.15457,
    "lng": 120.66156,
    "address": "403臺中市西區明義街3號對面(TCCM2050)"
  },
  {
    "name": "統一超商西區美村路明義店(公話)",
    "lat": 24.154577,
    "lng": 120.661652,
    "address": "403臺中市西區美村路一段22號"
  },
  {
    "name": "臺灣土地銀行北臺中分行",
    "lat": 24.154606,
    "lng": 120.676944,
    "address": "404臺中市北區大雅路45號"
  },
  {
    "name": "臺中市草悟道(渣打)",
    "lat": 24.15479,
    "lng": 120.66346,
    "address": "403臺中市西區臺灣大道二段中興街口(TCCM2090)"
  },
  {
    "name": "臺中市政府婦幼館",
    "lat": 24.155423,
    "lng": 120.6706,
    "address": "461臺中市北區民權路400號"
  },
  {
    "name": "統一超商北區博館路科博館店(公話)",
    "lat": 24.155583,
    "lng": 120.666465,
    "address": "404臺中市北區博館路92號"
  },
  {
    "name": "全家便利商店北區英才路喜樂店(公話)",
    "lat": 24.155929,
    "lng": 120.67192,
    "address": "404臺中市北區英才路266號"
  },
  {
    "name": "國立自然科學博物館綜合服務中心",
    "lat": 24.156164,
    "lng": 120.666303,
    "address": "404臺中市北區館前路一號"
  },
  {
    "name": "上海商銀中港分行",
    "lat": 24.156441,
    "lng": 120.660265,
    "address": "403臺中市西區西區臺灣大道二段489號"
  },
  {
    "name": "台中淡溝郵局",
    "lat": 24.1570459,
    "lng": 120.670352,
    "address": "404臺中市北區民權路365號"
  },
  {
    "name": "統一超商北區育德路中醫店(公話)",
    "lat": 24.157165,
    "lng": 120.679757,
    "address": "404臺中市北區育德路13號"
  },
  {
    "name": "臺中市植物園前1",
    "lat": 24.158364,
    "lng": 120.667074,
    "address": "404臺中市北區館前路1號前"
  },
  {
    "name": "臺中市植物園前2",
    "lat": 24.158364,
    "lng": 120.667074,
    "address": "404臺中市北區館前路1號前"
  },
  {
    "name": "臺中市北區育德社區發展協會(公話)",
    "lat": 24.158871,
    "lng": 120.67626,
    "address": "404臺中市北區健行路603號(公話)"
  },
  {
    "name": "臺中市公車健行尚德街口站",
    "lat": 24.15906,
    "lng": 120.67849,
    "address": "404臺中市北區健行路463號前(大德街口)(YT2050)"
  },
  {
    "name": "臺中市公車健行國小站",
    "lat": 24.159269,
    "lng": 120.67358,
    "address": "404臺中市北區健行國小前(TCYT5030)"
  },
  {
    "name": "臺中市北區健行社區發展協會",
    "lat": 24.159696,
    "lng": 120.665053,
    "address": "404臺中市北區健行里西屯路一段319巷20號二樓"
  }
]
