[
  {
    "dataType": "wifi",
    "category": "其他",
    "name": "臺中捷運大慶站(公話)",
    "lat": 24.12029,
    "lng": 120.64949,
    "address": "402臺中市南區建國北路一段11號(公話)"
  },
  {
    "dataType": "wifi",
    "category": "其他",
    "name": "統一超商南區德富路無尾熊店(公話)",
    "lat": 24.120691,
    "lng": 120.653944,
    "address": "402臺中市南區德富路73號"
  },
  {
    "dataType": "wifi",
    "category": "其他",
    "name": "統一超商南區忠明南路生活店(公話)",
    "lat": 24.123853,
    "lng": 120.65864,
    "address": "402臺中市南區忠明南路730巷17號"
  },
  {
    "dataType": "wifi",
    "category": "其他",
    "name": "全家便利商店南區忠明南路大安店(公話)",
    "lat": 24.124357,
    "lng": 120.658737,
    "address": "402臺中市南區忠明南路730巷23號"
  },
  {
    "dataType": "wifi",
    "category": "其他",
    "name": "全家便利商店南區建國北路新高橋店(公話)",
    "lat": 24.125459,
    "lng": 120.657835,
    "address": "402臺中市南區建國北路一段250號"
  },
  {
    "dataType": "wifi",
    "category": "其他",
    "name": "臺中市南區崇倫社區發展協會",
    "lat": 24.128708,
    "lng": 120.657329,
    "address": "402臺中市南區崇倫里崇倫街52之3號"
  },
  {
    "dataType": "wifi",
    "category": "其他",
    "name": "豐富公園",
    "lat": 24.129383,
    "lng": 120.654489,
    "address": "408臺中市南屯區精誠南路161號(公話電亭)"
  },
  {
    "dataType": "wifi",
    "category": "旅遊景點",
    "name": "豐樂雕塑公園大門前(公話亭)",
    "lat": 24.130585,
    "lng": 120.6412,
    "address": "408臺中市南屯區永春東一路575號對面"
  },
  {
    "dataType": "wifi",
    "category": "旅遊景點",
    "name": "豐樂雕塑公園(綜合活動中心)(公話)",
    "lat": 24.131147,
    "lng": 120.642932,
    "address": "408臺中市南屯區文心南五路一段331號"
  },
  {
    "dataType": "wifi",
    "category": "其他",
    "name": "臺中市南屯區豐樂社區發展協會",
    "lat": 24.131571,
    "lng": 120.643402,
    "address": "408臺中市南屯區豐樂里文心南五路一段337號"
  },
  {
    "dataType": "wifi",
    "category": "洽公場所",
    "name": "臺中市愛心家園",
    "lat": 24.131603,
    "lng": 120.653723,
    "address": "408臺中市南屯區東興路一段450號"
  },
  {
    "dataType": "wifi",
    "category": "其他",
    "name": "萊爾富便利商店南屯文心南五路中豐店(公話)",
    "lat": 24.131886,
    "lng": 120.64417,
    "address": "408臺中市南屯區文心南五路327號"
  },
  {
    "dataType": "wifi",
    "category": "其他",
    "name": "臺中捷運豐樂公園站(公話)",
    "lat": 24.132522,
    "lng": 120.646811,
    "address": "408臺中市南屯區文心南路168號(公話)"
  },
  {
    "dataType": "wifi",
    "category": "其他",
    "name": "南苑公園",
    "lat": 24.133219,
    "lng": 120.646672,
    "address": "408臺中市南屯區文心南路與文心南三街口_(公話亭)"
  },
  {
    "dataType": "wifi",
    "category": "洽公場所",
    "name": "內政部移民署臺中市第一服務站(新)",
    "lat": 24.133451,
    "lng": 120.653427,
    "address": "408臺中市南屯區文心南三路22號1樓"
  },
  {
    "dataType": "wifi",
    "category": "其他",
    "name": "全家便利商店南區南屯路崇倫店(公話)",
    "lat": 24.134236,
    "lng": 120.656385,
    "address": "402臺中市南區南屯路一段273號"
  },
  {
    "dataType": "wifi",
    "category": "公立醫院",
    "name": "南屯區衛生所",
    "lat": 24.134264,
    "lng": 120.643514,
    "address": "408臺中市南屯區向心南路811號"
  },
  {
    "dataType": "wifi",
    "category": "其他",
    "name": "統一超商南屯文心南路豐春店(公話)",
    "lat": 24.134442,
    "lng": 120.646726,
    "address": "408臺中市南屯區文心南路100號"
  },
  {
    "dataType": "wifi",
    "category": "洽公場所",
    "name": "南屯區戶政事務所",
    "lat": 24.134472,
    "lng": 120.644216,
    "address": "408臺中市南屯區永春東路679號"
  },
  {
    "dataType": "wifi",
    "category": "洽公場所",
    "name": "南屯區公所",
    "lat": 24.134499,
    "lng": 120.644387,
    "address": "408臺中市南屯區永春東路679號"
  },
  {
    "dataType": "wifi",
    "category": "其他",
    "name": "統一超商南屯永春東路新豐功店(公話)",
    "lat": 24.135014,
    "lng": 120.641172,
    "address": "408臺中市南屯區永春東路860號"
  },
  {
    "dataType": "wifi",
    "category": "洽公場所",
    "name": "臺灣土地銀行南屯分行",
    "lat": 24.135143,
    "lng": 120.646157,
    "address": "408臺中市南屯區文心南路65、67號1~2樓"
  },
  {
    "dataType": "wifi",
    "category": "其他",
    "name": "統一超商西區忠明南路吉龍店(公話)",
    "lat": 24.135252,
    "lng": 120.657093,
    "address": "403臺中市西區忠明南路410號(公話)"
  },
  {
    "dataType": "wifi",
    "category": "其他",
    "name": "統一超商南屯向心南路海德堡店(公話)",
    "lat": 24.136107,
    "lng": 120.644028,
    "address": "408臺中市南屯區向心南路928號(公話)"
  },
  {
    "dataType": "wifi",
    "category": "其他",
    "name": "臺中市婦女發展協會",
    "lat": 24.136394,
    "lng": 120.658974,
    "address": "403臺中市西區吉龍里五權五街285號"
  },
  {
    "dataType": "wifi",
    "category": "洽公場所",
    "name": "西區社會福利服務中心",
    "lat": 24.136443,
    "lng": 120.655302,
    "address": "403臺中市西區五權五街285號"
  },
  {
    "dataType": "wifi",
    "category": "其他",
    "name": "社團法人臺中市西區大忠社區發展協會",
    "lat": 24.136492,
    "lng": 120.655329,
    "address": "403臺中市西區大忠里五權五街285號"
  },
  {
    "dataType": "wifi",
    "category": "其他",
    "name": "統一超商南屯南屯路墩南店(公話)",
    "lat": 24.136741,
    "lng": 120.650096,
    "address": "408臺中市南屯區南屯路二段212號"
  },
  {
    "dataType": "wifi",
    "category": "其他",
    "name": "全家便利商店南屯東興路新東二店(公話)",
    "lat": 24.136952,
    "lng": 120.653121,
    "address": "408臺中市南屯區東興路二段36號"
  },
  {
    "dataType": "wifi",
    "category": "其他",
    "name": "臺中市南屯區同心社區發展協會",
    "lat": 24.138029,
    "lng": 120.648711,
    "address": "408臺中市南屯區同心里大墩一街224號"
  },
  {
    "dataType": "wifi",
    "category": "洽公場所",
    "name": "南屯區家庭福利服務中心",
    "lat": 24.138069,
    "lng": 120.643139,
    "address": "408臺中市南屯區南屯路二段407號5樓"
  },
  {
    "dataType": "wifi",
    "category": "洽公場所",
    "name": "台中南屯路郵局",
    "lat": 24.138069,
    "lng": 120.643561,
    "address": "408臺中市南屯區南屯路二段405號"
  },
  {
    "dataType": "wifi",
    "category": "其他",
    "name": "臺中市公車南屯郵局站",
    "lat": 24.138121,
    "lng": 120.643288,
    "address": "408臺中市南屯區南屯路二段498號對面"
  },
  {
    "dataType": "wifi",
    "category": "其他",
    "name": "台中市南屯區向心社區發展協會",
    "lat": 24.138132,
    "lng": 120.643414,
    "address": "408臺中市南屯區向心里南屯路二段407號五樓"
  },
  {
    "dataType": "wifi",
    "category": "洽公場所",
    "name": "華南商業銀行五權分行",
    "lat": 24.138353,
    "lng": 120.657091,
    "address": "403臺中市西區忠明南路270號"
  },
  {
    "dataType": "wifi",
    "category": "其他",
    "name": "統一超商南屯南屯路南屯店(公話)",
    "lat": 24.138554,
    "lng": 120.641723,
    "address": "408臺中市南屯區南屯路二段570號(公話)"
  },
  {
    "dataType": "wifi",
    "category": "其他",
    "name": "統一超商南屯東興路新墩興店(公話)",
    "lat": 24.138799,
    "lng": 120.653154,
    "address": "408臺中市南屯區東興路二段98號"
  },
  {
    "dataType": "wifi",
    "category": "其他",
    "name": "臺中市豐富幸福社區關懷協會",
    "lat": 24.139714,
    "lng": 120.651218,
    "address": "408臺中市南屯區大誠里五權西路二段131號B1"
  },
  {
    "dataType": "wifi",
    "category": "其他",
    "name": "統一超商南屯五權西路大進店(公話)",
    "lat": 24.139886,
    "lng": 120.650085,
    "address": "408臺中市南屯區五權西路二段185號"
  }
]
