[
  {
    "dataType": "wifi",
    "category": "其他",
    "name": "全家便利商店神岡昌平路新社口店(公話)",
    "lat": 24.243666,
    "lng": 120.682623,
    "address": "429臺中市神岡區昌平路五段289號"
  },
  {
    "dataType": "wifi",
    "category": "其他",
    "name": "統一超商神岡民生路承軒店(公話)",
    "lat": 24.244806,
    "lng": 120.680293,
    "address": "429臺中市神岡區民生路48號之7(公話)"
  },
  {
    "dataType": "wifi",
    "category": "其他",
    "name": "臺中市公車社口站",
    "lat": 24.24671,
    "lng": 120.68527,
    "address": "429臺中市神岡區中山路516號(FYSK2921)"
  },
  {
    "dataType": "wifi",
    "category": "其他",
    "name": "臺中市公車神岡高工站",
    "lat": 24.247006,
    "lng": 120.681818,
    "address": "429臺中市神岡區中山路664號對面FYSK2170"
  },
  {
    "dataType": "wifi",
    "category": "洽公場所",
    "name": "神岡社口郵局",
    "lat": 24.247116,
    "lng": 120.681902,
    "address": "429臺中市神岡區社口村中山路611號"
  },
  {
    "dataType": "wifi",
    "category": "其他",
    "name": "臺中市神岡區岸裡社區發展協會",
    "lat": 24.247858,
    "lng": 120.693615,
    "address": "429臺中市神岡區岸裡里大洲路383號"
  },
  {
    "dataType": "wifi",
    "category": "其他",
    "name": "統一超商神岡中山路社口店(公話)",
    "lat": 24.248243,
    "lng": 120.680372,
    "address": "429臺中市神岡區中山路736號"
  },
  {
    "dataType": "wifi",
    "category": "洽公場所",
    "name": "神岡岸裡郵局",
    "lat": 24.248616,
    "lng": 120.697934,
    "address": "429臺中市神岡區岸裡村中山路49號"
  },
  {
    "dataType": "wifi",
    "category": "其他",
    "name": "全家便利商店神岡中山路加油店(公話)",
    "lat": 24.248764,
    "lng": 120.696328,
    "address": "429臺中市神岡區中山路88號(公話)"
  },
  {
    "dataType": "wifi",
    "category": "其他",
    "name": "臺中市神岡區社口社區發展協會",
    "lat": 24.250251,
    "lng": 120.682136,
    "address": "429臺中市神岡區社口里文政街160號"
  },
  {
    "dataType": "wifi",
    "category": "其他",
    "name": "臺中市神岡區大社社區發展協會",
    "lat": 24.250618,
    "lng": 120.698558,
    "address": "429臺中市神岡區大社里豐社一街19號"
  }
]
