[
  {
    "dataType": "charging",
    "name": "竹東下公館郵局",
    "lat": 24.723876,
    "lng": 121.095283,
    "address": "310新竹縣竹東鎮東寧路一段77號"
  },
  {
    "dataType": "charging",
    "name": "中油公司竹東服務中心",
    "lat": 24.725208,
    "lng": 121.099516,
    "address": "310新竹縣竹東鎮東寧里北興路一段36號"
  },
  {
    "dataType": "charging",
    "name": "自來水公司竹東營運所",
    "lat": 24.735766,
    "lng": 121.091308,
    "address": "310新竹縣竹東鎮長安路123號"
  },
  {
    "dataType": "charging",
    "name": "竹東郵局",
    "lat": 24.736832,
    "lng": 121.092835,
    "address": "310新竹縣竹東鎮東林路128號"
  },
  {
    "dataType": "charging",
    "name": "新竹縣竹東鎮戶政事務所",
    "lat": 24.737419,
    "lng": 121.087017,
    "address": "310新竹縣竹東鎮康寧街89號"
  },
  {
    "dataType": "charging",
    "name": "竹東長春郵局",
    "lat": 24.738236,
    "lng": 121.088252,
    "address": "310新竹縣竹東鎮長春路二段60號"
  }
]
