[
  {
    "name": "國軍退除役官兵輔導委員會花蓮縣榮民服務處一樓大廳",
    "lat": 23.980822,
    "lng": 121.616491,
    "address": "970花蓮縣花蓮市菁華街6-1號"
  },
  {
    "name": "外交部領事事務局東部辦事處(6樓大廳)",
    "lat": 23.98143,
    "lng": 121.605793,
    "address": "970花蓮縣花蓮市中山路371號6樓"
  },
  {
    "name": "內政部移民署花蓮縣服務站(新)",
    "lat": 23.981467,
    "lng": 121.605831,
    "address": "970花蓮縣花蓮市中山路371號5樓"
  },
  {
    "name": "合作金庫北花蓮分行一樓營業廳",
    "lat": 23.98165,
    "lng": 121.60576,
    "address": "970花蓮縣花蓮市中山路371號"
  },
  {
    "name": "花蓮市中正路新興路口",
    "lat": 23.9820998,
    "lng": 121.6133987,
    "address": "970花蓮縣花蓮市中正路645號"
  },
  {
    "name": "花蓮市林森路與復興街口",
    "lat": 23.9821882,
    "lng": 121.6058408,
    "address": "970花蓮縣花蓮市復興街80號"
  },
  {
    "name": "花蓮縣花蓮市公所",
    "lat": 23.9823,
    "lng": 121.6065,
    "address": "970花蓮縣花蓮市林森路252號"
  },
  {
    "name": "臺灣土地銀行花蓮分行",
    "lat": 23.9824999,
    "lng": 121.60528,
    "address": "970花蓮縣花蓮市中山路356號"
  },
  {
    "name": "花蓮縣松園別館",
    "lat": 23.982579,
    "lng": 121.616006,
    "address": "970花蓮縣花蓮市松園街65號"
  },
  {
    "name": "社團法人花蓮基督教女青年會",
    "lat": 23.982628,
    "lng": 121.606948,
    "address": "970花蓮縣花蓮市國安里林森路411號三樓"
  },
  {
    "name": "社團法人花蓮縣老人暨家庭關懷協會-國光",
    "lat": 23.9830948,
    "lng": 121.6077089,
    "address": "970花蓮縣花蓮市國光里林森路437號"
  },
  {
    "name": "花蓮市復興街與正義街口",
    "lat": 23.9831914,
    "lng": 121.6058138,
    "address": "970花蓮縣花蓮市正義街1號"
  },
  {
    "name": "花蓮市中山路與明心街口",
    "lat": 23.983535,
    "lng": 121.604349,
    "address": "970花蓮縣花蓮市中山路406之2號"
  },
  {
    "name": "花蓮縣環境局永續教育中心",
    "lat": 23.983557,
    "lng": 121.619769,
    "address": "970花蓮縣花蓮市中美路68號"
  },
  {
    "name": "自來水公司花蓮服務所",
    "lat": 23.983747,
    "lng": 121.614657,
    "address": "970花蓮縣花蓮市水源街31號"
  },
  {
    "name": "花蓮國安郵局",
    "lat": 23.983993,
    "lng": 121.604241,
    "address": "970花蓮縣花蓮市中山路408號"
  },
  {
    "name": "花蓮市公所國安郵局候車亭",
    "lat": 23.983993,
    "lng": 121.604241,
    "address": "970花蓮縣花蓮市中山路408號"
  },
  {
    "name": "財政部北區國稅局花蓮縣分局",
    "lat": 23.9840697,
    "lng": 121.6070925,
    "address": "970花蓮縣花蓮市明禮路131號1樓"
  },
  {
    "name": "花蓮縣政府地政處測量科",
    "lat": 23.9842229,
    "lng": 121.6070514,
    "address": "970花蓮縣花蓮市林森路465號"
  },
  {
    "name": "吉安鄉客家產物文化館",
    "lat": 23.984256,
    "lng": 121.603448,
    "address": "973花蓮縣吉安鄉中山路475號"
  },
  {
    "name": "財政部國有財產署北區分署花蓮辦事處",
    "lat": 23.984331,
    "lng": 121.606328,
    "address": "970花蓮縣花蓮市明禮路131號"
  },
  {
    "name": "花蓮市中山路與明智街口",
    "lat": 23.984524,
    "lng": 121.603912,
    "address": "970花蓮縣花蓮市中山路400號"
  },
  {
    "name": "花蓮縣花蓮市民德里辦公處",
    "lat": 23.98643,
    "lng": 121.61987,
    "address": "970花蓮縣花蓮市府前路32號"
  },
  {
    "name": "國立花蓮高級商業職業學校",
    "lat": 23.986448,
    "lng": 121.602406,
    "address": "970花蓮縣花蓮市中山路418號"
  },
  {
    "name": "花蓮市進豐街96巷口",
    "lat": 23.986587,
    "lng": 121.606478,
    "address": "970花蓮縣花蓮市進豐街96巷2-6號"
  },
  {
    "name": "花蓮市公所花蓮市立圖書館兒童分館",
    "lat": 23.986642,
    "lng": 121.606523,
    "address": "970花蓮縣花蓮市進豐街115號"
  },
  {
    "name": "花蓮聖天宮",
    "lat": 23.9867618,
    "lng": 121.6056342,
    "address": "970花蓮縣花蓮市進豐街98號"
  },
  {
    "name": "花蓮縣鳳林鎮鳳仁社區發展協會",
    "lat": 23.987,
    "lng": 121.602,
    "address": "975花蓮縣鳳林鎮鳳仁里仁愛街18號"
  },
  {
    "name": "花蓮市進豐親子公園",
    "lat": 23.987569,
    "lng": 121.6048358,
    "address": "970花蓮縣花蓮市進豐街115號"
  },
  {
    "name": "花蓮縣花蓮市國安里辦公處",
    "lat": 23.98926,
    "lng": 121.60571,
    "address": "970花蓮縣花蓮市進豐街115號"
  },
  {
    "name": "臺灣花蓮地方法院法庭大樓",
    "lat": 23.989348,
    "lng": 121.61888,
    "address": "970花蓮縣花蓮市府前路15號"
  },
  {
    "name": "臺灣花蓮地方法院檢察署當事人休息室",
    "lat": 23.989458,
    "lng": 121.619931,
    "address": "970花蓮縣花蓮市府前路15號"
  },
  {
    "name": "勞動部勞動力發展署北基宜花金馬分署花蓮就業服務站洽公櫃台",
    "lat": 23.989621,
    "lng": 121.602259,
    "address": "970花蓮縣花蓮市國民三街25號"
  },
  {
    "name": "勞動部勞動力發展署北基宜花金馬分署花蓮就業中心洽公櫃台",
    "lat": 23.989624,
    "lng": 121.602273,
    "address": "970花蓮縣花蓮市國民三街25號"
  },
  {
    "name": "司法院(花蓮地方法院)-1",
    "lat": 23.9897609,
    "lng": 121.6196343,
    "address": "970花蓮縣花蓮市府前路15號1樓"
  },
  {
    "name": "司法院(花蓮地方法院)-2",
    "lat": 23.9897609,
    "lng": 121.6196343,
    "address": "970花蓮縣花蓮市府前路15號2樓"
  },
  {
    "name": "花蓮市國聯三路與國聯五路口",
    "lat": 23.9901436,
    "lng": 121.6055414,
    "address": "970花蓮縣花蓮市國聯五路51號"
  },
  {
    "name": "花蓮市公所花蓮市立圖書館",
    "lat": 23.990259,
    "lng": 121.60133,
    "address": "970花蓮縣花蓮市國聯一路170號"
  },
  {
    "name": "花蓮縣選舉委員會",
    "lat": 23.990293,
    "lng": 121.6167053,
    "address": "970花蓮縣花蓮市介壽五街2之2號"
  },
  {
    "name": "內政部營建署城鄉發展分署東區規劃隊",
    "lat": 23.990324,
    "lng": 121.619525,
    "address": "970花蓮縣花蓮市介壽五街2號"
  },
  {
    "name": "花蓮市衛生所",
    "lat": 23.9910376,
    "lng": 121.6171061,
    "address": "970花蓮縣花蓮市新興路200號"
  },
  {
    "name": "花蓮縣衛生局",
    "lat": 23.991192,
    "lng": 121.617243,
    "address": "970花蓮縣花蓮市新興路200號"
  },
  {
    "name": "花蓮縣政府_資訊科",
    "lat": 23.991331,
    "lng": 121.619816,
    "address": "970花蓮縣花蓮市府前路17號"
  },
  {
    "name": "花蓮縣政府_便民服務中心",
    "lat": 23.991331,
    "lng": 121.619816,
    "address": "970花蓮縣花蓮市府前路17號"
  },
  {
    "name": "花蓮市國聯五路國民七街口",
    "lat": 23.9913367,
    "lng": 121.605219,
    "address": "970花蓮縣花蓮市國聯五路89號"
  },
  {
    "name": "花蓮火車站旅客服務中心",
    "lat": 23.991891,
    "lng": 121.60189,
    "address": "970花蓮縣花蓮市國聯一路106號"
  },
  {
    "name": "花蓮縣花蓮地政事務所",
    "lat": 23.992352,
    "lng": 121.618408,
    "address": "970花蓮縣花蓮市府後路23號"
  },
  {
    "name": "花蓮縣動植物防疫所",
    "lat": 23.992908,
    "lng": 121.617738,
    "address": "970花蓮縣花蓮市瑞美路5號"
  },
  {
    "name": "花蓮客運總站",
    "lat": 23.992966,
    "lng": 121.6018148,
    "address": "970花蓮縣花蓮市國聯一路100之9號"
  },
  {
    "name": "花蓮市瑞美路新興路口",
    "lat": 23.9930401,
    "lng": 121.6170206,
    "address": "970花蓮縣花蓮市瑞美路7號"
  },
  {
    "name": "臺鐵局花蓮火車站第2月台南端",
    "lat": 23.993232,
    "lng": 121.601465,
    "address": "970花蓮縣花蓮市國聯一路100號"
  },
  {
    "name": "臺鐵局花蓮火車站第3月台北端",
    "lat": 23.993232,
    "lng": 121.601465,
    "address": "970花蓮縣花蓮市國聯一路100號"
  },
  {
    "name": "花蓮縣警察局外事科",
    "lat": 23.9932437,
    "lng": 121.6177988,
    "address": "970花蓮縣花蓮市府前路21號"
  },
  {
    "name": "臺鐵局北區供應廠採購課",
    "lat": 23.995136,
    "lng": 121.600375,
    "address": "970花蓮縣花蓮市富裕二街38號"
  },
  {
    "name": "臺鐵局花蓮站前站候車室",
    "lat": 23.996988,
    "lng": 121.604153,
    "address": "970花蓮縣花蓮市國聯一路100號"
  }
]
