[
  {
    "dataType": "wifi",
    "category": "洽公場所",
    "name": "板橋溪崑郵局",
    "lat": 24.986173,
    "lng": 121.429584,
    "address": "220新北市板橋區金門街278號"
  },
  {
    "dataType": "wifi",
    "category": "洽公場所",
    "name": "華南商業銀行樹林分行",
    "lat": 24.987828,
    "lng": 121.421478,
    "address": "238新北市樹林區中山路一段189號"
  },
  {
    "dataType": "wifi",
    "category": "其他",
    "name": "新北市板橋區溪崑社區發展協會",
    "lat": 24.988175,
    "lng": 121.433024,
    "address": "220新北市板橋區堂春里金門街253巷10弄7號"
  },
  {
    "dataType": "wifi",
    "category": "洽公場所",
    "name": "樹林育英街郵局",
    "lat": 24.989281,
    "lng": 121.421578,
    "address": "238新北市樹林區育英街36號"
  },
  {
    "dataType": "wifi",
    "category": "其他",
    "name": "新北市板橋溪崑關懷慈善會(崑崙站)",
    "lat": 24.990463,
    "lng": 121.431621,
    "address": "220新北市板橋區崑崙里篤行路二段131巷17號"
  },
  {
    "dataType": "wifi",
    "category": "大眾運輸節點",
    "name": "臺鐵局樹林站爭鮮柱旁",
    "lat": 24.991504,
    "lng": 121.42446,
    "address": "238新北市樹林區鎮前街112號"
  },
  {
    "dataType": "wifi",
    "category": "大眾運輸節點",
    "name": "臺鐵局樹林站地2月台海側6車位置",
    "lat": 24.991504,
    "lng": 121.42446,
    "address": "238新北市樹林區鎮前街112號"
  },
  {
    "dataType": "wifi",
    "category": "其他",
    "name": "中華民國紅心字會(板橋)",
    "lat": 24.991606,
    "lng": 121.43058,
    "address": "220新北市板橋區崑崙里存德街29號"
  },
  {
    "dataType": "wifi",
    "category": "洽公場所",
    "name": "樹林鎮前街郵局",
    "lat": 24.99238,
    "lng": 121.425854,
    "address": "238新北市樹林區鎮前街25號"
  },
  {
    "dataType": "wifi",
    "category": "洽公場所",
    "name": "第一商業銀行(樹林分行)",
    "lat": 24.993095,
    "lng": 121.424535,
    "address": "238新北市樹林區中山路一段27-7號"
  },
  {
    "dataType": "wifi",
    "category": "其他",
    "name": "財團法人新北市樹林基督長老教會",
    "lat": 24.994116,
    "lng": 121.424073,
    "address": "238新北市樹林區樹福里中山路一段2號"
  },
  {
    "dataType": "wifi",
    "category": "洽公場所",
    "name": "上海商銀樹林分行",
    "lat": 24.994286,
    "lng": 121.426584,
    "address": "238新北市樹林區樹新路17號"
  },
  {
    "dataType": "wifi",
    "category": "洽公場所",
    "name": "土地銀行樹林分行2F",
    "lat": 24.995532,
    "lng": 121.42344,
    "address": "238新北市樹林區保安二街82號"
  },
  {
    "dataType": "wifi",
    "category": "洽公場所",
    "name": "臺灣土地銀行樹林分行",
    "lat": 24.99555,
    "lng": 121.423313,
    "address": "238新北市樹林區保安二街82號"
  }
]
