[
  {
    "dataType": "wifi",
    "category": "社區中心",
    "name": "萬華青山區民活動中心1F舞臺前",
    "lat": 25.040046,
    "lng": 121.497876,
    "address": "108臺北市萬華區環河南路二段5之1號1F"
  },
  {
    "dataType": "wifi",
    "category": "洽公場所",
    "name": "三重中興橋郵局",
    "lat": 25.050446,
    "lng": 121.488734,
    "address": "241新北市三重區成功路52-2號"
  },
  {
    "dataType": "wifi",
    "category": "其他",
    "name": "新北市三重區成功里辦公處",
    "lat": 25.051885,
    "lng": 121.491713,
    "address": "241新北市三重區成功里昌隆街36號"
  },
  {
    "dataType": "wifi",
    "category": "其他",
    "name": "中華躍樂齡創新服務發展協會",
    "lat": 25.052978,
    "lng": 121.487963,
    "address": "241新北市三重區福德里集美街75巷27號"
  },
  {
    "dataType": "wifi",
    "category": "洽公場所",
    "name": "勞動部勞動力發展署北基宜花金馬分署三重就業服務站洽公櫃台",
    "lat": 25.057651,
    "lng": 121.488795,
    "address": "241新北市三重區重新路四段12號"
  },
  {
    "dataType": "wifi",
    "category": "洽公場所",
    "name": "財政部北區國稅局三重稽徵所第1辦公室",
    "lat": 25.057651,
    "lng": 121.488795,
    "address": "241新北市三重區重新路四段12號11樓"
  },
  {
    "dataType": "wifi",
    "category": "洽公場所",
    "name": "兆豐國際商銀南三重分行",
    "lat": 25.057755,
    "lng": 121.488702,
    "address": "241新北市三重區重新路四段12號"
  },
  {
    "dataType": "wifi",
    "category": "其他",
    "name": "青年職涯發展中心",
    "lat": 25.057758,
    "lng": 121.488775,
    "address": "241新北市三重區重新路四段12號3樓"
  },
  {
    "dataType": "wifi",
    "category": "其他",
    "name": "新北市樹林區文林社區發展協會",
    "lat": 25.058,
    "lng": 121.491,
    "address": "238新北市樹林區潭底里保安街一段289巷8號"
  },
  {
    "dataType": "wifi",
    "category": "其他",
    "name": "新北市三重活躍樂齡協會",
    "lat": 25.058189,
    "lng": 121.484644,
    "address": "241新北市三重區光陽里重陽路一段60巷101號"
  },
  {
    "dataType": "wifi",
    "category": "洽公場所",
    "name": "臺灣土地銀行西三重分行",
    "lat": 25.059001,
    "lng": 121.486859,
    "address": "241新北市三重區重陽路一段81號"
  },
  {
    "dataType": "wifi",
    "category": "其他",
    "name": "社團法人台灣多元社會福利協會(三重過田站)",
    "lat": 25.059042,
    "lng": 121.489473,
    "address": "241新北市三重區過田里過圳街7巷5號一樓"
  },
  {
    "dataType": "wifi",
    "category": "洽公場所",
    "name": "第一商業銀行(重陽分行)",
    "lat": 25.059253,
    "lng": 121.486978,
    "address": "241新北市三重區重陽路一段89號"
  },
  {
    "dataType": "wifi",
    "category": "其他",
    "name": "新北市三重區光田里辦公處",
    "lat": 25.059396,
    "lng": 121.484757,
    "address": "241新北市三重區光田里中華路5號"
  },
  {
    "dataType": "wifi",
    "category": "洽公場所",
    "name": "臺灣新北地方法院三重簡易庭",
    "lat": 25.059412,
    "lng": 121.49034,
    "address": "241新北市三重區重新路三段145號"
  },
  {
    "dataType": "wifi",
    "category": "洽公場所",
    "name": "司法院(新北地方法院-三重簡易庭)",
    "lat": 25.059663,
    "lng": 121.490328,
    "address": "241新北市三重區重新路三段145號#為民服務處(一樓)"
  }
]
