[
  {
    "dataType": "wifi",
    "category": "公車站",
    "name": "大業路一-N-大業路",
    "lat": 25.122736,
    "lng": 121.499472,
    "address": "112臺北市北投區大業路12號候車亭"
  },
  {
    "dataType": "wifi",
    "category": "公車站",
    "name": "大業路(農禪寺)-S-大業路",
    "lat": 25.122905,
    "lng": 121.499107,
    "address": "112臺北市北投區大業路37號旁候車亭"
  },
  {
    "dataType": "wifi",
    "category": "公車站",
    "name": "鳳甲美術館-N-大業路",
    "lat": 25.1265,
    "lng": 121.498325,
    "address": "112臺北市北投區大業路260號前方候車亭"
  },
  {
    "dataType": "wifi",
    "category": "公車站",
    "name": "鳳甲美術館-S-大業路",
    "lat": 25.127618,
    "lng": 121.497688,
    "address": "112臺北市北投區大業路292號對面候車亭"
  },
  {
    "dataType": "wifi",
    "category": "公車站",
    "name": "大業路二-大業路",
    "lat": 25.129847,
    "lng": 121.496847,
    "address": "112臺北市北投區大業路392號對面候車亭"
  },
  {
    "dataType": "wifi",
    "category": "其他",
    "name": "福中里辦公處",
    "lat": 25.13,
    "lng": 121.499,
    "address": "111臺北市士林區福中里福港街151號/九樓"
  },
  {
    "dataType": "wifi",
    "category": "洽公場所",
    "name": "華南商業銀行北投分行",
    "lat": 25.130983,
    "lng": 121.498651,
    "address": "112臺北市北投區北投路二段13號"
  },
  {
    "dataType": "wifi",
    "category": "公車站",
    "name": "大業路(捷運北投站)-N-大業路",
    "lat": 25.13175,
    "lng": 121.495857,
    "address": "112臺北市北投區大業路456號對面候車亭"
  },
  {
    "dataType": "wifi",
    "category": "公車站",
    "name": "大業路(捷運北投站)-S-大業路",
    "lat": 25.131884,
    "lng": 121.496125,
    "address": "112臺北市北投區大業路456號候車亭"
  },
  {
    "dataType": "wifi",
    "category": "公車站",
    "name": "捷運北投站(北投)-N1-光明路",
    "lat": 25.13228,
    "lng": 121.49797,
    "address": "112臺北市北投區光明路1號捷運北投站出口候車亭"
  },
  {
    "dataType": "wifi",
    "category": "其他",
    "name": "臺北市北投區新大同社區發展協會",
    "lat": 25.133645,
    "lng": 121.498102,
    "address": "112臺北市北投區大同里育仁路57號"
  },
  {
    "dataType": "wifi",
    "category": "公車站",
    "name": "幼華高中(北投)-N-豐年路一段",
    "lat": 25.134252,
    "lng": 121.496808,
    "address": "112臺北市北投區豐年路一段51號附近候車亭"
  },
  {
    "dataType": "wifi",
    "category": "其他",
    "name": "臺北市北投區大同里辦公處",
    "lat": 25.135002,
    "lng": 121.498596,
    "address": "112臺北市北投區大同里大同街135號"
  },
  {
    "dataType": "wifi",
    "category": "公車站",
    "name": "文化國小-W-中央北路二段",
    "lat": 25.136749,
    "lng": 121.495826,
    "address": "112臺北市北投區中央北路二段27號對面候車亭"
  },
  {
    "dataType": "wifi",
    "category": "其他",
    "name": "臺北市北投區八仙里辦公處",
    "lat": 25.137,
    "lng": 121.497,
    "address": "112臺北市北投區八仙里北投路1段臨30號"
  },
  {
    "dataType": "wifi",
    "category": "運動場館",
    "name": "北投健康運動管理中心(2F_健身房室內電視後方)",
    "lat": 25.137334,
    "lng": 121.491221,
    "address": "112臺北市北投區大業路527巷33號2F"
  },
  {
    "dataType": "wifi",
    "category": "其他",
    "name": "台灣運動健康科學學會",
    "lat": 25.137344,
    "lng": 121.491257,
    "address": "112臺北市北投區豐年里大業路527巷33號"
  },
  {
    "dataType": "wifi",
    "category": "運動場館",
    "name": "北投健康運動管理中心(2F_健身房室外牆面)",
    "lat": 25.137362,
    "lng": 121.491114,
    "address": "112臺北市北投區大業路527巷33號2F"
  },
  {
    "dataType": "wifi",
    "category": "洽公場所",
    "name": "北投文化郵局",
    "lat": 25.137387,
    "lng": 121.497469,
    "address": "112臺北市北投區文化三路8號"
  },
  {
    "dataType": "wifi",
    "category": "公車站",
    "name": "復興崗-W-中央北路二段",
    "lat": 25.138111,
    "lng": 121.492607,
    "address": "112臺北市北投區中央北路二段72號旁候車亭"
  },
  {
    "dataType": "wifi",
    "category": "洽公場所",
    "name": "北投豐年郵局",
    "lat": 25.138328,
    "lng": 121.489256,
    "address": "112臺北市北投區中央北路二段329號"
  },
  {
    "dataType": "wifi",
    "category": "其他",
    "name": "國防部北投福利站服務台",
    "lat": 25.13859,
    "lng": 121.488625,
    "address": "112臺北市北投區中央北路二段338號"
  },
  {
    "dataType": "wifi",
    "category": "公車站",
    "name": "稻香圖書館-S-稻香路",
    "lat": 25.139793,
    "lng": 121.489656,
    "address": "112臺北市北投區稻香路45號旁候車亭"
  }
]
