[
  {
    "dataType": "wifi",
    "category": "其他",
    "name": "桃園市八德區大千里辦公處",
    "lat": 24.960151,
    "lng": 121.30596,
    "address": "334桃園市八德區大千里東勇街19巷5號桃園市八德區永福街一段74巷8號(二)"
  },
  {
    "dataType": "wifi",
    "category": "其他",
    "name": "旭登護理之家(永福街)",
    "lat": 24.962321,
    "lng": 121.302924,
    "address": "334桃園市八德區大忠里永福街116號"
  },
  {
    "dataType": "wifi",
    "category": "洽公場所",
    "name": "臺灣土地銀行八德分行",
    "lat": 24.965965,
    "lng": 121.300403,
    "address": "334桃園市八德區介壽路一段702號"
  },
  {
    "dataType": "wifi",
    "category": "其他",
    "name": "桃園市政府八德區農民市集路燈068左向",
    "lat": 24.974049,
    "lng": 121.303275,
    "address": "334桃園市八德區介壽路與國道二號交叉口"
  },
  {
    "dataType": "wifi",
    "category": "其他",
    "name": "桃園市政府八德區農民市集路燈068右向",
    "lat": 24.974049,
    "lng": 121.303275,
    "address": "334桃園市八德區介壽路與國道二號交叉口"
  },
  {
    "dataType": "wifi",
    "category": "其他",
    "name": "桃園市政府八德區農民市集路燈064左向",
    "lat": 24.97412,
    "lng": 121.30284,
    "address": "334桃園市八德區介壽路與國道二號交叉口"
  },
  {
    "dataType": "wifi",
    "category": "其他",
    "name": "桃園市政府八德區農民市集路燈064右向",
    "lat": 24.97412,
    "lng": 121.30284,
    "address": "334桃園市八德區介壽路與國道二號交叉口"
  },
  {
    "dataType": "wifi",
    "category": "其他",
    "name": "旭登護理之家(樹仁三街)",
    "lat": 24.975134,
    "lng": 121.309724,
    "address": "334桃園市八德區樹仁三街601號(外棟)"
  },
  {
    "dataType": "wifi",
    "category": "其他",
    "name": "桃園建新公園建新街263號前電信桿左前方",
    "lat": 24.977404,
    "lng": 121.310613,
    "address": "330桃園市桃園區建新街263號"
  },
  {
    "dataType": "wifi",
    "category": "其他",
    "name": "桃園建新公園建新街263號前電信桿右前方",
    "lat": 24.977404,
    "lng": 121.310613,
    "address": "330桃園市桃園區建新街263號"
  },
  {
    "dataType": "wifi",
    "category": "洽公場所",
    "name": "公路總局新竹區監理所桃園監理站",
    "lat": 24.979028,
    "lng": 121.303168,
    "address": "330桃園市桃園區介壽路416號"
  },
  {
    "dataType": "wifi",
    "category": "其他",
    "name": "桃園市桃園區陽明社區發展協會",
    "lat": 24.979541,
    "lng": 121.307115,
    "address": "330桃園市桃園區福林里陽明三街33號二樓"
  },
  {
    "dataType": "wifi",
    "category": "其他",
    "name": "桃園福林公園介新街電信桿",
    "lat": 24.9799,
    "lng": 121.305631,
    "address": "330桃園市桃園區介新街"
  }
]
