[
  {
    "name": "象頭埔-W-木柵路五段",
    "lat": 25.0007138,
    "lng": 121.5895081,
    "address": "116臺北市文山區木柵路五段58號候車亭"
  },
  {
    "name": "象頭埔-E-木柵路五段",
    "lat": 25.0008448,
    "lng": 121.5894839,
    "address": "116臺北市文山區木柵路五段58號對面候車亭"
  },
  {
    "name": "高速公路局北區工程處木柵工務段",
    "lat": 25.001145,
    "lng": 121.596603,
    "address": "116臺北市文山區新光路二段100號"
  },
  {
    "name": "深坑草地尾郵局",
    "lat": 25.004413,
    "lng": 121.59936,
    "address": "222新北市深坑區北深路三段264號-1"
  },
  {
    "name": "臺北市殯葬管理處富德靈骨塔1F入門口左側服務中心",
    "lat": 25.0115438,
    "lng": 121.5914025,
    "address": "116臺北市文山區木柵路五段190號1F"
  }
]
