[
  {
    "name": "萬芳國小-S-萬和街",
    "lat": 25.0015163,
    "lng": 121.5673121,
    "address": "116臺北市文山區萬和街1號候車亭"
  },
  {
    "name": "萬芳國小-N-萬和街",
    "lat": 25.0015476,
    "lng": 121.5674389,
    "address": "116臺北市文山區萬和街1號對面候車亭"
  },
  {
    "name": "萬芳派出所-E-萬美街一段",
    "lat": 25.001729,
    "lng": 121.566207,
    "address": "116臺北市文山區萬美街一段89號旁候車亭"
  },
  {
    "name": "萬芳派出所-W-萬美街一段",
    "lat": 25.0017713,
    "lng": 121.566122,
    "address": "116臺北市文山區萬美街一段89號對面候車亭"
  },
  {
    "name": "公務人員訓練處-S-萬美街一段",
    "lat": 25.001787,
    "lng": 121.56224,
    "address": "116臺北市文山區萬美街一段121號旁候車亭"
  },
  {
    "name": "公務人員訓練處-W-萬美街一段",
    "lat": 25.0018694,
    "lng": 121.5620554,
    "address": "116臺北市文山區萬美街一段121-1號對面候車亭"
  },
  {
    "name": "社團法人台北市基督教萬芳浸信會",
    "lat": 25.001994,
    "lng": 121.569402,
    "address": "116臺北市文山區萬芳里萬美街一段19巷5號一樓"
  },
  {
    "name": "圖書館萬芳民眾閱覽室2F樓梯左側",
    "lat": 25.0021105,
    "lng": 121.5692991,
    "address": "116臺北市文山區萬美街一段25號2F"
  },
  {
    "name": "文山萬芳區民活動中心3F中央",
    "lat": 25.0021201,
    "lng": 121.5693131,
    "address": "116臺北市文山區萬美街一段51號3F"
  },
  {
    "name": "圖書館萬芳民眾閱覽室1F服務臺前",
    "lat": 25.0021231,
    "lng": 121.5693038,
    "address": "116臺北市文山區萬美街一段25號1F"
  },
  {
    "name": "文山萬芳區民活動中心3F里長辦公室門外",
    "lat": 25.0021604,
    "lng": 121.5681787,
    "address": "116臺北市文山區萬美街一段51號3F"
  },
  {
    "name": "文山萬美街郵局",
    "lat": 25.002207,
    "lng": 121.568482,
    "address": "116臺北市文山區萬美街一段51號2樓"
  },
  {
    "name": "萬芳活動中心-萬美街一段",
    "lat": 25.0023805,
    "lng": 121.5694486,
    "address": "116臺北市文山區萬美街一段23號對面候車亭"
  },
  {
    "name": "萬寧街口-E-萬寧街",
    "lat": 25.0030845,
    "lng": 121.5708054,
    "address": "116臺北市文山區萬寧街141號對面候車亭"
  },
  {
    "name": "臺北市文山區萬美里辦公處",
    "lat": 25.003106,
    "lng": 121.562225,
    "address": "116臺北市文山區萬美里萬美街2段2巷6號及萬美街1段51號3樓"
  },
  {
    "name": "公務人員訓練處警衛室",
    "lat": 25.0033191,
    "lng": 121.5608688,
    "address": "116臺北市文山區萬美街二段21巷20號"
  },
  {
    "name": "萬芳國宅-W-萬寧街",
    "lat": 25.00332,
    "lng": 121.5651101,
    "address": "116臺北市文山區萬寧街27號前方候車亭"
  },
  {
    "name": "萬芳國宅-萬寧街",
    "lat": 25.003392,
    "lng": 121.5656435,
    "address": "116臺北市文山區萬寧街與萬寧街36巷口旁候車亭"
  },
  {
    "name": "萬美社區-W-萬美街二段",
    "lat": 25.0033933,
    "lng": 121.5631947,
    "address": "116臺北市文山區萬美街二段11號對面候車亭"
  },
  {
    "name": "萬美社區-E-萬美街二段",
    "lat": 25.0034534,
    "lng": 121.5630518,
    "address": "116臺北市文山區萬美街二段11號候車亭"
  },
  {
    "name": "公務人員訓練處E棟3F308電腦教室外走廊",
    "lat": 25.0040058,
    "lng": 121.5618086,
    "address": "116臺北市文山區萬美街二段21巷20號E棟3F"
  },
  {
    "name": "公務人員訓練處E棟2F202普通教室外走廊",
    "lat": 25.0040052,
    "lng": 121.5618509,
    "address": "116臺北市文山區萬美街二段21巷20號E棟2F"
  },
  {
    "name": "公務人員訓練處B棟2F203普通教室外",
    "lat": 25.0040411,
    "lng": 121.5610164,
    "address": "116臺北市文山區萬美街二段21巷20號B棟2F"
  },
  {
    "name": "公務人員訓練處E棟1F公共電腦區門外",
    "lat": 25.0040863,
    "lng": 121.5616629,
    "address": "116臺北市文山區萬美街二段21巷20號E棟1F"
  },
  {
    "name": "公務人員訓練處E棟1F教務組門外",
    "lat": 25.0040863,
    "lng": 121.5616629,
    "address": "116臺北市文山區萬美街二段21巷20號E棟1F"
  },
  {
    "name": "公務人員訓練處E棟5F圖書館逃生門口",
    "lat": 25.0040863,
    "lng": 121.5616629,
    "address": "116臺北市文山區萬美街二段21巷20號E棟5F"
  },
  {
    "name": "公務人員訓練處E棟5F504教室外",
    "lat": 25.0040863,
    "lng": 121.5616629,
    "address": "116臺北市文山區萬美街二段21巷20號E棟5F"
  },
  {
    "name": "公務人員訓練處B棟3F302階梯教室外樓梯處",
    "lat": 25.0040912,
    "lng": 121.560949,
    "address": "116臺北市文山區萬美街二段21巷20號B棟3F"
  },
  {
    "name": "公務人員訓練處C棟2F處長室外",
    "lat": 25.0040912,
    "lng": 121.560949,
    "address": "116臺北市文山區萬美街二段21巷20號C棟2F"
  },
  {
    "name": "萬寧山莊-E1-萬寧街",
    "lat": 25.0041842,
    "lng": 121.5704011,
    "address": "116臺北市文山區萬寧街161號前方候車亭"
  },
  {
    "name": "公務人員訓練處E棟1F國際會議廳門左側",
    "lat": 25.0042121,
    "lng": 121.5617225,
    "address": "116臺北市文山區萬美街二段21巷20號E棟1F"
  },
  {
    "name": "公務人員訓練處E棟4F401教室外走廊",
    "lat": 25.0042304,
    "lng": 121.5615501,
    "address": "116臺北市文山區萬美街二段21巷20號E棟4F"
  },
  {
    "name": "公務人員訓練處E棟3F301電腦教室外",
    "lat": 25.0042374,
    "lng": 121.5615541,
    "address": "116臺北市文山區萬美街二段21巷20號E棟3F"
  },
  {
    "name": "公務人員訓練處B棟1F102教室外走廊",
    "lat": 25.0042437,
    "lng": 121.5611076,
    "address": "116臺北市文山區萬美街二段21巷20號B棟1F"
  },
  {
    "name": "公務人員訓練處E棟2F203普通教門外",
    "lat": 25.0042483,
    "lng": 121.561588,
    "address": "116臺北市文山區萬美街二段21巷20號E棟2F"
  },
  {
    "name": "公務人員訓練處C棟1F大禮堂右側",
    "lat": 25.0042766,
    "lng": 121.5611595,
    "address": "116臺北市文山區萬美街二段21巷20號C棟1F"
  },
  {
    "name": "公務人員訓練處C棟1F大禮堂外面走道",
    "lat": 25.0044546,
    "lng": 121.5613895,
    "address": "116臺北市文山區萬美街二段21巷20號C棟1F"
  },
  {
    "name": "名門社區-E-和平東路四段",
    "lat": 25.004629,
    "lng": 121.56797,
    "address": "116臺北市文山區萬寧街223號東南側候車亭(140高地公園旁)"
  },
  {
    "name": "公務人員訓練處C棟1F大禮堂左側",
    "lat": 25.004695,
    "lng": 121.5614063,
    "address": "116臺北市文山區萬美街二段21巷20號C棟1F"
  },
  {
    "name": "名門社區-W-和平東路四段",
    "lat": 25.0047882,
    "lng": 121.5678872,
    "address": "116臺北市文山區和平東路四段97號前候車亭(萬寧街本線北側上)"
  },
  {
    "name": "名門社區-S-和平東路四段",
    "lat": 25.005203,
    "lng": 121.567504,
    "address": "116臺北市文山區和平東路四段81號對面候車亭"
  },
  {
    "name": "萬美社區-E-萬美街二段",
    "lat": 25.005423,
    "lng": 121.5641056,
    "address": "116臺北市文山區萬美街二段2巷與萬美街口候車亭"
  },
  {
    "name": "世界山莊-W-萬美街二段",
    "lat": 25.00553,
    "lng": 121.56421,
    "address": "116臺北市文山區萬美街二段51號對面候車亭"
  },
  {
    "name": "大我新舍-N-臥龍街",
    "lat": 25.0143066,
    "lng": 121.5623065,
    "address": "106臺北市大安區和平東路三段590號對面候車亭"
  },
  {
    "name": "臺北醫學大學高齡健康管理學系(大我新舍)",
    "lat": 25.014715,
    "lng": 121.56224,
    "address": "110臺北市信義區黎安里和平東路三段599號"
  },
  {
    "name": "麟光站-N-臥龍街",
    "lat": 25.0158862,
    "lng": 121.5607978,
    "address": "106臺北市大安區臥龍街324號對面候車亭"
  },
  {
    "name": "網球場-N-瑞雲街",
    "lat": 25.0164617,
    "lng": 121.5765028,
    "address": "110臺北市信義區瑞雲街11號旁候車亭"
  },
  {
    "name": "臺北市信義區挹翠社區發展協會",
    "lat": 25.018515,
    "lng": 121.575472,
    "address": "110臺北市信義區六合里紫雲街23號一樓"
  },
  {
    "name": "水塔-W-祥雲街",
    "lat": 25.0185741,
    "lng": 121.5749766,
    "address": "110臺北市信義區祥雲街37號旁候車亭"
  },
  {
    "name": "泰和公園-S-吳興街",
    "lat": 25.0190265,
    "lng": 121.5708031,
    "address": "110臺北市信義區吳興街600巷67弄78號對面候車亭"
  },
  {
    "name": "挹翠山莊-N-吳興街",
    "lat": 25.0195617,
    "lng": 121.5733723,
    "address": "110臺北市信義區祥雲路與吳興街600巷口西北側候車亭"
  }
]
