[
  {
    "name": "新北市雙溪區牡丹社區發展協會",
    "lat": 24.963,
    "lng": 121.55,
    "address": "227新北市雙溪區牡丹里下坑36號"
  },
  {
    "name": "財團法人新北市臺北基督徒七張禮拜堂",
    "lat": 24.964901,
    "lng": 121.542951,
    "address": "231新北市新店區中興里中興路一段181號地下一層"
  },
  {
    "name": "臺灣臺北地方法院-新店簡易庭一樓法庭",
    "lat": 24.966255,
    "lng": 121.54444,
    "address": "231新北市新店區中興路一段248號"
  },
  {
    "name": "臺灣臺北地方法院-新店簡易庭二樓調解室",
    "lat": 24.966255,
    "lng": 121.54444,
    "address": "231新北市新店區中興路一段248號"
  },
  {
    "name": "司法院(臺北地方法院)-1",
    "lat": 24.966258,
    "lng": 121.544603,
    "address": "231新北市新店區中興路一段248號1樓"
  },
  {
    "name": "司法院(臺北地方法院)-2",
    "lat": 24.966258,
    "lng": 121.544603,
    "address": "231新北市新店區中興路一段248號2樓"
  },
  {
    "name": "司法院(臺北地方法院)-3",
    "lat": 24.966258,
    "lng": 121.544603,
    "address": "231新北市新店區中興路一段248號3樓"
  },
  {
    "name": "司法院(臺北地方法院)-4",
    "lat": 24.966258,
    "lng": 121.544603,
    "address": "231新北市新店區中興路一段248號3樓"
  },
  {
    "name": "新店檳榔路郵局-1",
    "lat": 24.966784,
    "lng": 121.540951,
    "address": "231新北市新店區北新路一段273號"
  },
  {
    "name": "新店檳榔路郵局-2",
    "lat": 24.966784,
    "lng": 121.540951,
    "address": "231新北市新店區北新路一段273號"
  },
  {
    "name": "北區國稅局新店稽徵所1",
    "lat": 24.967592,
    "lng": 121.541744,
    "address": "231新北市新店區北新路一段86號15樓"
  },
  {
    "name": "北區國稅局新店稽徵所2",
    "lat": 24.967592,
    "lng": 121.541744,
    "address": "231新北市新店區北新路一段86號15樓"
  },
  {
    "name": "臺灣土地銀行新店分行",
    "lat": 24.9678799,
    "lng": 121.541293,
    "address": "231新北市新店區北新路一段309號"
  },
  {
    "name": "社團法人中華麥田關懷協會(五峯站)",
    "lat": 24.968144,
    "lng": 121.542372,
    "address": "231新北市新店區五峰里1鄰北新路一段92號二樓"
  },
  {
    "name": "新店五峰郵局",
    "lat": 24.969631,
    "lng": 121.544882,
    "address": "231新北市新店區中正路35號"
  },
  {
    "name": "北新社區發展協會",
    "lat": 24.972682,
    "lng": 121.544805,
    "address": "231新北市新店區張北里德正街23巷25號"
  },
  {
    "name": "勞動部勞動力發展署北基宜花金馬分署新店就業服務站洽公櫃台",
    "lat": 24.972976,
    "lng": 121.548459,
    "address": "231新北市新店區中興路二段190號"
  },
  {
    "name": "華南商業銀行新店分行",
    "lat": 24.974427,
    "lng": 121.543379,
    "address": "231新北市新店區北新路二段108號"
  },
  {
    "name": "兆豐國際商銀新店分行",
    "lat": 24.976758,
    "lng": 121.542719,
    "address": "231新北市新店區北新路二段173號"
  },
  {
    "name": "新店郵局",
    "lat": 24.977071,
    "lng": 121.542663,
    "address": "231新北市新店區北新路二段177號"
  },
  {
    "name": "社團法人中華麥田關懷協會",
    "lat": 24.977872,
    "lng": 121.541647,
    "address": "231新北市新店區明德里明德路34號一樓"
  },
  {
    "name": "新北市奇布施老人養生協會-寶福站",
    "lat": 24.978725,
    "lng": 121.551732,
    "address": "231新北市新店區寶福里6鄰寶橋路234號"
  },
  {
    "name": "臺北市文山區樟新社區發展協會",
    "lat": 24.979096,
    "lng": 121.555157,
    "address": "116臺北市文山區樟新里一壽街22號九樓教室二﹑教室一﹑大廳"
  },
  {
    "name": "文山樟新區民活動中心9F中央",
    "lat": 24.979587,
    "lng": 121.5562746,
    "address": "116臺北市文山區一壽街22號"
  },
  {
    "name": "圖書館力行分館5F報紙閱覽室右側",
    "lat": 24.9796114,
    "lng": 121.5563476,
    "address": "116臺北市文山區一壽街22號5F"
  },
  {
    "name": "圖書館力行分館8F自修室中央",
    "lat": 24.9796114,
    "lng": 121.5563476,
    "address": "116臺北市文山區一壽街22號8F"
  },
  {
    "name": "圖書館力行分館6F書庫區左側",
    "lat": 24.9796214,
    "lng": 121.5563991,
    "address": "116臺北市文山區一壽街22號6F"
  },
  {
    "name": "圖書館力行分館7F期刊區後方",
    "lat": 24.979631,
    "lng": 121.5562988,
    "address": "116臺北市文山區一壽街22號7F"
  },
  {
    "name": "圖書館力行分館7F期刊區中央",
    "lat": 24.9796725,
    "lng": 121.5562332,
    "address": "116臺北市文山區一壽街22號7F"
  },
  {
    "name": "文山樟新區民活動中心10F右側中央",
    "lat": 24.9796915,
    "lng": 121.5562286,
    "address": "116臺北市文山區一壽街22號"
  },
  {
    "name": "板信商業銀行北新分行",
    "lat": 24.979715,
    "lng": 121.541991,
    "address": "231新北市新店區北新路三段17、19、21號1、2樓"
  },
  {
    "name": "第一商業銀行(新店分行)",
    "lat": 24.9798189,
    "lng": 121.544838,
    "address": "231新北市新店區中興路三段134號"
  },
  {
    "name": "新店寶橋郵局",
    "lat": 24.979882,
    "lng": 121.548736,
    "address": "231新北市新店區寶中路94-2號1樓"
  }
]
