[
  {
    "name": "捷運西門站-N2-中華路一段",
    "lat": 25.040067,
    "lng": 121.507942,
    "address": "100臺北市中正區中華路一段69號旁候車亭"
  },
  {
    "name": "228和平公園-1號公廁-兒童遊戲場",
    "lat": 25.040067,
    "lng": 121.5147268,
    "address": "100臺北市中正區凱達格蘭3號(1號公廁外牆)"
  },
  {
    "name": "228和平公園-1號公廁-兒童遊戲場(銅馬)",
    "lat": 25.0401062,
    "lng": 121.5145276,
    "address": "100臺北市中正區凱達格蘭3號(1號公廁外牆)"
  },
  {
    "name": "文獻館本堂1F展覽空間中央",
    "lat": 25.0401724,
    "lng": 121.5067385,
    "address": "108臺北市萬華區中華路一段174-1號1F"
  },
  {
    "name": "文獻館本堂1F文獻資料室門口",
    "lat": 25.0401869,
    "lng": 121.5065221,
    "address": "108臺北市萬華區中華路一段174-1號1F"
  },
  {
    "name": "司法院(最高法院)-1",
    "lat": 25.0402113,
    "lng": 121.5099392,
    "address": "100臺北市中正區長沙街一段6號1樓#為民服務中心"
  },
  {
    "name": "司法院(最高法院)-2",
    "lat": 25.0402113,
    "lng": 121.5099392,
    "address": "100臺北市中正區長沙街一段6號2樓"
  },
  {
    "name": "總統府開放參觀展區",
    "lat": 25.04031,
    "lng": 121.512,
    "address": "100臺北市中正區重慶南路一段122號"
  },
  {
    "name": "國立臺灣大學附設醫院東址院區1樓大廳",
    "lat": 25.040323,
    "lng": 121.519138,
    "address": "100臺北市中正區中山南路7號"
  },
  {
    "name": "臺灣臺北地方法院二樓國民法官休息室",
    "lat": 25.0404,
    "lng": 121.51,
    "address": "100臺北市中正區長沙街一段27號"
  },
  {
    "name": "臺灣臺北地方法院寶慶院區孺慕堂一樓",
    "lat": 25.040419,
    "lng": 121.50968,
    "address": "100臺北市中正區長沙街一段27號"
  },
  {
    "name": "公園路燈工程管理處處本部2F人事主任室外走道低樑",
    "lat": 25.0404362,
    "lng": 121.5141736,
    "address": "100臺北市中正區懷寧街109號2F"
  },
  {
    "name": "公園路燈工程管理處處本部1F開標室外",
    "lat": 25.0404362,
    "lng": 121.5141736,
    "address": "100臺北市中正區懷寧街109號1F"
  },
  {
    "name": "公園路燈工程管理處處本部1F配合科及文書股外中間走道",
    "lat": 25.0405014,
    "lng": 121.5142152,
    "address": "100臺北市中正區懷寧街109號1F"
  },
  {
    "name": "公園路燈工程管理處處本部1F品管及職安科",
    "lat": 25.0405852,
    "lng": 121.5139433,
    "address": "100臺北市中正區懷寧街109號1F"
  },
  {
    "name": "公園路燈工程管理處處本部1F第三會議室內",
    "lat": 25.0405938,
    "lng": 121.514306,
    "address": "100臺北市中正區懷寧街109號1F"
  },
  {
    "name": "公園路燈工程管理處處本部1F路燈科",
    "lat": 25.0406111,
    "lng": 121.5139366,
    "address": "100臺北市中正區懷寧街109號2F"
  },
  {
    "name": "公園路燈工程管理處處本部2F園藝科左",
    "lat": 25.0406217,
    "lng": 121.51389,
    "address": "100臺北市中正區懷寧街109號2F"
  },
  {
    "name": "公園路燈工程管理處處本部2F資訊室",
    "lat": 25.0406712,
    "lng": 121.5139198,
    "address": "100臺北市中正區懷寧街109號2F"
  },
  {
    "name": "法務部廉政署",
    "lat": 25.0406782,
    "lng": 121.5110377,
    "address": "100臺北市中正區博愛路166號1樓"
  },
  {
    "name": "公園路燈工程管理處處本部2F第一會議室內-1",
    "lat": 25.0406882,
    "lng": 121.5141936,
    "address": "100臺北市中正區懷寧街109號2F"
  },
  {
    "name": "公園路燈工程管理處處本部2F第一會議室內-2",
    "lat": 25.0406882,
    "lng": 121.5141936,
    "address": "100臺北市中正區懷寧街109號2F"
  },
  {
    "name": "公園路燈工程管理處處本部1F品管科巡查小組",
    "lat": 25.0406882,
    "lng": 121.5141936,
    "address": "100臺北市中正區懷寧街109號1F"
  },
  {
    "name": "公園路燈工程管理處處本部1F專委室及秘書主任室中間走道",
    "lat": 25.0406882,
    "lng": 121.5141936,
    "address": "100臺北市中正區懷寧街109號1F"
  },
  {
    "name": "公園路燈工程管理處處本部2F園藝科右",
    "lat": 25.0407125,
    "lng": 121.5139627,
    "address": "100臺北市中正區懷寧街109號2F"
  },
  {
    "name": "公園路燈工程管理處處本部1F工務科-土木股",
    "lat": 25.0407578,
    "lng": 121.5142954,
    "address": "100臺北市中正區懷寧街109號1F"
  },
  {
    "name": "台北西園郵局",
    "lat": 25.0407723,
    "lng": 121.5010534,
    "address": "108臺北市萬華區長沙街二段156號"
  },
  {
    "name": "公園路燈工程管理處處本部2F處長室外",
    "lat": 25.0407951,
    "lng": 121.5139292,
    "address": "100臺北市中正區懷寧街109號2F"
  },
  {
    "name": "臺北市憲兵隊",
    "lat": 25.0408389,
    "lng": 121.5092015,
    "address": "100臺北市中正區延平南路117號前"
  },
  {
    "name": "公園路燈工程管理處處本部2F政風室外走道",
    "lat": 25.0408459,
    "lng": 121.5139694,
    "address": "100臺北市中正區懷寧街109號2F"
  },
  {
    "name": "捷運西門站-N1-中華路一段",
    "lat": 25.04095,
    "lng": 121.508201,
    "address": "100臺北市中正區中華路一段65號旁候車亭"
  },
  {
    "name": "公園路燈工程管理處處本部1F第二會議室內",
    "lat": 25.0409564,
    "lng": 121.5139198,
    "address": "100臺北市中正區懷寧街109號1F"
  },
  {
    "name": "公園路燈工程管理處處本部2F副處長室門口走道",
    "lat": 25.0409713,
    "lng": 121.5139459,
    "address": "100臺北市中正區懷寧街109號2F"
  },
  {
    "name": "國家發展委員會寶慶辦公區",
    "lat": 25.041179,
    "lng": 121.513385,
    "address": "100臺北市中正區寶慶路3號"
  },
  {
    "name": "台北漢中街郵局",
    "lat": 25.0413279,
    "lng": 121.507015,
    "address": "108臺北市萬華區漢中街173號"
  },
  {
    "name": "公園路燈工程管理處228公園內園藝隊部1F辦公室門口外",
    "lat": 25.0414443,
    "lng": 121.5141722,
    "address": "100臺北市中正區懷寧街103號1F"
  },
  {
    "name": "臺灣銀行營業部",
    "lat": 25.0414699,
    "lng": 121.512912,
    "address": "100臺北市中正區重慶南路一段120號"
  },
  {
    "name": "經濟部國營事業委員會1樓大廳",
    "lat": 25.0414918,
    "lng": 121.5108676,
    "address": "100臺北市中正區寶慶路25號"
  },
  {
    "name": "經濟部國營事業委員會4樓",
    "lat": 25.0414918,
    "lng": 121.5108676,
    "address": "100臺北市中正區寶慶路25號4樓"
  },
  {
    "name": "經濟部國營事業委員會5樓",
    "lat": 25.0414918,
    "lng": 121.5108676,
    "address": "100臺北市中正區寶慶路25號5樓"
  },
  {
    "name": "經濟部國營事業委員會6樓",
    "lat": 25.0414918,
    "lng": 121.5108676,
    "address": "100臺北市中正區寶慶路25號6樓"
  },
  {
    "name": "經濟部國營事業委員會7樓",
    "lat": 25.0414918,
    "lng": 121.5108676,
    "address": "100臺北市中正區寶慶路25號7樓"
  },
  {
    "name": "228和平公園-2號公廁-涼亭",
    "lat": 25.0414943,
    "lng": 121.5158344,
    "address": "100臺北市中正區凱達格蘭3號(2號公廁外牆)"
  },
  {
    "name": "公園路燈工程管理處228公園內園藝隊部2F辦公室內",
    "lat": 25.0414993,
    "lng": 121.5141866,
    "address": "100臺北市中正區懷寧街103號2F"
  },
  {
    "name": "公園路燈工程管理處228公園內儲藏室1F門口外",
    "lat": 25.0414996,
    "lng": 121.5141877,
    "address": "100臺北市中正區懷寧街103號1F"
  },
  {
    "name": "寶慶路-E1-寶慶路",
    "lat": 25.0415536,
    "lng": 121.5097684,
    "address": "100臺北市中正區寶慶路57號對面候車亭"
  },
  {
    "name": "228和平公園-音樂臺",
    "lat": 25.0416104,
    "lng": 121.5142963,
    "address": "100臺北市中正區凱達格蘭3號音樂舞台牆上"
  },
  {
    "name": "公園路燈工程管理處228公園內園藝隊部2F中間辦公室門口外",
    "lat": 25.0416375,
    "lng": 121.5141763,
    "address": "100臺北市中正區懷寧街103號2F"
  },
  {
    "name": "公園路燈工程管理處228公園內路燈隊部2F辦公室內",
    "lat": 25.0416472,
    "lng": 121.5142031,
    "address": "100臺北市中正區懷寧街103號2F"
  },
  {
    "name": "公園路燈工程管理處228公園內園藝隊部駐警隊",
    "lat": 25.041786,
    "lng": 121.5143751,
    "address": "100臺北市中正區懷寧街103號1F"
  },
  {
    "name": "捷運臺大醫院-公園路",
    "lat": 25.0418322,
    "lng": 121.5162382,
    "address": "100臺北市中正區公園路臨常德街口候車亭"
  },
  {
    "name": "228和平公園-駐警隊-前廣場",
    "lat": 25.0419678,
    "lng": 121.5142173,
    "address": "100臺北市中正區凱達格蘭大道3號駐警隊辦公室門口旁外牆"
  },
  {
    "name": "西門紅樓1F八卦型展區中央",
    "lat": 25.0420139,
    "lng": 121.5068592,
    "address": "108臺北市萬華區成都路10號1F"
  },
  {
    "name": "西門紅樓1F十字型展區中央左側梁柱",
    "lat": 25.0420209,
    "lng": 121.5064464,
    "address": "108臺北市萬華區成都路10號1F"
  },
  {
    "name": "中央聯合辦公大樓南棟",
    "lat": 25.0422099,
    "lng": 121.51947,
    "address": "100臺北市中正區徐州路5號1樓"
  },
  {
    "name": "內政部",
    "lat": 25.0422099,
    "lng": 121.51947,
    "address": "100臺北市中正區徐州路5號3樓"
  },
  {
    "name": "僑務委員會中央聯合辦公大樓南棟",
    "lat": 25.0422099,
    "lng": 121.51947,
    "address": "100臺北市中正區徐州路5號3樓"
  },
  {
    "name": "教育部青年發展署",
    "lat": 25.0422099,
    "lng": 121.51947,
    "address": "100臺北市中正區徐州路5號14樓"
  },
  {
    "name": "內政部8樓會議室",
    "lat": 25.0422099,
    "lng": 121.51947,
    "address": "100臺北市中正區徐州路5號"
  },
  {
    "name": "捷運臺大醫院-N-公園路",
    "lat": 25.0422134,
    "lng": 121.5163026,
    "address": "100臺北市中正區公園路50號對面候車亭"
  },
  {
    "name": "文化部-蒙藏文化中心",
    "lat": 25.042234,
    "lng": 121.519449,
    "address": "100臺北市中正區徐州路5號4樓"
  },
  {
    "name": "台北中聯郵局",
    "lat": 25.042288,
    "lng": 121.519459,
    "address": "100臺北市中正區徐州路5號地下1樓"
  },
  {
    "name": "兆豐國際商銀衡陽分行",
    "lat": 25.0422999,
    "lng": 121.5103,
    "address": "100臺北市中正區衡陽路91號"
  },
  {
    "name": "兆豐國際商銀-衡陽大樓7樓之1",
    "lat": 25.042356,
    "lng": 121.510294,
    "address": "100臺北市中正區衡陽路91號7樓"
  },
  {
    "name": "兆豐國際商銀-衡陽大樓8樓之1",
    "lat": 25.042356,
    "lng": 121.510294,
    "address": "100臺北市中正區衡陽路91號8樓"
  },
  {
    "name": "衡陽路口",
    "lat": 25.0424519,
    "lng": 121.5132264,
    "address": "100臺北市中正區重慶南路一段100號"
  },
  {
    "name": "內政部部長室貴賓室",
    "lat": 25.042463,
    "lng": 121.519449,
    "address": "100臺北市中正區徐州路5號9樓"
  },
  {
    "name": "內政部政務次長室",
    "lat": 25.042463,
    "lng": 121.519449,
    "address": "100臺北市中正區徐州路5號9樓"
  },
  {
    "name": "華南商業銀行西門分行",
    "lat": 25.042485,
    "lng": 121.506051,
    "address": "108臺北市萬華區西寧南路173號"
  },
  {
    "name": "國家圖書館多媒體創意實驗中心-1",
    "lat": 25.0425328,
    "lng": 121.5094318,
    "address": "100臺北市中正區秀山街4號14樓"
  },
  {
    "name": "國家圖書館多媒體創意實驗中心-2",
    "lat": 25.0425328,
    "lng": 121.5094318,
    "address": "100臺北市中正區秀山街4號14樓"
  },
  {
    "name": "教育部一樓大廳",
    "lat": 25.0425483,
    "lng": 121.5191835,
    "address": "100臺北市中正區中山南路5號"
  },
  {
    "name": "教育部前門廣場",
    "lat": 25.0425483,
    "lng": 121.5191835,
    "address": "100臺北市中正區中山南路5號"
  },
  {
    "name": "上海商銀龍山分行",
    "lat": 25.042761,
    "lng": 121.505549,
    "address": "108臺北市萬華區成都路60號"
  },
  {
    "name": "行政院環境保護署第2辦公室會議室(12F)",
    "lat": 25.042787,
    "lng": 121.509309,
    "address": "100臺北市中正區秀山街4號12樓"
  },
  {
    "name": "行政院環境保護署第2辦公室會議室(13F)",
    "lat": 25.042787,
    "lng": 121.509309,
    "address": "100臺北市中正區秀山街4號13樓"
  },
  {
    "name": "行政院環境保護署第2辦公室會議室(14F)",
    "lat": 25.042787,
    "lng": 121.509309,
    "address": "100臺北市中正區秀山街4號14樓"
  },
  {
    "name": "國立臺灣博物館本館1F服務台",
    "lat": 25.042902,
    "lng": 121.51503,
    "address": "100臺北市中正區襄陽路2號"
  },
  {
    "name": "國立臺灣博物館本館1F東展示室",
    "lat": 25.042902,
    "lng": 121.51503,
    "address": "100臺北市中正區襄陽路2號"
  },
  {
    "name": "國立臺灣博物館本館1F西展示室",
    "lat": 25.042902,
    "lng": 121.51503,
    "address": "100臺北市中正區襄陽路2號"
  },
  {
    "name": "國立臺灣博物館本館3F展示室",
    "lat": 25.042902,
    "lng": 121.51503,
    "address": "100臺北市中正區襄陽路2號"
  },
  {
    "name": "中山堂管理所1F服務臺",
    "lat": 25.0430478,
    "lng": 121.510052,
    "address": "100臺北市中正區延平南路98號1F"
  },
  {
    "name": "228和平公園-3號公廁-兒童遊戲場",
    "lat": 25.0430992,
    "lng": 121.5142554,
    "address": "100臺北市中正區凱達格蘭3號(3號公廁外牆)"
  },
  {
    "name": "台北中山堂郵局",
    "lat": 25.0431219,
    "lng": 121.50896,
    "address": "100臺北市中正區秀山街1號"
  },
  {
    "name": "中山堂管理所2F堡壘廳後門外",
    "lat": 25.0431256,
    "lng": 121.5101077,
    "address": "100臺北市中正區延平南路98號2F"
  },
  {
    "name": "國立臺灣博物館本館B1東、西展示室",
    "lat": 25.043129,
    "lng": 121.515051,
    "address": "100臺北市中正區襄陽路2號B1"
  },
  {
    "name": "合庫西門分行營業廳",
    "lat": 25.043214,
    "lng": 121.505043,
    "address": "108臺北市萬華區昆明街77號"
  },
  {
    "name": "中山堂管理所1F演員休息室門外左側",
    "lat": 25.043234,
    "lng": 121.5095843,
    "address": "100臺北市中正區延平南路98號1F"
  },
  {
    "name": "立法院郵局",
    "lat": 25.043252,
    "lng": 121.5198947,
    "address": "100臺北市中正區濟南路一段1號"
  },
  {
    "name": "華南商業銀行城內分行",
    "lat": 25.043262,
    "lng": 121.511635,
    "address": "100臺北市中正區博愛路93號"
  },
  {
    "name": "中山堂管理所1F演員休息室門內",
    "lat": 25.0432665,
    "lng": 121.5096075,
    "address": "100臺北市中正區延平南路98號1F"
  },
  {
    "name": "中山堂管理所3F台北書院門外",
    "lat": 25.0433099,
    "lng": 121.5096111,
    "address": "100臺北市中正區延平南路98號3F"
  },
  {
    "name": "中山堂管理所3F茶坊門外",
    "lat": 25.0433099,
    "lng": 121.5096111,
    "address": "100臺北市中正區延平南路98號3F"
  },
  {
    "name": "經濟部礦務局5樓公開閱覽室",
    "lat": 25.0433213,
    "lng": 121.5089941,
    "address": "100臺北市中正區中華路一段53號5樓"
  },
  {
    "name": "博物館(襄陽)-E-襄陽路",
    "lat": 25.0433543,
    "lng": 121.5146487,
    "address": "100臺北市中正區襄陽路25號斜對面候車亭"
  },
  {
    "name": "中山堂管理所2F光復廳中間門外上方",
    "lat": 25.0433622,
    "lng": 121.5095713,
    "address": "100臺北市中正區延平南路98號2F"
  },
  {
    "name": "中山堂管理所2F光復廳往主任室門內上方",
    "lat": 25.0433905,
    "lng": 121.5094318,
    "address": "100臺北市中正區延平南路98號2F"
  },
  {
    "name": "國立臺灣博物館土銀館1F服務台",
    "lat": 25.0435651,
    "lng": 121.5141637,
    "address": "100臺北市中正區襄陽路25號"
  },
  {
    "name": "國立臺灣博物館土銀館展示室",
    "lat": 25.0435651,
    "lng": 121.5141637,
    "address": "100臺北市中正區襄陽路25號"
  },
  {
    "name": "合庫營業部營業廳",
    "lat": 25.043739,
    "lng": 121.515164,
    "address": "100臺北市中正區館前路77號"
  },
  {
    "name": "警察局局本部9F保防科門口",
    "lat": 25.0437747,
    "lng": 121.5089282,
    "address": "100臺北市中正區延平南路96號9F"
  },
  {
    "name": "警察局局本部11F1103防治科內後方",
    "lat": 25.0437838,
    "lng": 121.509362,
    "address": "100臺北市中正區延平南路96號11F"
  },
  {
    "name": "警察局局本部2F202會計室",
    "lat": 25.0437902,
    "lng": 121.510053,
    "address": "100臺北市中正區延平南路96號2F"
  },
  {
    "name": "警察局局本部4F403第二會議室大門",
    "lat": 25.043812,
    "lng": 121.5095198,
    "address": "100臺北市中正區延平南路96號4F"
  },
  {
    "name": "警察局局本部5F辦公室門口",
    "lat": 25.043812,
    "lng": 121.5095198,
    "address": "100臺北市中正區延平南路96號5F"
  },
  {
    "name": "警察局局本部7F政風室",
    "lat": 25.043812,
    "lng": 121.5095198,
    "address": "100臺北市中正區延平南路96號7F"
  },
  {
    "name": "警察局局本部6F第一會議室",
    "lat": 25.0438765,
    "lng": 121.5097423,
    "address": "100臺北市中正區延平南路96號6F"
  },
  {
    "name": "警察局局本部7F督察室門口",
    "lat": 25.0438765,
    "lng": 121.5097423,
    "address": "100臺北市中正區延平南路96號7F"
  },
  {
    "name": "警察局局本部8F人事室東方",
    "lat": 25.0438765,
    "lng": 121.5097423,
    "address": "100臺北市中正區延平南路96號8F"
  },
  {
    "name": "警察局局本部5F資訊室中央",
    "lat": 25.043881,
    "lng": 121.5096209,
    "address": "100臺北市中正區延平南路96號5F"
  },
  {
    "name": "警察局局本部B3FB306大禮堂門口",
    "lat": 25.0438831,
    "lng": 121.5098658,
    "address": "100臺北市中正區延平南路96號B3F"
  },
  {
    "name": "警察局局本部B3F文康室內",
    "lat": 25.0438831,
    "lng": 121.5098658,
    "address": "100臺北市中正區延平南路96號B3F"
  },
  {
    "name": "警察局局本部1F104外事科門口",
    "lat": 25.043911,
    "lng": 121.509769,
    "address": "100臺北市中正區延平南路96號1F"
  },
  {
    "name": "警察局局本部1F志工服務臺",
    "lat": 25.0439422,
    "lng": 121.5095664,
    "address": "100臺北市中正區延平南路96號1F"
  },
  {
    "name": "警察局局本部B1FB101保安中隊門口",
    "lat": 25.0439422,
    "lng": 121.5095664,
    "address": "100臺北市中正區延平南路96號B1F"
  },
  {
    "name": "警察局局本部1F108空調室門口右側",
    "lat": 25.0439422,
    "lng": 121.5095664,
    "address": "100臺北市中正區延平南路96號1F"
  },
  {
    "name": "警察局局本部6F保安科門口",
    "lat": 25.0439422,
    "lng": 121.5095664,
    "address": "100臺北市中正區延平南路96號6F"
  },
  {
    "name": "警察局局本部8F行政科門口",
    "lat": 25.0439422,
    "lng": 121.5095664,
    "address": "100臺北市中正區延平南路96號8F"
  },
  {
    "name": "警察局局本部3F301局長室門口",
    "lat": 25.0439627,
    "lng": 121.5094338,
    "address": "100臺北市中正區延平南路96號3F"
  },
  {
    "name": "警察局局本部4F勤務指揮中心大門",
    "lat": 25.0439627,
    "lng": 121.5094338,
    "address": "100臺北市中正區延平南路96號4F"
  },
  {
    "name": "行政院台商聯合服務中心",
    "lat": 25.0439687,
    "lng": 121.5151756,
    "address": "100臺北市中正區館前路71號8樓"
  },
  {
    "name": "立法院大門會客室",
    "lat": 25.0439998,
    "lng": 121.5195803,
    "address": "100臺北市中正區中山南路1號"
  },
  {
    "name": "警察局局本部LF大廳2號電梯門口右側",
    "lat": 25.0440159,
    "lng": 121.5099505,
    "address": "100臺北市中正區延平南路96號1F"
  },
  {
    "name": "立法院議場",
    "lat": 25.044048,
    "lng": 121.519559,
    "address": "100臺北市中正區中山南路1號"
  },
  {
    "name": "北市聯醫昆明院區1F批價櫃檯",
    "lat": 25.0440624,
    "lng": 121.5050214,
    "address": "108臺北市萬華區昆明街100號"
  },
  {
    "name": "北市聯醫昆明院區4F新興傳染病及藥癮防治科中央",
    "lat": 25.0440624,
    "lng": 121.5050214,
    "address": "108臺北市萬華區昆明街100號"
  },
  {
    "name": "北市聯醫昆明院區6F慢性傳染病股門口",
    "lat": 25.0440624,
    "lng": 121.5050214,
    "address": "108臺北市萬華區昆明街100號"
  },
  {
    "name": "警察局局本部2F205後勤科財產股門口",
    "lat": 25.0440985,
    "lng": 121.50946,
    "address": "100臺北市中正區延平南路96號2F"
  },
  {
    "name": "臺灣土地銀行營業部",
    "lat": 25.0441134,
    "lng": 121.5147336,
    "address": "100臺北市中正區館前路46號"
  },
  {
    "name": "警察局局本部3F307主任秘書辦公室中央",
    "lat": 25.0441797,
    "lng": 121.5092125,
    "address": "100臺北市中正區延平南路96號3F"
  },
  {
    "name": "第一商業銀行西門分行",
    "lat": 25.044186,
    "lng": 121.506222,
    "address": "108臺北市萬華區西寧南路52號"
  },
  {
    "name": "北市聯醫昆明院區1F中藥局中央",
    "lat": 25.0441945,
    "lng": 121.5050065,
    "address": "108臺北市萬華區昆明街100號"
  },
  {
    "name": "北市聯醫昆明院區3F第9診間門口",
    "lat": 25.0442002,
    "lng": 121.5047602,
    "address": "108臺北市萬華區昆明街100號"
  },
  {
    "name": "北市聯醫昆明院區9F醫務長室門口",
    "lat": 25.0442002,
    "lng": 121.5047602,
    "address": "108臺北市萬華區昆明街100號"
  },
  {
    "name": "北市聯醫昆明院區1F聯合服務中心櫃台",
    "lat": 25.0442027,
    "lng": 121.5050413,
    "address": "108臺北市萬華區昆明街100號"
  },
  {
    "name": "臺灣銀行採購部",
    "lat": 25.0442046,
    "lng": 121.5111993,
    "address": "100臺北市中正區武昌街一段45號3樓"
  },
  {
    "name": "警察局局本部10F1008機務組內管理組門口",
    "lat": 25.0442782,
    "lng": 121.5088982,
    "address": "100臺北市中正區延平南路96號10F"
  },
  {
    "name": "北市聯醫昆明院區4F團體討論室門口",
    "lat": 25.0443194,
    "lng": 121.5047331,
    "address": "108臺北市萬華區昆明街100號"
  },
  {
    "name": "北市聯醫昆明院區5F性病及愛滋病防治組外側走道",
    "lat": 25.0443194,
    "lng": 121.5047331,
    "address": "108臺北市萬華區昆明街100號5F(性病及愛滋病防治組門口)"
  },
  {
    "name": "北市聯醫昆明院區7F會議室與結核病防治組走道中央",
    "lat": 25.0443194,
    "lng": 121.5047331,
    "address": "108臺北市萬華區昆明街100號"
  },
  {
    "name": "西門町遊客中心",
    "lat": 25.0443501,
    "lng": 121.5075447,
    "address": "108臺北市萬華區漢中街45號1樓"
  },
  {
    "name": "北市聯醫昆明院區6F預防接種股門口",
    "lat": 25.0443556,
    "lng": 121.5050811,
    "address": "108臺北市萬華區昆明街100號"
  },
  {
    "name": "警察局局本部9F法規室門口",
    "lat": 25.0443636,
    "lng": 121.5091073,
    "address": "100臺北市中正區延平南路96號9F"
  },
  {
    "name": "北市聯醫昆明院區3F空調室門口",
    "lat": 25.0443646,
    "lng": 121.5048113,
    "address": "108臺北市萬華區昆明街100號"
  },
  {
    "name": "北市聯醫昆明院區2F第27門診門口",
    "lat": 25.0443746,
    "lng": 121.504812,
    "address": "108臺北市萬華區昆明街100號"
  },
  {
    "name": "警察局局本部10F秘書室檔案股門口",
    "lat": 25.0443932,
    "lng": 121.5090466,
    "address": "100臺北市中正區延平南路96號10F"
  },
  {
    "name": "臺灣銀行股份有限公司武昌分行",
    "lat": 25.044403,
    "lng": 121.510853,
    "address": "110臺北市中正區武昌街一段49號"
  },
  {
    "name": "北市聯醫昆明院區5F會議室門口外",
    "lat": 25.0444093,
    "lng": 121.5047212,
    "address": "108臺北市萬華區昆明街100號"
  },
  {
    "name": "北市聯醫昆明院區8F標準病人休息室門口",
    "lat": 25.044422,
    "lng": 121.5046484,
    "address": "108臺北市萬華區昆明街100號"
  },
  {
    "name": "警察局局本部11F1106犯罪預防科大門",
    "lat": 25.0444542,
    "lng": 121.5088112,
    "address": "100臺北市中正區延平南路96號11F"
  },
  {
    "name": "北市聯醫昆明院區6F科長辦公室門口",
    "lat": 25.0444636,
    "lng": 121.5045079,
    "address": "108臺北市萬華區昆明街100號"
  },
  {
    "name": "北市聯醫昆明院區10F檢驗室",
    "lat": 25.0444681,
    "lng": 121.5049489,
    "address": "108臺北市萬華區昆明街100號"
  },
  {
    "name": "中華路北站-S1-中華路一段",
    "lat": 25.0445626,
    "lng": 121.5086686,
    "address": "108臺北市萬華區中華路一段94號前候車亭"
  },
  {
    "name": "圖書館西門智慧圖書館B1F中央",
    "lat": 25.0445769,
    "lng": 121.5091837,
    "address": "100臺北市中正區中華路一段51-1號B1F"
  },
  {
    "name": "台北南陽郵局",
    "lat": 25.0445958,
    "lng": 121.5159941,
    "address": "100臺北市中正區信陽街8號"
  },
  {
    "name": "中央健康保險署-臺北業務組公保大樓5樓聯合服務中心",
    "lat": 25.0446778,
    "lng": 121.5174892,
    "address": "100臺北市中正區公園路15-1號1樓"
  },
  {
    "name": "上海商銀城中分行",
    "lat": 25.044713,
    "lng": 121.5148723,
    "address": "100臺北市中正區館前路28號"
  },
  {
    "name": "臺灣土地銀行臺北分行",
    "lat": 25.044779,
    "lng": 121.5112837,
    "address": "100臺北市中正區博愛路72號"
  },
  {
    "name": "華南商業銀行營業部",
    "lat": 25.044823,
    "lng": 121.513094,
    "address": "100臺北市中正區重慶南路一段38號"
  },
  {
    "name": "臺灣銀行館前分行",
    "lat": 25.0448979,
    "lng": 121.5151541,
    "address": "100臺北市中正區館前路49號"
  },
  {
    "name": "峨嵋街口(中醫院區)-N-康定路",
    "lat": 25.0449232,
    "lng": 121.5030247,
    "address": "108臺北市萬華區康定路19號前候車亭"
  },
  {
    "name": "中華路北站-慢車道-N-中華路一段",
    "lat": 25.0450374,
    "lng": 121.5088772,
    "address": "100臺北市中正區中華路一段41號旁候車亭"
  },
  {
    "name": "臺北市電影主題公園1F D棟音響設備上",
    "lat": 25.0452321,
    "lng": 121.5034672,
    "address": "108臺北市萬華區康定路19號1F"
  },
  {
    "name": "兆豐國際商銀城中分行",
    "lat": 25.0453942,
    "lng": 121.5154618,
    "address": "100臺北市中正區許昌街42號"
  },
  {
    "name": "中華路北站-N-中華路一段",
    "lat": 25.04563,
    "lng": 121.50957,
    "address": "100臺北市中正區中華路一段29之4號旁候車亭"
  },
  {
    "name": "第一金融控股股份有限公司",
    "lat": 25.045813,
    "lng": 121.513114,
    "address": "100臺北市中正區重慶南路一段30號18樓"
  },
  {
    "name": "第一商業銀行營業部分行",
    "lat": 25.045814,
    "lng": 121.513114,
    "address": "100臺北市中正區重慶南路一段30號"
  },
  {
    "name": "台北復興橋郵局",
    "lat": 25.0459863,
    "lng": 121.519409,
    "address": "100臺北市中正區忠孝西路一段1號"
  },
  {
    "name": "文化部影視及流行音樂產業局",
    "lat": 25.046066,
    "lng": 121.5144436,
    "address": "100臺北市中正區開封街一段三號"
  },
  {
    "name": "數位發展部新光大樓1",
    "lat": 25.0461288,
    "lng": 121.5153327,
    "address": "100臺北市中正區忠孝西路一段66號"
  },
  {
    "name": "數位發展部新光大樓2",
    "lat": 25.0461288,
    "lng": 121.5153327,
    "address": "100臺北市中正區忠孝西路一段66號"
  },
  {
    "name": "臺北車站(忠孝)-W2-忠孝西路一段",
    "lat": 25.0465583,
    "lng": 121.5166885,
    "address": "100臺北市中正區忠孝西路一段(捷運台北車站4號出口旁)候車亭"
  },
  {
    "name": "臺北車站(忠孝)-W1-忠孝西路一段",
    "lat": 25.0466977,
    "lng": 121.5171673,
    "address": "100臺北市中正區忠孝西路一段(捷運台北車站4號出口旁)候車亭"
  },
  {
    "name": "K區地下街B1F 東側廣場旁消防栓出水口前",
    "lat": 25.0467014,
    "lng": 121.5169487,
    "address": "100臺北市中正區忠孝西路一段47號B1F"
  },
  {
    "name": "萬華福星區民活動中心2F中央",
    "lat": 25.0467351,
    "lng": 121.5069286,
    "address": "108臺北市萬華區西寧南路14-3號2F"
  },
  {
    "name": "K區地下街B1F KB108店前",
    "lat": 25.0468321,
    "lng": 121.5165356,
    "address": "100臺北市中正區忠孝西路一段47號B1F"
  },
  {
    "name": "K區地下街B1F中廣場左側",
    "lat": 25.0469121,
    "lng": 121.5162385,
    "address": "100臺北市中正區忠孝西路一段47號B1F"
  },
  {
    "name": "K區地下街B1F KB144店前方",
    "lat": 25.0469256,
    "lng": 121.5167268,
    "address": "100臺北市中正區忠孝西路一段47號B1F"
  },
  {
    "name": "K區地下街B1F西廣場右側",
    "lat": 25.0469965,
    "lng": 121.5152315,
    "address": "100臺北市中正區忠孝西路一段47號B1F"
  },
  {
    "name": "K區地下街B1F KB157店前方",
    "lat": 25.0469965,
    "lng": 121.5152315,
    "address": "100臺北市中正區忠孝西路一段47號B1F"
  },
  {
    "name": "K區地下街B1F中廣場右側",
    "lat": 25.0470035,
    "lng": 121.5158841,
    "address": "100臺北市中正區忠孝西路一段47號B1F"
  },
  {
    "name": "K區地下街B1F KB143店前方",
    "lat": 25.0470227,
    "lng": 121.5170824,
    "address": "100臺北市中正區忠孝西路一段47號B1F"
  },
  {
    "name": "臺鐵局臺北站第3月台8車位置",
    "lat": 25.047049,
    "lng": 121.517322,
    "address": "100臺北市中正區黎明里北平西路3號"
  },
  {
    "name": "臺鐵局臺北站第4月台6車位置",
    "lat": 25.047049,
    "lng": 121.517322,
    "address": "100臺北市中正區黎明里北平西路3號"
  },
  {
    "name": "臺鐵局臺北站第3月台12車位置",
    "lat": 25.047049,
    "lng": 121.517322,
    "address": "100臺北市中正區黎明里北平西路3號"
  },
  {
    "name": "臺鐵局臺北站第4月台2車位置",
    "lat": 25.047049,
    "lng": 121.517322,
    "address": "100臺北市中正區黎明里北平西路3號"
  },
  {
    "name": "臺北站地下1樓北迴廊西側置物櫃旁",
    "lat": 25.047049,
    "lng": 121.517322,
    "address": "100臺北市中正區黎明里北平西路3號"
  },
  {
    "name": "臺鐵局臺北站地下1樓機場捷運連通道南迴廊東側",
    "lat": 25.047049,
    "lng": 121.517322,
    "address": "100臺北市中正區黎明里北平西路3號"
  },
  {
    "name": "臺鐵局臺北站地下1樓北迴廊自動售票機旁",
    "lat": 25.047049,
    "lng": 121.517322,
    "address": "100臺北市中正區黎明里北平西路3號"
  },
  {
    "name": "臺鐵局臺北站地下1樓機場捷運連通道北迴廊東側",
    "lat": 25.047049,
    "lng": 121.517322,
    "address": "100臺北市中正區黎明里北平西路3號"
  },
  {
    "name": "臺鐵局臺北站地下1樓機場捷運連通道北迴廊西側",
    "lat": 25.047049,
    "lng": 121.517322,
    "address": "100臺北市中正區黎明里北平西路3號"
  },
  {
    "name": "臺鐵局臺北站地下1樓機場捷運連通道西迴廊北側",
    "lat": 25.047049,
    "lng": 121.517322,
    "address": "100臺北市中正區黎明里北平西路3號"
  },
  {
    "name": "臺鐵局臺北站地下1樓機場捷運連通道南迴廊西側",
    "lat": 25.047049,
    "lng": 121.517322,
    "address": "100臺北市中正區黎明里北平西路3號"
  },
  {
    "name": "臺鐵局臺北站地下1樓機場捷運連通道西迴廊南側",
    "lat": 25.047049,
    "lng": 121.517322,
    "address": "100臺北市中正區黎明里北平西路3號"
  },
  {
    "name": "臺鐵局臺北站第3月台4車位置K30柱旁",
    "lat": 25.047049,
    "lng": 121.517322,
    "address": "100臺北市中正區黎明里北平西路3號"
  },
  {
    "name": "臺北站地下1樓北迴廊臺鐵便當本舖3號店旁",
    "lat": 25.047049,
    "lng": 121.517322,
    "address": "100臺北市中正區黎明里北平西路3號"
  },
  {
    "name": "北捷松山線北門站B1F連通道西側",
    "lat": 25.047049,
    "lng": 121.517322,
    "address": "100臺北市中正區黎明里北平西路3號"
  },
  {
    "name": "站前地下街(Z區)Z7出口旁",
    "lat": 25.047049,
    "lng": 121.517322,
    "address": "100臺北市中正區黎明里北平西路3號"
  },
  {
    "name": "K區地下街B1F西廣場左側",
    "lat": 25.0470908,
    "lng": 121.5152281,
    "address": "100臺北市中正區忠孝西路一段47號B1F"
  },
  {
    "name": "K區地下街B1F KB116前方",
    "lat": 25.0470921,
    "lng": 121.5152787,
    "address": "100臺北市中正區忠孝西路一段47號B1F"
  },
  {
    "name": "台北北門郵局-1",
    "lat": 25.0472563,
    "lng": 121.5121168,
    "address": "100臺北市中正區忠孝西路一段114號"
  },
  {
    "name": "台北北門郵局-2",
    "lat": 25.0472563,
    "lng": 121.5121168,
    "address": "100臺北市中正區忠孝西路一段114號"
  },
  {
    "name": "台北北門郵局-3",
    "lat": 25.0472563,
    "lng": 121.5121168,
    "address": "100臺北市中正區忠孝西路一段114號"
  },
  {
    "name": "台北北門郵局-4",
    "lat": 25.0472563,
    "lng": 121.5121168,
    "address": "100臺北市中正區忠孝西路一段114號"
  },
  {
    "name": "台北北門郵局-5",
    "lat": 25.0472563,
    "lng": 121.5121168,
    "address": "100臺北市中正區忠孝西路一段114號"
  },
  {
    "name": "萬華運動中心-S-西寧南路",
    "lat": 25.0473707,
    "lng": 121.5071418,
    "address": "108臺北市萬華區西寧南路6之1號旁候車亭"
  },
  {
    "name": "萬華運動中心1F社區教室前方",
    "lat": 25.0473881,
    "lng": 121.5068404,
    "address": "108臺北市萬華區西寧南路6之1號1F"
  },
  {
    "name": "萬華運動中心3F健身房重訓區",
    "lat": 25.0474081,
    "lng": 121.5067531,
    "address": "108臺北市萬華區西寧南路6之1號3F"
  },
  {
    "name": "萬華運動中心2F高爾夫球訓練區後方",
    "lat": 25.0474576,
    "lng": 121.5068673,
    "address": "108臺北市萬華區西寧南路6之1號2F"
  },
  {
    "name": "萬華運動中心3F健身房櫃臺旁",
    "lat": 25.0474576,
    "lng": 121.5068673,
    "address": "108臺北市萬華區西寧南路6之1號3F"
  },
  {
    "name": "萬華運動中心4F攀岩場座位區",
    "lat": 25.0474576,
    "lng": 121.5068673,
    "address": "108臺北市萬華區西寧南路6之1號4F"
  },
  {
    "name": "萬華運動中心7F室內座位區",
    "lat": 25.0474576,
    "lng": 121.5068673,
    "address": "108臺北市萬華區西寧南路6之1號7F"
  },
  {
    "name": "萬華運動中心1F櫃臺前方",
    "lat": 25.0475108,
    "lng": 121.5068721,
    "address": "108臺北市萬華區西寧南路6之1號1F"
  },
  {
    "name": "萬華運動中心2F高爾夫球訓練區櫃臺旁",
    "lat": 25.0475233,
    "lng": 121.5068861,
    "address": "108臺北市萬華區西寧南路6之1號2F"
  },
  {
    "name": "交通部臺灣鐵路管理局局演藝廳-1",
    "lat": 25.047704,
    "lng": 121.517372,
    "address": "100臺北市中正區北平西路3號5樓5136室"
  },
  {
    "name": "交通部臺灣鐵路管理局局演藝廳-3",
    "lat": 25.047704,
    "lng": 121.517372,
    "address": "100臺北市中正區北平西路3號5樓5136室"
  },
  {
    "name": "交通部臺灣鐵路管理局局第1會議室-1",
    "lat": 25.047704,
    "lng": 121.517372,
    "address": "100臺北市中正區北平西路3號5樓5036室"
  },
  {
    "name": "交通部臺灣鐵路管理局局第1會議室-2",
    "lat": 25.047704,
    "lng": 121.517372,
    "address": "100臺北市中正區北平西路3號5樓5036室"
  },
  {
    "name": "交通部臺灣鐵路管理局局第4會議室",
    "lat": 25.047704,
    "lng": 121.517372,
    "address": "100臺北市中正區北平西路3號6樓6007室"
  },
  {
    "name": "交通部臺灣鐵路管理局局第5會議室",
    "lat": 25.047704,
    "lng": 121.517372,
    "address": "100臺北市中正區北平西路3號6樓6046室"
  },
  {
    "name": "交通部臺灣鐵路管理局局第9會議室",
    "lat": 25.047704,
    "lng": 121.517372,
    "address": "100臺北市中正區北平西路3號3樓3081室"
  },
  {
    "name": "交通部臺灣鐵路管理局文檔科檔案室",
    "lat": 25.047704,
    "lng": 121.517372,
    "address": "100臺北市中正區北平西路3號6樓6002室"
  },
  {
    "name": "臺北車站旅遊服務中心1F服務櫃檯後方",
    "lat": 25.0477052,
    "lng": 121.5165125,
    "address": "100臺北市中正區北平西路3號1F"
  },
  {
    "name": "臺鐵局行政處檔案閱覽室",
    "lat": 25.047751,
    "lng": 121.517363,
    "address": "100臺北市中正區北平西路3號4樓4101室"
  },
  {
    "name": "臺鐵局材料處公開閱覽室",
    "lat": 25.047751,
    "lng": 121.517363,
    "address": "100臺北市中正區北平西路3號5樓5075室"
  },
  {
    "name": "臺鐵局秘書室國會聯絡室",
    "lat": 25.047751,
    "lng": 121.517363,
    "address": "100臺北市中正區北平西路3號6樓6002室"
  },
  {
    "name": "臺鐵局秘書室新聞聯絡室",
    "lat": 25.047751,
    "lng": 121.517363,
    "address": "100臺北市中正區北平西路3號5樓5007室"
  },
  {
    "name": "交通部臺灣鐵路管理局演藝廳-1",
    "lat": 25.047751,
    "lng": 121.517363,
    "address": "100臺北市中正區北平西路3號5樓"
  },
  {
    "name": "交通部臺灣鐵路管理局演藝廳-2",
    "lat": 25.047751,
    "lng": 121.517363,
    "address": "100臺北市中正區北平西路3號5樓"
  },
  {
    "name": "交通部臺灣鐵路管理局演藝廳-3",
    "lat": 25.047751,
    "lng": 121.517363,
    "address": "100臺北市中正區北平西路3號5樓"
  },
  {
    "name": "交通部臺灣鐵路管理局第1會議室-1",
    "lat": 25.047751,
    "lng": 121.517363,
    "address": "100臺北市中正區北平西路3號5樓"
  },
  {
    "name": "交通部臺灣鐵路管理局第1會議室-2",
    "lat": 25.047751,
    "lng": 121.517363,
    "address": "100臺北市中正區北平西路3號5樓"
  },
  {
    "name": "交通部臺灣鐵路管理局第2會議室",
    "lat": 25.047751,
    "lng": 121.517363,
    "address": "100臺北市中正區北平西路3號5樓"
  },
  {
    "name": "交通部臺灣鐵路管理局第3會議室",
    "lat": 25.047751,
    "lng": 121.517363,
    "address": "100臺北市中正區北平西路3號5樓"
  },
  {
    "name": "交通部臺灣鐵路管理局第4會議室",
    "lat": 25.047751,
    "lng": 121.517363,
    "address": "100臺北市中正區北平西路3號6樓"
  },
  {
    "name": "交通部臺灣鐵路管理局第5會議室",
    "lat": 25.047751,
    "lng": 121.517363,
    "address": "100臺北市中正區北平西路3號6樓"
  },
  {
    "name": "交通部臺灣鐵路管理局第9會議室",
    "lat": 25.047751,
    "lng": 121.517363,
    "address": "100臺北市中正區北平西路3號3樓"
  },
  {
    "name": "台北火車站郵局",
    "lat": 25.047828,
    "lng": 121.517371,
    "address": "100臺北市中正區北平西路3號"
  },
  {
    "name": "臺北記憶倉庫1F機房",
    "lat": 25.0478334,
    "lng": 121.5124587,
    "address": "100臺北市中正區忠孝西路一段265號1F"
  },
  {
    "name": "財政部臺北國稅局總局1F民眾服務區",
    "lat": 25.0478439,
    "lng": 121.509189,
    "address": "108臺北市萬華區中華路一段2號1樓"
  },
  {
    "name": "財政部臺北國稅局總局4F民眾服務區",
    "lat": 25.0478439,
    "lng": 121.509189,
    "address": "108臺北市萬華區中華路一段2號4樓"
  },
  {
    "name": "財政部臺北國稅局總局7F民眾服務區",
    "lat": 25.0478439,
    "lng": 121.509189,
    "address": "108臺北市萬華區中華路一段2號7樓"
  },
  {
    "name": "臺鐵局臺北站地下一樓東南角",
    "lat": 25.047974,
    "lng": 121.517425,
    "address": "100臺北市中正區北平西路3號"
  },
  {
    "name": "臺鐵局臺北站地下三樓剪收票口(R13)",
    "lat": 25.047974,
    "lng": 121.517425,
    "address": "100臺北市中正區北平西路3號"
  },
  {
    "name": "EMU3000型列車-第(2)編組",
    "lat": 25.04801,
    "lng": 121.51806,
    "address": "100臺北市中正區北平西路3號5樓"
  },
  {
    "name": "EMU3000型列車-第(4)編組",
    "lat": 25.04801,
    "lng": 121.51806,
    "address": "100臺北市中正區北平西路3號5樓"
  },
  {
    "name": "EMU3000型列車-第(5)編組",
    "lat": 25.04801,
    "lng": 121.51806,
    "address": "100臺北市中正區北平西路3號5樓"
  },
  {
    "name": "EMU3000型列車-第(6)編組",
    "lat": 25.04801,
    "lng": 121.51806,
    "address": "100臺北市中正區北平西路3號5樓"
  },
  {
    "name": "EMU3000型列車-第(7)編組",
    "lat": 25.04801,
    "lng": 121.51806,
    "address": "100臺北市中正區北平西路3號5樓"
  },
  {
    "name": "EMU3000型列車-第(8)編組",
    "lat": 25.04801,
    "lng": 121.51806,
    "address": "100臺北市中正區北平西路3號5樓"
  },
  {
    "name": "EMU3000型列車-第(9)編組",
    "lat": 25.04801,
    "lng": 121.51806,
    "address": "100臺北市中正區北平西路3號5樓"
  },
  {
    "name": "EMU3000型列車-第(10)編組",
    "lat": 25.04801,
    "lng": 121.51806,
    "address": "100臺北市中正區北平西路3號5樓"
  },
  {
    "name": "EMU3000型列車-第(12)編組",
    "lat": 25.04801,
    "lng": 121.51806,
    "address": "100臺北市中正區北平西路3號5樓"
  },
  {
    "name": "EMU3000型列車-第(13)編組",
    "lat": 25.04801,
    "lng": 121.51806,
    "address": "100臺北市中正區北平西路3號5樓"
  },
  {
    "name": "EMU3000型列車-第(14)編組",
    "lat": 25.04801,
    "lng": 121.51806,
    "address": "100臺北市中正區北平西路3號5樓"
  },
  {
    "name": "EMU3000型列車-第(15)編組",
    "lat": 25.04801,
    "lng": 121.51806,
    "address": "100臺北市中正區北平西路3號5樓"
  },
  {
    "name": "EMU3000型列車-第(16)編組",
    "lat": 25.04801,
    "lng": 121.51806,
    "address": "100臺北市中正區北平西路3號5樓"
  },
  {
    "name": "EMU3000型列車-第(17)編組",
    "lat": 25.04801,
    "lng": 121.51806,
    "address": "100臺北市中正區北平西路3號5樓"
  },
  {
    "name": "EMU3000型列車-第(18)編組",
    "lat": 25.04801,
    "lng": 121.51806,
    "address": "100臺北市中正區北平西路3號5樓"
  },
  {
    "name": "EMU3000型列車-第(19)編組",
    "lat": 25.04801,
    "lng": 121.51806,
    "address": "100臺北市中正區北平西路3號5樓"
  },
  {
    "name": "EMU3000型列車-第(20)編組",
    "lat": 25.04801,
    "lng": 121.51806,
    "address": "100臺北市中正區北平西路3號5樓"
  },
  {
    "name": "EMU3000型列車-第(21)編組",
    "lat": 25.04801,
    "lng": 121.51806,
    "address": "100臺北市中正區北平西路3號5樓"
  },
  {
    "name": "EMU3000型列車-第(22)編組",
    "lat": 25.04801,
    "lng": 121.51806,
    "address": "100臺北市中正區北平西路3號5樓"
  },
  {
    "name": "EMU3000型列車-第(25)編組",
    "lat": 25.04801,
    "lng": 121.51806,
    "address": "100臺北市中正區北平西路3號5樓"
  },
  {
    "name": "EMU3000型列車-第(26)編組",
    "lat": 25.04801,
    "lng": 121.51806,
    "address": "100臺北市中正區北平西路3號5樓"
  },
  {
    "name": "EMU3000型列車-第(27)編組",
    "lat": 25.04801,
    "lng": 121.51806,
    "address": "100臺北市中正區北平西路3號5樓"
  },
  {
    "name": "EMU3000型列車-第(28)編組",
    "lat": 25.04801,
    "lng": 121.51806,
    "address": "100臺北市中正區北平西路3號5樓"
  },
  {
    "name": "EMU3000型列車-第(29)編組",
    "lat": 25.04801,
    "lng": 121.51806,
    "address": "100臺北市中正區北平西路3號5樓"
  },
  {
    "name": "EMU3000型列車-第(30)編組",
    "lat": 25.04801,
    "lng": 121.51806,
    "address": "100臺北市中正區北平西路3號5樓"
  },
  {
    "name": "EMU3000型列車-第(32)編組",
    "lat": 25.04801,
    "lng": 121.51806,
    "address": "100臺北市中正區北平西路3號5樓"
  },
  {
    "name": "EMU3000型列車-第(33)編組",
    "lat": 25.04801,
    "lng": 121.51806,
    "address": "100臺北市中正區北平西路3號5樓"
  },
  {
    "name": "EMU3000型列車-第(34)編組",
    "lat": 25.04801,
    "lng": 121.51806,
    "address": "100臺北市中正區北平西路3號5樓"
  },
  {
    "name": "EMU3000型列車-第(35)編組",
    "lat": 25.04801,
    "lng": 121.51806,
    "address": "100臺北市中正區北平西路3號5樓"
  },
  {
    "name": "EMU3000型列車-第(36)編組",
    "lat": 25.04801,
    "lng": 121.51806,
    "address": "100臺北市中正區北平西路3號5樓"
  },
  {
    "name": "EMU3000型列車-第(37)編組",
    "lat": 25.04801,
    "lng": 121.51806,
    "address": "100臺北市中正區北平西路3號5樓"
  },
  {
    "name": "臺鐵局臺北站R13票房",
    "lat": 25.048013,
    "lng": 121.517339,
    "address": "100臺北市中正區北平西路3號"
  },
  {
    "name": "臺鐵局臺北站大廳西側",
    "lat": 25.048013,
    "lng": 121.517339,
    "address": "100臺北市中正區北平西路3號"
  },
  {
    "name": "臺鐵局臺北站大廳東側",
    "lat": 25.048013,
    "lng": 121.517339,
    "address": "100臺北市中正區北平西路3號"
  },
  {
    "name": "臺鐵局臺北站西剪票入口(地下1樓)",
    "lat": 25.048013,
    "lng": 121.517339,
    "address": "100臺北市中正區北平西路3號"
  },
  {
    "name": "臺鐵局臺北站東剪票入口(地下1樓)",
    "lat": 25.048013,
    "lng": 121.517339,
    "address": "100臺北市中正區北平西路3號"
  },
  {
    "name": "台北地下街B1F-行政服務中心門口",
    "lat": 25.0480322,
    "lng": 121.5182697,
    "address": "100臺北市中正區市民大道一段100號B1F"
  },
  {
    "name": "台北地下街B1F-172攤位旁",
    "lat": 25.0480941,
    "lng": 121.5182713,
    "address": "100臺北市中正區市民大道一段100號B1F"
  },
  {
    "name": "台北地下街B1F-廣場13中央",
    "lat": 25.0482741,
    "lng": 121.5181279,
    "address": "100臺北市中正區市民大道一段100號B1F"
  },
  {
    "name": "台北地下街B1F-廣場12左側",
    "lat": 25.0483124,
    "lng": 121.5179243,
    "address": "100臺北市中正區市民大道一段100號B1F"
  },
  {
    "name": "台北地下街B1F-183攤位旁",
    "lat": 25.0483452,
    "lng": 121.5179468,
    "address": "100臺北市中正區市民大道一段100號B1F"
  },
  {
    "name": "台北地下街B1F-160攤位旁",
    "lat": 25.0484206,
    "lng": 121.5173373,
    "address": "100臺北市中正區市民大道一段100號B1F"
  },
  {
    "name": "台北地下街B1F-廣場11中央",
    "lat": 25.0484211,
    "lng": 121.5173521,
    "address": "100臺北市中正區市民大道一段100號B1F"
  },
  {
    "name": "臺北車站(鄭州)-3-E1-市民大道",
    "lat": 25.0484348,
    "lng": 121.5177574,
    "address": "100臺北市中正區市民大道與承德路口往東150m候車亭"
  },
  {
    "name": "台北地下街B1F-157攤位旁",
    "lat": 25.0484549,
    "lng": 121.5169708,
    "address": "100臺北市中正區市民大道一段100號B1F"
  },
  {
    "name": "台北地下街B1F-162攤位旁",
    "lat": 25.0484561,
    "lng": 121.5173111,
    "address": "100臺北市中正區市民大道一段100號B1F"
  },
  {
    "name": "臺北車站(鄭州)-2-E-市民大道",
    "lat": 25.0484743,
    "lng": 121.5173044,
    "address": "100臺北市中正區市民大道與承德路口往東50m候車亭"
  },
  {
    "name": "臺北車站(鄭州)-E-市民大道",
    "lat": 25.0485108,
    "lng": 121.5170868,
    "address": "100臺北市中正區市民大道與承德路口往東50m候車亭"
  },
  {
    "name": "台北地下街B1F-143攤位旁",
    "lat": 25.0486391,
    "lng": 121.5164705,
    "address": "100臺北市中正區市民大道一段100號B1F"
  },
  {
    "name": "台北地下街B1F-廣場12右側",
    "lat": 25.0486794,
    "lng": 121.5179649,
    "address": "100臺北市中正區市民大道一段100號B1F"
  },
  {
    "name": "台北地下街B1F-133攤位旁",
    "lat": 25.0487143,
    "lng": 121.5162037,
    "address": "100臺北市中正區市民大道一段100號B1F"
  },
  {
    "name": "台北地下街B1F-廣場10中央",
    "lat": 25.0487492,
    "lng": 121.5166107,
    "address": "100臺北市中正區市民大道一段100號B1F"
  },
  {
    "name": "台北地下街B1F-126攤位旁",
    "lat": 25.0487683,
    "lng": 121.5160726,
    "address": "100臺北市中正區市民大道一段100號B1F"
  },
  {
    "name": "台北地下街B1F-100攤位旁",
    "lat": 25.0488236,
    "lng": 121.5152421,
    "address": "100臺北市中正區市民大道一段100號B1F"
  },
  {
    "name": "台北地下街B1F-廣場9中央",
    "lat": 25.0488519,
    "lng": 121.5161323,
    "address": "100臺北市中正區市民大道一段100號B1F"
  },
  {
    "name": "交通控制中心B3F警務室與交控中心交界處",
    "lat": 25.0488681,
    "lng": 121.5187799,
    "address": "103臺北市大同區華陰街32號B3F"
  },
  {
    "name": "國立臺灣博物館北門館廳舍演講廳",
    "lat": 25.048914,
    "lng": 121.511445,
    "address": "103臺北市大同區延平北路一段2號"
  },
  {
    "name": "國立臺灣博物館北門館食堂多功能會議室",
    "lat": 25.048914,
    "lng": 121.511445,
    "address": "103臺北市大同區延平北路一段2號"
  },
  {
    "name": "臺北轉運站1F服務臺旁",
    "lat": 25.0489342,
    "lng": 121.5186609,
    "address": "103臺北市大同區市民大道一段209號1F"
  },
  {
    "name": "台北地下街B1F-156攤位旁",
    "lat": 25.0489397,
    "lng": 121.5162935,
    "address": "100臺北市中正區市民大道一段100號B1F"
  },
  {
    "name": "台北地下街B1F-144攤位旁",
    "lat": 25.0489785,
    "lng": 121.5160887,
    "address": "100臺北市中正區市民大道一段100號B1F"
  },
  {
    "name": "臺北轉運站1F售票前",
    "lat": 25.0489794,
    "lng": 121.5185687,
    "address": "103臺北市大同區市民大道一段209號1F"
  },
  {
    "name": "臺北轉運站2F統聯座位區",
    "lat": 25.0489958,
    "lng": 121.5184289,
    "address": "103臺北市大同區市民大道一段209號2F"
  },
  {
    "name": "臺北轉運站2F國光座位區",
    "lat": 25.0490092,
    "lng": 121.5183961,
    "address": "103臺北市大同區市民大道一段209號2F"
  },
  {
    "name": "捷運北門站-S1-塔城街",
    "lat": 25.0490126,
    "lng": 121.5100754,
    "address": "103臺北市大同區塔城街10號捷運北門1號出口旁候車亭"
  },
  {
    "name": "台北地下街B1F-132攤位旁",
    "lat": 25.0490135,
    "lng": 121.5159482,
    "address": "100臺北市中正區市民大道一段100號B1F"
  },
  {
    "name": "交通控制中心B2F零件倉庫駐點座位前",
    "lat": 25.0490183,
    "lng": 121.5186311,
    "address": "103臺北市大同區華陰街32號B2F"
  },
  {
    "name": "台北地下街B1F-118攤位旁",
    "lat": 25.0490402,
    "lng": 121.5157135,
    "address": "100臺北市中正區市民大道一段100號B1F"
  },
  {
    "name": "台北地下街B1F-124攤位旁",
    "lat": 25.0490402,
    "lng": 121.5157135,
    "address": "100臺北市中正區市民大道一段100號B1F"
  },
  {
    "name": "台北地下街B1F-廣場7中央",
    "lat": 25.0490651,
    "lng": 121.5149816,
    "address": "100臺北市中正區市民大道一段100號B1F"
  },
  {
    "name": "台北地下街B1F-116攤位旁",
    "lat": 25.0490657,
    "lng": 121.5157085,
    "address": "100臺北市中正區市民大道一段100號B1F"
  },
  {
    "name": "臺北轉運站4F和欣客運",
    "lat": 25.0491073,
    "lng": 121.5184061,
    "address": "103臺北市大同區市民大道一段209號4F"
  },
  {
    "name": "台北地下街B1F-廣場8中央",
    "lat": 25.0491154,
    "lng": 121.5152968,
    "address": "100臺北市中正區市民大道一段100號B1F"
  },
  {
    "name": "台北地下街B1F-91攤位旁",
    "lat": 25.0491392,
    "lng": 121.5148441,
    "address": "100臺北市中正區市民大道一段100號B1F"
  },
  {
    "name": "臺北轉運站3F統聯客運彰化",
    "lat": 25.0491407,
    "lng": 121.5183713,
    "address": "103臺北市大同區市民大道一段209號3F"
  },
  {
    "name": "臺北轉運站3F統聯客運高雄",
    "lat": 25.0491705,
    "lng": 121.5184179,
    "address": "103臺北市大同區市民大道一段209號3F"
  },
  {
    "name": "交通控制中心B3F辦公室門口",
    "lat": 25.0491775,
    "lng": 121.5188507,
    "address": "103臺北市大同區華陰街32號B3F"
  },
  {
    "name": "臺北轉運站4F葛瑪蘭客運",
    "lat": 25.0491994,
    "lng": 121.5184427,
    "address": "103臺北市大同區市民大道一段209號4F"
  },
  {
    "name": "台北地下街B1F-83攤位旁",
    "lat": 25.0492252,
    "lng": 121.5148904,
    "address": "100臺北市中正區市民大道一段100號B1F"
  },
  {
    "name": "台北地下街B1F-90攤位旁",
    "lat": 25.0492267,
    "lng": 121.5149048,
    "address": "100臺北市中正區市民大道一段100號B1F"
  },
  {
    "name": "台北地下街B1F-99攤位旁",
    "lat": 25.0492261,
    "lng": 121.5149534,
    "address": "100臺北市中正區市民大道一段100號B1F"
  },
  {
    "name": "台北地下街B1F-54攤位旁",
    "lat": 25.0492367,
    "lng": 121.5135599,
    "address": "100臺北市中正區市民大道一段100號B1F"
  },
  {
    "name": "台北地下街B1F-84攤位旁",
    "lat": 25.0492434,
    "lng": 121.5139516,
    "address": "100臺北市中正區市民大道一段100號B1F"
  },
  {
    "name": "台北地下街B1F-廣場6中央",
    "lat": 25.0492704,
    "lng": 121.5148231,
    "address": "100臺北市中正區市民大道一段100號B1F"
  },
  {
    "name": "交通控制中心B2F簡報室門口",
    "lat": 25.0492786,
    "lng": 121.5188276,
    "address": "103臺北市大同區華陰街32號B2F"
  },
  {
    "name": "台北地下街B1F-73攤位旁",
    "lat": 25.0492802,
    "lng": 121.5147681,
    "address": "100臺北市中正區市民大道一段100號B1F"
  },
  {
    "name": "台北地下街B1F-廣場5中央",
    "lat": 25.0492879,
    "lng": 121.5135962,
    "address": "100臺北市中正區市民大道一段100號B1F"
  },
  {
    "name": "台北地下街B1F-41攤位旁",
    "lat": 25.0493303,
    "lng": 121.5131413,
    "address": "100臺北市中正區市民大道一段100號B1F"
  },
  {
    "name": "台北地下街B1F-74攤位旁",
    "lat": 25.0493628,
    "lng": 121.5139144,
    "address": "100臺北市中正區市民大道一段100號B1F"
  },
  {
    "name": "台北地下街B1F-63攤位旁",
    "lat": 25.0494396,
    "lng": 121.5133978,
    "address": "100臺北市中正區市民大道一段100號B1F"
  },
  {
    "name": "捷運北門站-N1-塔城街",
    "lat": 25.0494408,
    "lng": 121.5104866,
    "address": "103臺北市大同區塔城街10號對面捷運北門2號出口旁候車亭"
  },
  {
    "name": "台北地下街B1F-53攤位旁",
    "lat": 25.0494906,
    "lng": 121.5134859,
    "address": "100臺北市中正區市民大道一段100號B1F"
  },
  {
    "name": "台北地下街B1F-43攤位旁",
    "lat": 25.0494941,
    "lng": 121.5133053,
    "address": "100臺北市中正區市民大道一段100號B1F"
  },
  {
    "name": "台北地下街B1F-62攤位旁",
    "lat": 25.0494941,
    "lng": 121.5133053,
    "address": "100臺北市中正區市民大道一段100號B1F"
  },
  {
    "name": "台北地下街B1F-廣場4中央",
    "lat": 25.0495174,
    "lng": 121.5130249,
    "address": "100臺北市中正區市民大道一段100號B1F"
  },
  {
    "name": "台北地下街B1F-S30-1攤位旁",
    "lat": 25.0496173,
    "lng": 121.5128291,
    "address": "100臺北市中正區市民大道一段100號B1F"
  },
  {
    "name": "台北地下街B1F-33攤位旁",
    "lat": 25.0496411,
    "lng": 121.5129425,
    "address": "100臺北市中正區市民大道一段100號B1F"
  },
  {
    "name": "台北地下街B1F-34攤位旁",
    "lat": 25.0496744,
    "lng": 121.5128613,
    "address": "100臺北市中正區市民大道一段100號B1F"
  },
  {
    "name": "台北地下街B1F-027攤位旁",
    "lat": 25.0497571,
    "lng": 121.5124342,
    "address": "100臺北市中正區市民大道一段100號B1F"
  },
  {
    "name": "台北地下街B1F-廣場3中央",
    "lat": 25.0497634,
    "lng": 121.5124432,
    "address": "100臺北市中正區市民大道一段100號B1F"
  },
  {
    "name": "台北地下街B1F-006攤位旁",
    "lat": 25.0498678,
    "lng": 121.5111167,
    "address": "100臺北市中正區市民大道一段100號B1F"
  },
  {
    "name": "健康社會住宅A1棟1F大廳電信箱上方風扇",
    "lat": 25.04991079,
    "lng": 121.5120878,
    "address": "105臺北市松山區健康路291~307號1F"
  },
  {
    "name": "台北地下街B1F-廣場1左側",
    "lat": 25.0499505,
    "lng": 121.5111466,
    "address": "100臺北市中正區市民大道一段100號B1F"
  },
  {
    "name": "台北地下街B1F-022攤位旁",
    "lat": 25.0499532,
    "lng": 121.5118341,
    "address": "100臺北市中正區市民大道一段100號B1F"
  },
  {
    "name": "台北地下街B1F-021攤位旁",
    "lat": 25.0499785,
    "lng": 121.5116534,
    "address": "100臺北市中正區市民大道一段100號B1F"
  },
  {
    "name": "玉泉公園-健身房-入口處",
    "lat": 25.050004,
    "lng": 121.5077115,
    "address": "103臺北市大同區西寧北路28號玉泉公園-健身房-入口處"
  },
  {
    "name": "玉泉公園-游泳池南側",
    "lat": 25.0500331,
    "lng": 121.5074728,
    "address": "103臺北市大同區西寧北路28號玉泉公園-游泳池西南側"
  },
  {
    "name": "台北地下街B1F-廣場2中央",
    "lat": 25.0500444,
    "lng": 121.5114387,
    "address": "100臺北市中正區市民大道一段100號B1F"
  },
  {
    "name": "台北地下街B1F-廣場1右側",
    "lat": 25.0500499,
    "lng": 121.5111197,
    "address": "100臺北市中正區市民大道一段100號B1F"
  },
  {
    "name": "台北地下街B1F-003攤位旁",
    "lat": 25.0500647,
    "lng": 121.5114431,
    "address": "100臺北市中正區市民大道一段100號B1F"
  },
  {
    "name": "聯合醫院中興院區(塔城)-N-塔城街",
    "lat": 25.0506315,
    "lng": 121.5105707,
    "address": "103臺北市大同區塔城街7號旁候車亭"
  },
  {
    "name": "臺北當代藝術館1F大廳天花板",
    "lat": 25.0508083,
    "lng": 121.5191296,
    "address": "103臺北市大同區長安西路39號1F"
  },
  {
    "name": "北市聯醫院本部1F兒童發展評估療育中心綜合治療室門口",
    "lat": 25.0508369,
    "lng": 121.5097295,
    "address": "103臺北市大同區鄭州路145號"
  },
  {
    "name": "北市聯醫本部2F兒童發展評估療育中心201會議室門口",
    "lat": 25.0508369,
    "lng": 121.5097295,
    "address": "103臺北市大同區鄭州路145號"
  },
  {
    "name": "北市聯醫本部3F301會議室門口",
    "lat": 25.0508369,
    "lng": 121.5097295,
    "address": "103臺北市大同區鄭州路145號"
  },
  {
    "name": "北市聯醫本部3F企劃行政中心大門內門口",
    "lat": 25.0508369,
    "lng": 121.5097295,
    "address": "103臺北市大同區鄭州路145號"
  },
  {
    "name": "北市聯醫本部4F健康關懷客服中心門口前",
    "lat": 25.0508369,
    "lng": 121.5097295,
    "address": "103臺北市大同區鄭州路145號"
  },
  {
    "name": "北市聯醫本部4F醫療事務室緊急出口右前方柱子旁",
    "lat": 25.0508369,
    "lng": 121.5097295,
    "address": "103臺北市大同區鄭州路145號"
  },
  {
    "name": "北市聯醫陽明院區5F522病房門口",
    "lat": 25.0508369,
    "lng": 121.5097295,
    "address": "111臺北市士林區雨聲街105號"
  },
  {
    "name": "北市聯醫院本部1F兒童發展評估療育中心護理站東側",
    "lat": 25.0510537,
    "lng": 121.5098599,
    "address": "103臺北市大同區鄭州路145號"
  },
  {
    "name": "北市聯醫中興院區10F1055病房門口",
    "lat": 25.0510952,
    "lng": 121.5093521,
    "address": "103臺北市大同區鄭州路145號"
  },
  {
    "name": "北市聯醫中興院區9F966病房門口",
    "lat": 25.0510953,
    "lng": 121.5094585,
    "address": "103臺北市大同區鄭州路145號"
  },
  {
    "name": "北市聯醫中興院區3F運動治療室門外走廊",
    "lat": 25.0510962,
    "lng": 121.5093842,
    "address": "103臺北市大同區鄭州路145號"
  },
  {
    "name": "北市聯醫中興院區2F居家護理庫房門口",
    "lat": 25.0510962,
    "lng": 121.5095051,
    "address": "103臺北市大同區鄭州路145號"
  },
  {
    "name": "北市聯醫中興院區B1F美食街",
    "lat": 25.0511271,
    "lng": 121.5094311,
    "address": "103臺北市大同區鄭州路145號"
  },
  {
    "name": "北市聯醫中興院區6F院長室門口",
    "lat": 25.0511752,
    "lng": 121.5092211,
    "address": "103臺北市大同區鄭州路145號"
  },
  {
    "name": "臺灣中小企業銀行營業部",
    "lat": 25.051177,
    "lng": 121.510259,
    "address": "103臺北市大同區塔城街30號"
  },
  {
    "name": "北市聯醫中興院區1F大廳藥局",
    "lat": 25.0511821,
    "lng": 121.5095383,
    "address": "103臺北市大同區鄭州路145號"
  },
  {
    "name": "北市聯醫中興院區8F867病房門口",
    "lat": 25.0511916,
    "lng": 121.5093312,
    "address": "103臺北市大同區鄭州路145號"
  },
  {
    "name": "財政部關務署",
    "lat": 25.0512136,
    "lng": 121.5106273,
    "address": "103臺北市大同區塔城街13號"
  },
  {
    "name": "第一商業銀行建成分行",
    "lat": 25.05122,
    "lng": 121.5168999,
    "address": "103臺北市大同區承德路一段40號"
  },
  {
    "name": "北市聯醫中興院區10F1066病房門口",
    "lat": 25.0512264,
    "lng": 121.5094808,
    "address": "103臺北市大同區鄭州路145號"
  },
  {
    "name": "北市聯醫中興院區9F955病房門口",
    "lat": 25.0512483,
    "lng": 121.5095228,
    "address": "103臺北市大同區鄭州路145號"
  },
  {
    "name": "北市聯醫中興院區8F853病房門口",
    "lat": 25.0512644,
    "lng": 121.5095082,
    "address": "103臺北市大同區鄭州路145號"
  },
  {
    "name": "北市聯醫中興院區6F骨科中心外走廊中央",
    "lat": 25.0512801,
    "lng": 121.5095405,
    "address": "103臺北市大同區鄭州路145號"
  },
  {
    "name": "北市聯醫中興院區B1F腫瘤治療科服務台西側",
    "lat": 25.0512876,
    "lng": 121.5092666,
    "address": "103臺北市大同區鄭州路145號"
  },
  {
    "name": "聯合醫院中興院區(西寧)-N-西寧北路",
    "lat": 25.0513073,
    "lng": 121.5084946,
    "address": "103臺北市大同區西寧北路32號對面候車亭"
  },
  {
    "name": "北市聯醫中興院區5F心導管室門口",
    "lat": 25.0513072,
    "lng": 121.5094251,
    "address": "103臺北市大同區鄭州路145號"
  },
  {
    "name": "北市聯醫中興院區10F民眾休息區中央",
    "lat": 25.0513114,
    "lng": 121.5091348,
    "address": "103臺北市大同區鄭州路145號"
  },
  {
    "name": "北市聯醫中興院區9F民眾休息區中央",
    "lat": 25.0513334,
    "lng": 121.5091473,
    "address": "103臺北市大同區鄭州路145號"
  },
  {
    "name": "北市聯醫中興院區7F外科醫師執班室門口",
    "lat": 25.0513371,
    "lng": 121.5094064,
    "address": "103臺北市大同區鄭州路145號"
  },
  {
    "name": "北市聯醫中興院區3F資訊室會議室門口",
    "lat": 25.0513529,
    "lng": 121.5094002,
    "address": "103臺北市大同區鄭州路145號"
  },
  {
    "name": "北市聯醫中興院區B1F病歷室",
    "lat": 25.0513604,
    "lng": 121.5094481,
    "address": "103臺北市大同區鄭州路145號"
  },
  {
    "name": "北市聯醫中興院區8F民眾休息區中央",
    "lat": 25.0513616,
    "lng": 121.5091273,
    "address": "103臺北市大同區鄭州路145號"
  },
  {
    "name": "北市聯醫中興院區2F精神科門口",
    "lat": 25.0513634,
    "lng": 121.5091402,
    "address": "103臺北市大同區鄭州路145號"
  },
  {
    "name": "北市聯醫中興院區10F醫師值班室門口",
    "lat": 25.0513722,
    "lng": 121.5094191,
    "address": "103臺北市大同區鄭州路145號中興院區10F醫師值班室門口"
  },
  {
    "name": "北市聯醫中興院區5F家屬等候區中央",
    "lat": 25.0513895,
    "lng": 121.5091244,
    "address": "103臺北市大同區鄭州路145號"
  },
  {
    "name": "聯合醫院中興院區(塔城)-S-塔城街",
    "lat": 25.0514236,
    "lng": 121.5104323,
    "address": "103臺北市大同區塔城街30號旁候車亭"
  },
  {
    "name": "北市聯醫中興院區6F第一會議室旁",
    "lat": 25.0514258,
    "lng": 121.5093849,
    "address": "103臺北市大同區鄭州路145號"
  },
  {
    "name": "北市聯醫中興院區9F神經外科主任室門口",
    "lat": 25.0514305,
    "lng": 121.5093886,
    "address": "103臺北市大同區鄭州路145號"
  },
  {
    "name": "北市聯醫中興院區B1F藥劑科走廊",
    "lat": 25.0514331,
    "lng": 121.5094684,
    "address": "103臺北市大同區鄭州路145號"
  },
  {
    "name": "北市聯醫中興院區1F健檢中心",
    "lat": 25.0514371,
    "lng": 121.5094711,
    "address": "103臺北市大同區鄭州路145號"
  },
  {
    "name": "北市聯醫中興院區8F工友值班室門口",
    "lat": 25.0514685,
    "lng": 121.5093687,
    "address": "103臺北市大同區鄭州路145號"
  },
  {
    "name": "北市聯醫中興院區2F老人健康檢查服務處門口",
    "lat": 25.0515214,
    "lng": 121.5096258,
    "address": "103臺北市大同區鄭州路145號"
  },
  {
    "name": "北市聯醫中興院區1F急診大門",
    "lat": 25.0515336,
    "lng": 121.5089797,
    "address": "103臺北市大同區鄭州路145號"
  },
  {
    "name": "北市聯醫中興院區5F麻醉科辦公室與恢復室中央",
    "lat": 25.0515451,
    "lng": 121.5094626,
    "address": "103臺北市大同區鄭州路145號"
  },
  {
    "name": "北市聯醫中興院區1F放設科櫃台",
    "lat": 25.0515581,
    "lng": 121.5095323,
    "address": "103臺北市大同區鄭州路145號"
  },
  {
    "name": "北市聯醫中興院區9F945病房門口",
    "lat": 25.0515618,
    "lng": 121.5095737,
    "address": "103臺北市大同區鄭州路145號"
  },
  {
    "name": "北市聯醫中興院區6F臨床技能中心門口",
    "lat": 25.0515619,
    "lng": 121.5096635,
    "address": "103臺北市大同區鄭州路145號"
  },
  {
    "name": "北市聯醫中興院區8F807病房門口",
    "lat": 25.0515785,
    "lng": 121.5089797,
    "address": "103臺北市大同區鄭州路145號中興院區8F807病房門口"
  },
  {
    "name": "北市聯醫中興院區5F內科加護病房配膳室門口",
    "lat": 25.0515843,
    "lng": 121.5090227,
    "address": "103臺北市大同區鄭州路145號"
  },
  {
    "name": "北市聯醫中興院區7F745病房門口",
    "lat": 25.0515853,
    "lng": 121.5096048,
    "address": "103臺北市大同區鄭州路145號"
  },
  {
    "name": "北市聯醫中興院區2F家庭醫學科門口",
    "lat": 25.0515871,
    "lng": 121.5093575,
    "address": "103臺北市大同區鄭州路145號"
  },
  {
    "name": "北市聯醫中興院區9F908病房門口",
    "lat": 25.0515934,
    "lng": 121.5087906,
    "address": "103臺北市大同區鄭州路145號"
  },
  {
    "name": "北市聯醫中興院區B1F解剖病理科",
    "lat": 25.0515931,
    "lng": 121.5090743,
    "address": "103臺北市大同區鄭州路145號"
  },
  {
    "name": "北市聯醫中興院區8F845病房門口",
    "lat": 25.0515944,
    "lng": 121.5095721,
    "address": "103臺北市大同區鄭州路145號"
  },
  {
    "name": "北市聯醫中興院區6F607病房門口",
    "lat": 25.0515951,
    "lng": 121.5087895,
    "address": "103臺北市大同區鄭州路145號"
  },
  {
    "name": "北市聯醫中興院區10F1008病房門口",
    "lat": 25.0516079,
    "lng": 121.5089055,
    "address": "103臺北市大同區鄭州路145號"
  },
  {
    "name": "北市聯醫中興院區7F766病房門口",
    "lat": 25.0516145,
    "lng": 121.5096424,
    "address": "103臺北市大同區鄭州路145號"
  },
  {
    "name": "北市聯醫中興院區7F756病房門口",
    "lat": 25.0516145,
    "lng": 121.5096424,
    "address": "103臺北市大同區鄭州路145號"
  },
  {
    "name": "北市聯醫中興院區7F707病房門口",
    "lat": 25.0516298,
    "lng": 121.5088533,
    "address": "103臺北市大同區鄭州路145號"
  },
  {
    "name": "北市聯醫中興院區2F小兒科門口",
    "lat": 25.0516382,
    "lng": 121.5090822,
    "address": "103臺北市大同區鄭州路145號"
  },
  {
    "name": "國民健康署1樓大廳",
    "lat": 25.0516439,
    "lng": 121.5103163,
    "address": "103臺北市大同區塔城街36號"
  },
  {
    "name": "北市聯醫中興院區3F檢驗科中央",
    "lat": 25.0516482,
    "lng": 121.5090481,
    "address": "103臺北市大同區鄭州路145號"
  },
  {
    "name": "北市聯醫中興院區10F1045病房門口",
    "lat": 25.0516569,
    "lng": 121.5095941,
    "address": "103臺北市大同區鄭州路145號中興院區10F1045病房門口"
  },
  {
    "name": "北市聯醫中興院區3F精神內科檢查室",
    "lat": 25.0516732,
    "lng": 121.5093211,
    "address": "103臺北市大同區鄭州路145號"
  },
  {
    "name": "北市聯醫中興院區2F中醫科門口",
    "lat": 25.0516793,
    "lng": 121.5088942,
    "address": "103臺北市大同區鄭州路145號"
  },
  {
    "name": "北市聯醫中興院區8F816病房門口",
    "lat": 25.0517241,
    "lng": 121.5090147,
    "address": "103臺北市大同區鄭州路145號中興院區8F816病房門口"
  },
  {
    "name": "北市聯醫中興院區10F1019病房門口",
    "lat": 25.0517293,
    "lng": 121.5089918,
    "address": "103臺北市大同區鄭州路145號"
  },
  {
    "name": "北市聯醫中興院區9F919病房門口",
    "lat": 25.0517294,
    "lng": 121.5090801,
    "address": "103臺北市大同區鄭州路145號"
  },
  {
    "name": "北市聯醫中興院區6F618病房門口",
    "lat": 25.0517311,
    "lng": 121.5088587,
    "address": "103臺北市大同區鄭州路145號"
  },
  {
    "name": "北市聯醫中興院區7F719病房門口",
    "lat": 25.0517312,
    "lng": 121.5089442,
    "address": "103臺北市大同區鄭州路145號"
  },
  {
    "name": "北市聯醫中興院區9F932病房門口",
    "lat": 25.0517464,
    "lng": 121.5094471,
    "address": "103臺北市大同區鄭州路145號"
  },
  {
    "name": "北市聯醫中興院區1FX光室後方",
    "lat": 25.0517675,
    "lng": 121.5093661,
    "address": "103臺北市大同區鄭州路145號"
  },
  {
    "name": "北市聯醫中興院區10F1032病房門口",
    "lat": 25.0517799,
    "lng": 121.5096216,
    "address": "103臺北市大同區鄭州路145號中興院區10F1032病房門口"
  },
  {
    "name": "衛生福利部國民健康署2樓",
    "lat": 25.05179,
    "lng": 121.51034,
    "address": "103臺北市大同區塔城街36號2樓"
  },
  {
    "name": "衛生福利部國民健康署3樓B",
    "lat": 25.05179,
    "lng": 121.51034,
    "address": "103臺北市大同區塔城街36號3樓"
  },
  {
    "name": "衛生福利部國民健康署4樓B",
    "lat": 25.05179,
    "lng": 121.51034,
    "address": "103臺北市大同區塔城街36號4樓"
  },
  {
    "name": "衛生福利部國民健康署5樓B",
    "lat": 25.05179,
    "lng": 121.51034,
    "address": "103臺北市大同區塔城街36號5樓"
  },
  {
    "name": "北市聯醫中興院區8F833病房門口",
    "lat": 25.0517985,
    "lng": 121.5094593,
    "address": "103臺北市大同區鄭州路145號"
  },
  {
    "name": "北市聯醫中興院區6F635病房門口",
    "lat": 25.0518041,
    "lng": 121.5095025,
    "address": "103臺北市大同區鄭州路145號"
  },
  {
    "name": "北市聯醫中興院區3F內視鏡室門口",
    "lat": 25.0518479,
    "lng": 121.5091603,
    "address": "103臺北市大同區鄭州路145號"
  },
  {
    "name": "北市聯醫中興院區6F626病房門口",
    "lat": 25.0518818,
    "lng": 121.5092181,
    "address": "103臺北市大同區鄭州路145號"
  },
  {
    "name": "台北市大同區圓環社區發展協會",
    "lat": 25.052941,
    "lng": 121.515462,
    "address": "103臺北市大同區建功里重慶北路一段83巷37號"
  },
  {
    "name": "臺北市大同區真善美社區發展協會",
    "lat": 25.053,
    "lng": 121.513,
    "address": "103臺北市大同區朝陽里天水路51巷4-1號二樓"
  },
  {
    "name": "兆豐國際商銀大稻程分行",
    "lat": 25.053081,
    "lng": 121.508504,
    "address": "103臺北市大同區西寧北路62-5號"
  },
  {
    "name": "臺灣銀行延平分行",
    "lat": 25.0530953,
    "lng": 121.5098164,
    "address": "103臺北市大同區南京西路406號"
  },
  {
    "name": "華南商業銀行建成分行",
    "lat": 25.0533898,
    "lng": 121.5163464,
    "address": "103臺北市大同區南京西路228號"
  },
  {
    "name": "兆豐國際商銀大同分行",
    "lat": 25.0540072,
    "lng": 121.5156126,
    "address": "103臺北市大同區南京西路113號"
  },
  {
    "name": "大同光能區民活動中心2F天花板中央",
    "lat": 25.0545189,
    "lng": 121.5182085,
    "address": "103臺北市大同區承德路二段33號2F"
  },
  {
    "name": "永樂市場3F 3073攤",
    "lat": 25.0545266,
    "lng": 121.5107313,
    "address": "103臺北市大同區迪化街一段21號3F"
  },
  {
    "name": "永樂市場4F 73攤",
    "lat": 25.0545269,
    "lng": 121.5109104,
    "address": "103臺北市大同區迪化街一段21號4F"
  },
  {
    "name": "永樂市場4F 22攤",
    "lat": 25.0545272,
    "lng": 121.5103861,
    "address": "103臺北市大同區迪化街一段21號4F"
  },
  {
    "name": "財團法人臺北市松年長春社會福利基金會(大同)",
    "lat": 25.054546,
    "lng": 121.518378,
    "address": "103臺北市大同區光能里承德路二段33號一樓"
  },
  {
    "name": "永樂市場2F 2084攤",
    "lat": 25.054599,
    "lng": 121.510848,
    "address": "103臺北市大同區迪化街一段21號2F"
  },
  {
    "name": "台北圓環郵局",
    "lat": 25.0546485,
    "lng": 121.5144792,
    "address": "103臺北市大同區重慶北路二段15號"
  },
  {
    "name": "臺北市藝文推廣處社會教育館大稻埕戲苑8F服務臺後方",
    "lat": 25.0546678,
    "lng": 121.5108517,
    "address": "103臺北市大同區迪化街一段21號8F"
  },
  {
    "name": "市場處6F入口",
    "lat": 25.0547662,
    "lng": 121.5105992,
    "address": "103臺北市大同區迪化街一段21號6F"
  },
  {
    "name": "永樂市場1F1025攤位前",
    "lat": 25.05478,
    "lng": 121.5107742,
    "address": "103臺北市大同區迪化街一段21號1F"
  },
  {
    "name": "台北迪化街郵局",
    "lat": 25.054789,
    "lng": 121.509986,
    "address": "103臺北市大同區迪化街一段38號"
  },
  {
    "name": "永樂市場1F1018攤位前",
    "lat": 25.0548317,
    "lng": 121.5103561,
    "address": "103臺北市大同區迪化街一段21號1F"
  },
  {
    "name": "永樂市場1F1008攤位前",
    "lat": 25.0549211,
    "lng": 121.5102053,
    "address": "103臺北市大同區迪化街一段21號1F"
  },
  {
    "name": "市場處5F人事室門前",
    "lat": 25.0549321,
    "lng": 121.5105623,
    "address": "103臺北市大同區迪化街一段21號5F"
  },
  {
    "name": "大稻埕遊客中心",
    "lat": 25.0549405,
    "lng": 121.509988,
    "address": "103臺北市大同區迪化街一段44號1F"
  },
  {
    "name": "市場處6F處長室前",
    "lat": 25.0549452,
    "lng": 121.5106521,
    "address": "103臺北市大同區迪化街一段21號6F"
  },
  {
    "name": "臺北市藝文推廣處大稻埕戲苑7F教室區",
    "lat": 25.0551176,
    "lng": 121.5104175,
    "address": "103臺北市大同區迪化街一段21號7F"
  },
  {
    "name": "大同士林婦女支持培力中心7F大禮堂內門口前方",
    "lat": 25.0551307,
    "lng": 121.5102562,
    "address": "103臺北市大同區迪化街一段21號7F"
  },
  {
    "name": "市場處6F第一會議室前",
    "lat": 25.0551358,
    "lng": 121.5108591,
    "address": "103臺北市大同區迪化街一段21號6F"
  },
  {
    "name": "永樂市場2F 2028攤",
    "lat": 25.0552136,
    "lng": 121.5103052,
    "address": "103臺北市大同區迪化街一段21號2F"
  },
  {
    "name": "永樂市場3F 3021攤",
    "lat": 25.0552467,
    "lng": 121.5103891,
    "address": "103臺北市大同區迪化街一段21號3F"
  },
  {
    "name": "臺北市藝文推廣處大稻埕戲苑8F門口",
    "lat": 25.0552862,
    "lng": 121.5108527,
    "address": "103臺北市大同區迪化街一段21號8F"
  },
  {
    "name": "臺北市大同區星明社區發展協會",
    "lat": 25.055317,
    "lng": 121.517597,
    "address": "103臺北市大同區星明里太原路161巷4號"
  },
  {
    "name": "臺北市藝文推廣處大稻埕戲苑9F櫃台",
    "lat": 25.0553187,
    "lng": 121.5105201,
    "address": "103臺北市大同區迪化街一段21號9F"
  },
  {
    "name": "市場處5F秘書室外",
    "lat": 25.0553491,
    "lng": 121.5105221,
    "address": "103臺北市大同區迪化街一段21號5F"
  },
  {
    "name": "永樂市場1F1401攤位前",
    "lat": 25.0553898,
    "lng": 121.5104946,
    "address": "103臺北市大同區迪化街一段21號1F"
  },
  {
    "name": "社團法人台北市歐伊寇斯OIKOS社區關懷協會",
    "lat": 25.055402,
    "lng": 121.511458,
    "address": "103臺北市大同區永樂里延平北路二段60巷2號"
  },
  {
    "name": "臺北市藝文推廣處大稻埕戲苑9F後台",
    "lat": 25.0554286,
    "lng": 121.5108188,
    "address": "103臺北市大同區迪化街一段21號9F"
  },
  {
    "name": "第一商業銀行大稻埕分行",
    "lat": 25.0557807,
    "lng": 121.5101501,
    "address": "103臺北市大同區迪化街一段63號"
  },
  {
    "name": "朝陽茶葉公園-停車場行人出口處",
    "lat": 25.0558253,
    "lng": 121.512801,
    "address": "103臺北市大同區重慶北路二段68號"
  },
  {
    "name": "上海商銀承德分行",
    "lat": 25.0559757,
    "lng": 121.5184171,
    "address": "103臺北市大同區承德路二段77號"
  },
  {
    "name": "勞動部職業訓練局一樓櫃台",
    "lat": 25.0562241,
    "lng": 121.5120433,
    "address": "103臺北市大同區延平北路二段83號"
  },
  {
    "name": "華南商業銀行大稻埕分行",
    "lat": 25.056663,
    "lng": 121.511465,
    "address": "103臺北市大同區延平北路二段96號"
  },
  {
    "name": "大稻埕-大稻埕碼頭貨櫃市集(碼頭售票亭)",
    "lat": 25.0566955,
    "lng": 121.5075837,
    "address": "103臺北市大同區民生西路底號五號水門"
  },
  {
    "name": "雙連市場B1F 019攤位旁",
    "lat": 25.0568525,
    "lng": 121.5168615,
    "address": "103臺北市大同區民生西路198號B1F"
  },
  {
    "name": "圖書館建成分館4F多功能活動室旁天方板",
    "lat": 25.0568992,
    "lng": 121.5165151,
    "address": "103臺北市大同區民生西路198號"
  },
  {
    "name": "雙連市場1F 065攤位旁",
    "lat": 25.0569063,
    "lng": 121.5165266,
    "address": "103臺北市大同區民生西路198號1F"
  },
  {
    "name": "圖書館建成分館4F資訊檢索區",
    "lat": 25.0569264,
    "lng": 121.5162738,
    "address": "103臺北市大同區民生西路198號"
  },
  {
    "name": "圖書館建成分館4F筆電區",
    "lat": 25.0569552,
    "lng": 121.5166862,
    "address": "103臺北市大同區民生西路198號"
  },
  {
    "name": "雙連市場1F 029攤位旁",
    "lat": 25.0569563,
    "lng": 121.5165743,
    "address": "103臺北市大同區民生西路198號1F"
  },
  {
    "name": "雙連市場1F 020攤位旁",
    "lat": 25.0569981,
    "lng": 121.5166247,
    "address": "103臺北市大同區民生西路198號1F"
  },
  {
    "name": "新芳春茶行1F焙籠間前",
    "lat": 25.0572203,
    "lng": 121.5126219,
    "address": "103臺北市大同區民生西路309號1F"
  },
  {
    "name": "新芳春茶行1F資訊服務台前",
    "lat": 25.0573318,
    "lng": 121.5125197,
    "address": "103臺北市大同區民生西路309號1F"
  },
  {
    "name": "新芳春茶行2F電梯前",
    "lat": 25.0573943,
    "lng": 121.5126008,
    "address": "103臺北市大同區民生西路309號2F"
  },
  {
    "name": "歸綏戲曲公園-舞台旁",
    "lat": 25.0579322,
    "lng": 121.5135456,
    "address": "103臺北市大同區歸綏街164-9號"
  },
  {
    "name": "臺灣新文化運動紀念館2F走廊女廁前",
    "lat": 25.0591128,
    "lng": 121.5150551,
    "address": "103臺北市大同區寧夏路87號2F"
  },
  {
    "name": "圖書館延平分館1F綜合服務台",
    "lat": 25.0591202,
    "lng": 121.5120965,
    "address": "103臺北市大同區保安街47號1F"
  },
  {
    "name": "臺灣新文化運動紀念館1F拘留室監牢",
    "lat": 25.0591283,
    "lng": 121.5151073,
    "address": "103臺北市大同區寧夏路87號1F"
  },
  {
    "name": "臺灣新文化運動紀念館1F走廊男廁前",
    "lat": 25.0591517,
    "lng": 121.5150819,
    "address": "103臺北市大同區寧夏路87號1F"
  },
  {
    "name": "圖書館延平分館5F期刊報紙區中央",
    "lat": 25.0592088,
    "lng": 121.5121237,
    "address": "103臺北市大同區保安街47號5F"
  },
  {
    "name": "圖書館延平分館4F自修室中央",
    "lat": 25.0592109,
    "lng": 121.5121053,
    "address": "103臺北市大同區保安街47號4F"
  },
  {
    "name": "圖書館延平分館7F書庫電梯口",
    "lat": 25.0592312,
    "lng": 121.5121092,
    "address": "103臺北市大同區保安街47號7F"
  },
  {
    "name": "圖書館延平分館8F電梯門口",
    "lat": 25.0592595,
    "lng": 121.5121171,
    "address": "103臺北市大同區保安街47號8F"
  },
  {
    "name": "圖書館延平分館6F兒童室",
    "lat": 25.0592692,
    "lng": 121.5121049,
    "address": "103臺北市大同區保安街47號6F"
  },
  {
    "name": "圖書館延平分館9F參考資料區",
    "lat": 25.0592777,
    "lng": 121.5121264,
    "address": "103臺北市大同區保安街47號9F"
  },
  {
    "name": "圖書館延平分館10F視聽室",
    "lat": 25.0593035,
    "lng": 121.5121485,
    "address": "103臺北市大同區保安街47號10F"
  },
  {
    "name": "大同延平區民活動中心3F門口",
    "lat": 25.0593342,
    "lng": 121.5120654,
    "address": "103臺北市大同區保安街47之1號3F"
  },
  {
    "name": "台北市大同區大有里辦公處",
    "lat": 25.059514,
    "lng": 121.510566,
    "address": "103臺北市大同區大有里民樂街179號一樓"
  },
  {
    "name": "台北保安郵局",
    "lat": 25.0599141,
    "lng": 121.5137663,
    "address": "103臺北市大同區重慶北路二段183號"
  }
]
