[
  {
    "dataType": "wifi",
    "category": "公車站",
    "name": "象頭埔-W-木柵路五段",
    "lat": 25.000714,
    "lng": 121.589508,
    "address": "116臺北市文山區木柵路五段58號候車亭"
  },
  {
    "dataType": "wifi",
    "category": "公車站",
    "name": "象頭埔-E-木柵路五段",
    "lat": 25.000845,
    "lng": 121.589484,
    "address": "116臺北市文山區木柵路五段58號對面候車亭"
  },
  {
    "dataType": "wifi",
    "category": "洽公場所",
    "name": "高速公路局北區工程處木柵工務段",
    "lat": 25.001145,
    "lng": 121.596603,
    "address": "116臺北市文山區新光路二段100號"
  },
  {
    "dataType": "wifi",
    "category": "洽公場所",
    "name": "深坑草地尾郵局",
    "lat": 25.004413,
    "lng": 121.59936,
    "address": "222新北市深坑區北深路三段264號-1"
  },
  {
    "dataType": "wifi",
    "category": "公眾服務",
    "name": "臺北市殯葬管理處富德靈骨塔1F入門口左側服務中心",
    "lat": 25.011544,
    "lng": 121.591403,
    "address": "116臺北市文山區木柵路五段190號1F"
  }
]
