[
  {
    "dataType": "wifi",
    "category": "洽公場所",
    "name": "土城工業區服務中心",
    "lat": 24.963135,
    "lng": 121.420759,
    "address": "236新北市土城區沛坡村三民路4號1樓"
  },
  {
    "dataType": "wifi",
    "category": "其他",
    "name": "新北市土城區永寧社區發展協會",
    "lat": 24.963458,
    "lng": 121.427539,
    "address": "236新北市土城區永寧里永平街1號"
  },
  {
    "dataType": "wifi",
    "category": "洽公場所",
    "name": "第一商業銀行(土城分行)",
    "lat": 24.964809,
    "lng": 121.429724,
    "address": "236新北市土城區中央路三段208號"
  },
  {
    "dataType": "wifi",
    "category": "洽公場所",
    "name": "土城工業區服務中心-汙水處理廠",
    "lat": 24.966881,
    "lng": 121.428972,
    "address": "236新北市土城區沛坡里中山路54號1樓"
  },
  {
    "dataType": "wifi",
    "category": "其他",
    "name": "社團法人中華慈雲慈善利生推廣協會（樹林區）",
    "lat": 24.979142,
    "lng": 121.421316,
    "address": "238新北市樹林區彭福里太平路127巷14號一樓"
  }
]
