[
  {
    "dataType": "wifi",
    "category": "公車站",
    "name": "萬芳國小-S-萬和街",
    "lat": 25.001516,
    "lng": 121.567312,
    "address": "116臺北市文山區萬和街1號候車亭"
  },
  {
    "dataType": "wifi",
    "category": "公車站",
    "name": "萬芳國小-N-萬和街",
    "lat": 25.001548,
    "lng": 121.567439,
    "address": "116臺北市文山區萬和街1號對面候車亭"
  },
  {
    "dataType": "wifi",
    "category": "公車站",
    "name": "萬芳派出所-E-萬美街一段",
    "lat": 25.001729,
    "lng": 121.566207,
    "address": "116臺北市文山區萬美街一段89號旁候車亭"
  },
  {
    "dataType": "wifi",
    "category": "公車站",
    "name": "萬芳派出所-W-萬美街一段",
    "lat": 25.001771,
    "lng": 121.566122,
    "address": "116臺北市文山區萬美街一段89號對面候車亭"
  },
  {
    "dataType": "wifi",
    "category": "公車站",
    "name": "公務人員訓練處-S-萬美街一段",
    "lat": 25.001787,
    "lng": 121.56224,
    "address": "116臺北市文山區萬美街一段121號旁候車亭"
  },
  {
    "dataType": "wifi",
    "category": "公車站",
    "name": "公務人員訓練處-W-萬美街一段",
    "lat": 25.001869,
    "lng": 121.562055,
    "address": "116臺北市文山區萬美街一段121-1號對面候車亭"
  },
  {
    "dataType": "wifi",
    "category": "其他",
    "name": "社團法人台北市基督教萬芳浸信會",
    "lat": 25.001994,
    "lng": 121.569402,
    "address": "116臺北市文山區萬芳里萬美街一段19巷5號一樓"
  },
  {
    "dataType": "wifi",
    "category": "圖書館",
    "name": "圖書館萬芳民眾閱覽室2F樓梯左側",
    "lat": 25.002111,
    "lng": 121.569299,
    "address": "116臺北市文山區萬美街一段25號2F"
  },
  {
    "dataType": "wifi",
    "category": "社區中心",
    "name": "文山萬芳區民活動中心3F中央",
    "lat": 25.00212,
    "lng": 121.569313,
    "address": "116臺北市文山區萬美街一段51號3F"
  },
  {
    "dataType": "wifi",
    "category": "圖書館",
    "name": "圖書館萬芳民眾閱覽室1F服務臺前",
    "lat": 25.002123,
    "lng": 121.569304,
    "address": "116臺北市文山區萬美街一段25號1F"
  },
  {
    "dataType": "wifi",
    "category": "社區中心",
    "name": "文山萬芳區民活動中心3F里長辦公室門外",
    "lat": 25.00216,
    "lng": 121.568179,
    "address": "116臺北市文山區萬美街一段51號3F"
  },
  {
    "dataType": "wifi",
    "category": "洽公場所",
    "name": "文山萬美街郵局",
    "lat": 25.002207,
    "lng": 121.568482,
    "address": "116臺北市文山區萬美街一段51號2樓"
  },
  {
    "dataType": "wifi",
    "category": "公車站",
    "name": "萬芳活動中心-萬美街一段",
    "lat": 25.002381,
    "lng": 121.569449,
    "address": "116臺北市文山區萬美街一段23號對面候車亭"
  },
  {
    "dataType": "wifi",
    "category": "公車站",
    "name": "萬寧街口-E-萬寧街",
    "lat": 25.003084,
    "lng": 121.570805,
    "address": "116臺北市文山區萬寧街141號對面候車亭"
  },
  {
    "dataType": "wifi",
    "category": "其他",
    "name": "臺北市文山區萬美里辦公處",
    "lat": 25.003106,
    "lng": 121.562225,
    "address": "116臺北市文山區萬美里萬美街2段2巷6號及萬美街1段51號3樓"
  },
  {
    "dataType": "wifi",
    "category": "行政機關",
    "name": "公務人員訓練處警衛室",
    "lat": 25.003319,
    "lng": 121.560869,
    "address": "116臺北市文山區萬美街二段21巷20號"
  },
  {
    "dataType": "wifi",
    "category": "公車站",
    "name": "萬芳國宅-W-萬寧街",
    "lat": 25.00332,
    "lng": 121.56511,
    "address": "116臺北市文山區萬寧街27號前方候車亭"
  },
  {
    "dataType": "wifi",
    "category": "公車站",
    "name": "萬芳國宅-萬寧街",
    "lat": 25.003392,
    "lng": 121.565643,
    "address": "116臺北市文山區萬寧街與萬寧街36巷口旁候車亭"
  },
  {
    "dataType": "wifi",
    "category": "公車站",
    "name": "萬美社區-W-萬美街二段",
    "lat": 25.003393,
    "lng": 121.563195,
    "address": "116臺北市文山區萬美街二段11號對面候車亭"
  },
  {
    "dataType": "wifi",
    "category": "公車站",
    "name": "萬美社區-E-萬美街二段",
    "lat": 25.003453,
    "lng": 121.563052,
    "address": "116臺北市文山區萬美街二段11號候車亭"
  },
  {
    "dataType": "wifi",
    "category": "行政機關",
    "name": "公務人員訓練處E棟2F202普通教室外走廊",
    "lat": 25.004005,
    "lng": 121.561851,
    "address": "116臺北市文山區萬美街二段21巷20號E棟2F"
  },
  {
    "dataType": "wifi",
    "category": "行政機關",
    "name": "公務人員訓練處E棟3F308電腦教室外走廊",
    "lat": 25.004006,
    "lng": 121.561809,
    "address": "116臺北市文山區萬美街二段21巷20號E棟3F"
  },
  {
    "dataType": "wifi",
    "category": "行政機關",
    "name": "公務人員訓練處B棟2F203普通教室外",
    "lat": 25.004041,
    "lng": 121.561016,
    "address": "116臺北市文山區萬美街二段21巷20號B棟2F"
  },
  {
    "dataType": "wifi",
    "category": "行政機關",
    "name": "公務人員訓練處E棟1F公共電腦區門外",
    "lat": 25.004086,
    "lng": 121.561663,
    "address": "116臺北市文山區萬美街二段21巷20號E棟1F"
  },
  {
    "dataType": "wifi",
    "category": "行政機關",
    "name": "公務人員訓練處E棟1F教務組門外",
    "lat": 25.004086,
    "lng": 121.561663,
    "address": "116臺北市文山區萬美街二段21巷20號E棟1F"
  },
  {
    "dataType": "wifi",
    "category": "行政機關",
    "name": "公務人員訓練處E棟5F圖書館逃生門口",
    "lat": 25.004086,
    "lng": 121.561663,
    "address": "116臺北市文山區萬美街二段21巷20號E棟5F"
  },
  {
    "dataType": "wifi",
    "category": "行政機關",
    "name": "公務人員訓練處E棟5F504教室外",
    "lat": 25.004086,
    "lng": 121.561663,
    "address": "116臺北市文山區萬美街二段21巷20號E棟5F"
  },
  {
    "dataType": "wifi",
    "category": "行政機關",
    "name": "公務人員訓練處B棟3F302階梯教室外樓梯處",
    "lat": 25.004091,
    "lng": 121.560949,
    "address": "116臺北市文山區萬美街二段21巷20號B棟3F"
  },
  {
    "dataType": "wifi",
    "category": "行政機關",
    "name": "公務人員訓練處C棟2F處長室外",
    "lat": 25.004091,
    "lng": 121.560949,
    "address": "116臺北市文山區萬美街二段21巷20號C棟2F"
  },
  {
    "dataType": "wifi",
    "category": "公車站",
    "name": "萬寧山莊-E1-萬寧街",
    "lat": 25.004184,
    "lng": 121.570401,
    "address": "116臺北市文山區萬寧街161號前方候車亭"
  },
  {
    "dataType": "wifi",
    "category": "行政機關",
    "name": "公務人員訓練處E棟1F國際會議廳門左側",
    "lat": 25.004212,
    "lng": 121.561723,
    "address": "116臺北市文山區萬美街二段21巷20號E棟1F"
  },
  {
    "dataType": "wifi",
    "category": "行政機關",
    "name": "公務人員訓練處E棟4F401教室外走廊",
    "lat": 25.00423,
    "lng": 121.56155,
    "address": "116臺北市文山區萬美街二段21巷20號E棟4F"
  },
  {
    "dataType": "wifi",
    "category": "行政機關",
    "name": "公務人員訓練處E棟3F301電腦教室外",
    "lat": 25.004237,
    "lng": 121.561554,
    "address": "116臺北市文山區萬美街二段21巷20號E棟3F"
  },
  {
    "dataType": "wifi",
    "category": "行政機關",
    "name": "公務人員訓練處B棟1F102教室外走廊",
    "lat": 25.004244,
    "lng": 121.561108,
    "address": "116臺北市文山區萬美街二段21巷20號B棟1F"
  },
  {
    "dataType": "wifi",
    "category": "行政機關",
    "name": "公務人員訓練處E棟2F203普通教門外",
    "lat": 25.004248,
    "lng": 121.561588,
    "address": "116臺北市文山區萬美街二段21巷20號E棟2F"
  },
  {
    "dataType": "wifi",
    "category": "行政機關",
    "name": "公務人員訓練處C棟1F大禮堂右側",
    "lat": 25.004277,
    "lng": 121.56116,
    "address": "116臺北市文山區萬美街二段21巷20號C棟1F"
  },
  {
    "dataType": "wifi",
    "category": "行政機關",
    "name": "公務人員訓練處C棟1F大禮堂外面走道",
    "lat": 25.004455,
    "lng": 121.56139,
    "address": "116臺北市文山區萬美街二段21巷20號C棟1F"
  },
  {
    "dataType": "wifi",
    "category": "公車站",
    "name": "名門社區-E-和平東路四段",
    "lat": 25.004629,
    "lng": 121.56797,
    "address": "116臺北市文山區萬寧街223號東南側候車亭(140高地公園旁)"
  },
  {
    "dataType": "wifi",
    "category": "行政機關",
    "name": "公務人員訓練處C棟1F大禮堂左側",
    "lat": 25.004695,
    "lng": 121.561406,
    "address": "116臺北市文山區萬美街二段21巷20號C棟1F"
  },
  {
    "dataType": "wifi",
    "category": "公車站",
    "name": "名門社區-W-和平東路四段",
    "lat": 25.004788,
    "lng": 121.567887,
    "address": "116臺北市文山區和平東路四段97號前候車亭(萬寧街本線北側上)"
  },
  {
    "dataType": "wifi",
    "category": "公車站",
    "name": "名門社區-S-和平東路四段",
    "lat": 25.005203,
    "lng": 121.567504,
    "address": "116臺北市文山區和平東路四段81號對面候車亭"
  },
  {
    "dataType": "wifi",
    "category": "公車站",
    "name": "萬美社區-E-萬美街二段",
    "lat": 25.005423,
    "lng": 121.564106,
    "address": "116臺北市文山區萬美街二段2巷與萬美街口候車亭"
  },
  {
    "dataType": "wifi",
    "category": "公車站",
    "name": "世界山莊-W-萬美街二段",
    "lat": 25.00553,
    "lng": 121.56421,
    "address": "116臺北市文山區萬美街二段51號對面候車亭"
  },
  {
    "dataType": "wifi",
    "category": "公車站",
    "name": "大我新舍-N-臥龍街",
    "lat": 25.014307,
    "lng": 121.562307,
    "address": "106臺北市大安區和平東路三段590號對面候車亭"
  },
  {
    "dataType": "wifi",
    "category": "其他",
    "name": "臺北醫學大學高齡健康管理學系(大我新舍)",
    "lat": 25.014715,
    "lng": 121.56224,
    "address": "110臺北市信義區黎安里和平東路三段599號"
  },
  {
    "dataType": "wifi",
    "category": "公車站",
    "name": "麟光站-N-臥龍街",
    "lat": 25.015886,
    "lng": 121.560798,
    "address": "106臺北市大安區臥龍街324號對面候車亭"
  },
  {
    "dataType": "wifi",
    "category": "公車站",
    "name": "網球場-N-瑞雲街",
    "lat": 25.016462,
    "lng": 121.576503,
    "address": "110臺北市信義區瑞雲街11號旁候車亭"
  },
  {
    "dataType": "wifi",
    "category": "其他",
    "name": "臺北市信義區挹翠社區發展協會",
    "lat": 25.018515,
    "lng": 121.575472,
    "address": "110臺北市信義區六合里紫雲街23號一樓"
  },
  {
    "dataType": "wifi",
    "category": "公車站",
    "name": "水塔-W-祥雲街",
    "lat": 25.018574,
    "lng": 121.574977,
    "address": "110臺北市信義區祥雲街37號旁候車亭"
  },
  {
    "dataType": "wifi",
    "category": "公車站",
    "name": "泰和公園-S-吳興街",
    "lat": 25.019026,
    "lng": 121.570803,
    "address": "110臺北市信義區吳興街600巷67弄78號對面候車亭"
  },
  {
    "dataType": "wifi",
    "category": "公車站",
    "name": "挹翠山莊-N-吳興街",
    "lat": 25.019562,
    "lng": 121.573372,
    "address": "110臺北市信義區祥雲路與吳興街600巷口西北側候車亭"
  }
]
