[
  {
    "dataType": "wifi",
    "category": "公車站",
    "name": "捷運西門站-N2-中華路一段",
    "lat": 25.040067,
    "lng": 121.507942,
    "address": "100臺北市中正區中華路一段69號旁候車亭"
  },
  {
    "dataType": "wifi",
    "category": "公園",
    "name": "228和平公園-1號公廁-兒童遊戲場",
    "lat": 25.040067,
    "lng": 121.514727,
    "address": "100臺北市中正區凱達格蘭3號(1號公廁外牆)"
  },
  {
    "dataType": "wifi",
    "category": "公園",
    "name": "228和平公園-1號公廁-兒童遊戲場(銅馬)",
    "lat": 25.040106,
    "lng": 121.514528,
    "address": "100臺北市中正區凱達格蘭3號(1號公廁外牆)"
  },
  {
    "dataType": "wifi",
    "category": "藝文場館",
    "name": "文獻館本堂1F展覽空間中央",
    "lat": 25.040172,
    "lng": 121.506738,
    "address": "108臺北市萬華區中華路一段174-1號1F"
  },
  {
    "dataType": "wifi",
    "category": "藝文場館",
    "name": "文獻館本堂1F文獻資料室門口",
    "lat": 25.040187,
    "lng": 121.506522,
    "address": "108臺北市萬華區中華路一段174-1號1F"
  },
  {
    "dataType": "wifi",
    "category": "洽公場所",
    "name": "司法院(最高法院)-1",
    "lat": 25.040211,
    "lng": 121.509939,
    "address": "100臺北市中正區長沙街一段6號1樓#為民服務中心"
  },
  {
    "dataType": "wifi",
    "category": "洽公場所",
    "name": "司法院(最高法院)-2",
    "lat": 25.040211,
    "lng": 121.509939,
    "address": "100臺北市中正區長沙街一段6號2樓"
  },
  {
    "dataType": "wifi",
    "category": "旅遊景點",
    "name": "總統府開放參觀展區",
    "lat": 25.04031,
    "lng": 121.512,
    "address": "100臺北市中正區重慶南路一段122號"
  },
  {
    "dataType": "wifi",
    "category": "公立醫院",
    "name": "國立臺灣大學附設醫院東址院區1樓大廳",
    "lat": 25.040323,
    "lng": 121.519138,
    "address": "100臺北市中正區中山南路7號"
  },
  {
    "dataType": "wifi",
    "category": "洽公場所",
    "name": "臺灣臺北地方法院二樓國民法官休息室",
    "lat": 25.0404,
    "lng": 121.51,
    "address": "100臺北市中正區長沙街一段27號"
  },
  {
    "dataType": "wifi",
    "category": "洽公場所",
    "name": "臺灣臺北地方法院寶慶院區孺慕堂一樓",
    "lat": 25.040419,
    "lng": 121.50968,
    "address": "100臺北市中正區長沙街一段27號"
  },
  {
    "dataType": "wifi",
    "category": "行政機關",
    "name": "公園路燈工程管理處處本部2F人事主任室外走道低樑",
    "lat": 25.040436,
    "lng": 121.514174,
    "address": "100臺北市中正區懷寧街109號2F"
  },
  {
    "dataType": "wifi",
    "category": "行政機關",
    "name": "公園路燈工程管理處處本部1F開標室外",
    "lat": 25.040436,
    "lng": 121.514174,
    "address": "100臺北市中正區懷寧街109號1F"
  },
  {
    "dataType": "wifi",
    "category": "行政機關",
    "name": "公園路燈工程管理處處本部1F配合科及文書股外中間走道",
    "lat": 25.040501,
    "lng": 121.514215,
    "address": "100臺北市中正區懷寧街109號1F"
  },
  {
    "dataType": "wifi",
    "category": "行政機關",
    "name": "公園路燈工程管理處處本部1F品管及職安科",
    "lat": 25.040585,
    "lng": 121.513943,
    "address": "100臺北市中正區懷寧街109號1F"
  },
  {
    "dataType": "wifi",
    "category": "行政機關",
    "name": "公園路燈工程管理處處本部1F第三會議室內",
    "lat": 25.040594,
    "lng": 121.514306,
    "address": "100臺北市中正區懷寧街109號1F"
  },
  {
    "dataType": "wifi",
    "category": "行政機關",
    "name": "公園路燈工程管理處處本部1F路燈科",
    "lat": 25.040611,
    "lng": 121.513937,
    "address": "100臺北市中正區懷寧街109號2F"
  },
  {
    "dataType": "wifi",
    "category": "行政機關",
    "name": "公園路燈工程管理處處本部2F園藝科左",
    "lat": 25.040622,
    "lng": 121.51389,
    "address": "100臺北市中正區懷寧街109號2F"
  },
  {
    "dataType": "wifi",
    "category": "行政機關",
    "name": "公園路燈工程管理處處本部2F資訊室",
    "lat": 25.040671,
    "lng": 121.51392,
    "address": "100臺北市中正區懷寧街109號2F"
  },
  {
    "dataType": "wifi",
    "category": "洽公場所",
    "name": "法務部廉政署",
    "lat": 25.040678,
    "lng": 121.511038,
    "address": "100臺北市中正區博愛路166號1樓"
  },
  {
    "dataType": "wifi",
    "category": "行政機關",
    "name": "公園路燈工程管理處處本部2F第一會議室內-1",
    "lat": 25.040688,
    "lng": 121.514194,
    "address": "100臺北市中正區懷寧街109號2F"
  },
  {
    "dataType": "wifi",
    "category": "行政機關",
    "name": "公園路燈工程管理處處本部2F第一會議室內-2",
    "lat": 25.040688,
    "lng": 121.514194,
    "address": "100臺北市中正區懷寧街109號2F"
  },
  {
    "dataType": "wifi",
    "category": "行政機關",
    "name": "公園路燈工程管理處處本部1F品管科巡查小組",
    "lat": 25.040688,
    "lng": 121.514194,
    "address": "100臺北市中正區懷寧街109號1F"
  },
  {
    "dataType": "wifi",
    "category": "行政機關",
    "name": "公園路燈工程管理處處本部1F專委室及秘書主任室中間走道",
    "lat": 25.040688,
    "lng": 121.514194,
    "address": "100臺北市中正區懷寧街109號1F"
  },
  {
    "dataType": "wifi",
    "category": "行政機關",
    "name": "公園路燈工程管理處處本部2F園藝科右",
    "lat": 25.040713,
    "lng": 121.513963,
    "address": "100臺北市中正區懷寧街109號2F"
  },
  {
    "dataType": "wifi",
    "category": "行政機關",
    "name": "公園路燈工程管理處處本部1F工務科-土木股",
    "lat": 25.040758,
    "lng": 121.514295,
    "address": "100臺北市中正區懷寧街109號1F"
  },
  {
    "dataType": "wifi",
    "category": "洽公場所",
    "name": "台北西園郵局",
    "lat": 25.040772,
    "lng": 121.501053,
    "address": "108臺北市萬華區長沙街二段156號"
  },
  {
    "dataType": "wifi",
    "category": "行政機關",
    "name": "公園路燈工程管理處處本部2F處長室外",
    "lat": 25.040795,
    "lng": 121.513929,
    "address": "100臺北市中正區懷寧街109號2F"
  },
  {
    "dataType": "wifi",
    "category": "公車站",
    "name": "臺北市憲兵隊",
    "lat": 25.040839,
    "lng": 121.509202,
    "address": "100臺北市中正區延平南路117號前"
  },
  {
    "dataType": "wifi",
    "category": "行政機關",
    "name": "公園路燈工程管理處處本部2F政風室外走道",
    "lat": 25.040846,
    "lng": 121.513969,
    "address": "100臺北市中正區懷寧街109號2F"
  },
  {
    "dataType": "wifi",
    "category": "公車站",
    "name": "捷運西門站-N1-中華路一段",
    "lat": 25.04095,
    "lng": 121.508201,
    "address": "100臺北市中正區中華路一段65號旁候車亭"
  },
  {
    "dataType": "wifi",
    "category": "行政機關",
    "name": "公園路燈工程管理處處本部1F第二會議室內",
    "lat": 25.040956,
    "lng": 121.51392,
    "address": "100臺北市中正區懷寧街109號1F"
  },
  {
    "dataType": "wifi",
    "category": "行政機關",
    "name": "公園路燈工程管理處處本部2F副處長室門口走道",
    "lat": 25.040971,
    "lng": 121.513946,
    "address": "100臺北市中正區懷寧街109號2F"
  },
  {
    "dataType": "wifi",
    "category": "洽公場所",
    "name": "國家發展委員會寶慶辦公區",
    "lat": 25.041179,
    "lng": 121.513385,
    "address": "100臺北市中正區寶慶路3號"
  },
  {
    "dataType": "wifi",
    "category": "洽公場所",
    "name": "台北漢中街郵局",
    "lat": 25.041328,
    "lng": 121.507015,
    "address": "108臺北市萬華區漢中街173號"
  },
  {
    "dataType": "wifi",
    "category": "行政機關",
    "name": "公園路燈工程管理處228公園內園藝隊部1F辦公室門口外",
    "lat": 25.041444,
    "lng": 121.514172,
    "address": "100臺北市中正區懷寧街103號1F"
  },
  {
    "dataType": "wifi",
    "category": "洽公場所",
    "name": "臺灣銀行營業部",
    "lat": 25.04147,
    "lng": 121.512912,
    "address": "100臺北市中正區重慶南路一段120號"
  },
  {
    "dataType": "wifi",
    "category": "洽公場所",
    "name": "經濟部國營事業委員會1樓大廳",
    "lat": 25.041492,
    "lng": 121.510868,
    "address": "100臺北市中正區寶慶路25號"
  },
  {
    "dataType": "wifi",
    "category": "洽公場所",
    "name": "經濟部國營事業委員會4樓",
    "lat": 25.041492,
    "lng": 121.510868,
    "address": "100臺北市中正區寶慶路25號4樓"
  },
  {
    "dataType": "wifi",
    "category": "洽公場所",
    "name": "經濟部國營事業委員會5樓",
    "lat": 25.041492,
    "lng": 121.510868,
    "address": "100臺北市中正區寶慶路25號5樓"
  },
  {
    "dataType": "wifi",
    "category": "洽公場所",
    "name": "經濟部國營事業委員會6樓",
    "lat": 25.041492,
    "lng": 121.510868,
    "address": "100臺北市中正區寶慶路25號6樓"
  },
  {
    "dataType": "wifi",
    "category": "洽公場所",
    "name": "經濟部國營事業委員會7樓",
    "lat": 25.041492,
    "lng": 121.510868,
    "address": "100臺北市中正區寶慶路25號7樓"
  },
  {
    "dataType": "wifi",
    "category": "公園",
    "name": "228和平公園-2號公廁-涼亭",
    "lat": 25.041494,
    "lng": 121.515834,
    "address": "100臺北市中正區凱達格蘭3號(2號公廁外牆)"
  },
  {
    "dataType": "wifi",
    "category": "行政機關",
    "name": "公園路燈工程管理處228公園內園藝隊部2F辦公室內",
    "lat": 25.041499,
    "lng": 121.514187,
    "address": "100臺北市中正區懷寧街103號2F"
  },
  {
    "dataType": "wifi",
    "category": "行政機關",
    "name": "公園路燈工程管理處228公園內儲藏室1F門口外",
    "lat": 25.0415,
    "lng": 121.514188,
    "address": "100臺北市中正區懷寧街103號1F"
  },
  {
    "dataType": "wifi",
    "category": "公車站",
    "name": "寶慶路-E1-寶慶路",
    "lat": 25.041554,
    "lng": 121.509768,
    "address": "100臺北市中正區寶慶路57號對面候車亭"
  },
  {
    "dataType": "wifi",
    "category": "公園",
    "name": "228和平公園-音樂臺",
    "lat": 25.04161,
    "lng": 121.514296,
    "address": "100臺北市中正區凱達格蘭3號音樂舞台牆上"
  },
  {
    "dataType": "wifi",
    "category": "行政機關",
    "name": "公園路燈工程管理處228公園內園藝隊部2F中間辦公室門口外",
    "lat": 25.041638,
    "lng": 121.514176,
    "address": "100臺北市中正區懷寧街103號2F"
  },
  {
    "dataType": "wifi",
    "category": "行政機關",
    "name": "公園路燈工程管理處228公園內路燈隊部2F辦公室內",
    "lat": 25.041647,
    "lng": 121.514203,
    "address": "100臺北市中正區懷寧街103號2F"
  },
  {
    "dataType": "wifi",
    "category": "行政機關",
    "name": "公園路燈工程管理處228公園內園藝隊部駐警隊",
    "lat": 25.041786,
    "lng": 121.514375,
    "address": "100臺北市中正區懷寧街103號1F"
  },
  {
    "dataType": "wifi",
    "category": "公車站",
    "name": "捷運臺大醫院-公園路",
    "lat": 25.041832,
    "lng": 121.516238,
    "address": "100臺北市中正區公園路臨常德街口候車亭"
  },
  {
    "dataType": "wifi",
    "category": "公園",
    "name": "228和平公園-駐警隊-前廣場",
    "lat": 25.041968,
    "lng": 121.514217,
    "address": "100臺北市中正區凱達格蘭大道3號駐警隊辦公室門口旁外牆"
  },
  {
    "dataType": "wifi",
    "category": "藝文場館",
    "name": "西門紅樓1F八卦型展區中央",
    "lat": 25.042014,
    "lng": 121.506859,
    "address": "108臺北市萬華區成都路10號1F"
  },
  {
    "dataType": "wifi",
    "category": "藝文場館",
    "name": "西門紅樓1F十字型展區中央左側梁柱",
    "lat": 25.042021,
    "lng": 121.506446,
    "address": "108臺北市萬華區成都路10號1F"
  },
  {
    "dataType": "wifi",
    "category": "洽公場所",
    "name": "中央聯合辦公大樓南棟",
    "lat": 25.04221,
    "lng": 121.51947,
    "address": "100臺北市中正區徐州路5號1樓"
  },
  {
    "dataType": "wifi",
    "category": "洽公場所",
    "name": "內政部",
    "lat": 25.04221,
    "lng": 121.51947,
    "address": "100臺北市中正區徐州路5號3樓"
  },
  {
    "dataType": "wifi",
    "category": "洽公場所",
    "name": "僑務委員會中央聯合辦公大樓南棟",
    "lat": 25.04221,
    "lng": 121.51947,
    "address": "100臺北市中正區徐州路5號3樓"
  },
  {
    "dataType": "wifi",
    "category": "洽公場所",
    "name": "教育部青年發展署",
    "lat": 25.04221,
    "lng": 121.51947,
    "address": "100臺北市中正區徐州路5號14樓"
  },
  {
    "dataType": "wifi",
    "category": "其他",
    "name": "內政部8樓會議室",
    "lat": 25.04221,
    "lng": 121.51947,
    "address": "100臺北市中正區徐州路5號"
  },
  {
    "dataType": "wifi",
    "category": "公車站",
    "name": "捷運臺大醫院-N-公園路",
    "lat": 25.042213,
    "lng": 121.516303,
    "address": "100臺北市中正區公園路50號對面候車亭"
  },
  {
    "dataType": "wifi",
    "category": "文教館所",
    "name": "文化部-蒙藏文化中心",
    "lat": 25.042234,
    "lng": 121.519449,
    "address": "100臺北市中正區徐州路5號4樓"
  },
  {
    "dataType": "wifi",
    "category": "洽公場所",
    "name": "台北中聯郵局",
    "lat": 25.042288,
    "lng": 121.519459,
    "address": "100臺北市中正區徐州路5號地下1樓"
  },
  {
    "dataType": "wifi",
    "category": "洽公場所",
    "name": "兆豐國際商銀衡陽分行",
    "lat": 25.0423,
    "lng": 121.5103,
    "address": "100臺北市中正區衡陽路91號"
  },
  {
    "dataType": "wifi",
    "category": "洽公場所",
    "name": "兆豐國際商銀-衡陽大樓7樓之1",
    "lat": 25.042356,
    "lng": 121.510294,
    "address": "100臺北市中正區衡陽路91號7樓"
  },
  {
    "dataType": "wifi",
    "category": "洽公場所",
    "name": "兆豐國際商銀-衡陽大樓8樓之1",
    "lat": 25.042356,
    "lng": 121.510294,
    "address": "100臺北市中正區衡陽路91號8樓"
  },
  {
    "dataType": "wifi",
    "category": "公車站",
    "name": "衡陽路口",
    "lat": 25.042452,
    "lng": 121.513226,
    "address": "100臺北市中正區重慶南路一段100號"
  },
  {
    "dataType": "wifi",
    "category": "洽公場所",
    "name": "內政部部長室貴賓室",
    "lat": 25.042463,
    "lng": 121.519449,
    "address": "100臺北市中正區徐州路5號9樓"
  },
  {
    "dataType": "wifi",
    "category": "洽公場所",
    "name": "內政部政務次長室",
    "lat": 25.042463,
    "lng": 121.519449,
    "address": "100臺北市中正區徐州路5號9樓"
  },
  {
    "dataType": "wifi",
    "category": "洽公場所",
    "name": "華南商業銀行西門分行",
    "lat": 25.042485,
    "lng": 121.506051,
    "address": "108臺北市萬華區西寧南路173號"
  },
  {
    "dataType": "wifi",
    "category": "文教館所",
    "name": "國家圖書館多媒體創意實驗中心-1",
    "lat": 25.042533,
    "lng": 121.509432,
    "address": "100臺北市中正區秀山街4號14樓"
  },
  {
    "dataType": "wifi",
    "category": "文教館所",
    "name": "國家圖書館多媒體創意實驗中心-2",
    "lat": 25.042533,
    "lng": 121.509432,
    "address": "100臺北市中正區秀山街4號14樓"
  },
  {
    "dataType": "wifi",
    "category": "洽公場所",
    "name": "教育部一樓大廳",
    "lat": 25.042548,
    "lng": 121.519183,
    "address": "100臺北市中正區中山南路5號"
  },
  {
    "dataType": "wifi",
    "category": "洽公場所",
    "name": "教育部前門廣場",
    "lat": 25.042548,
    "lng": 121.519183,
    "address": "100臺北市中正區中山南路5號"
  },
  {
    "dataType": "wifi",
    "category": "洽公場所",
    "name": "上海商銀龍山分行",
    "lat": 25.042761,
    "lng": 121.505549,
    "address": "108臺北市萬華區成都路60號"
  },
  {
    "dataType": "wifi",
    "category": "洽公場所",
    "name": "行政院環境保護署第2辦公室會議室(12F)",
    "lat": 25.042787,
    "lng": 121.509309,
    "address": "100臺北市中正區秀山街4號12樓"
  },
  {
    "dataType": "wifi",
    "category": "洽公場所",
    "name": "行政院環境保護署第2辦公室會議室(13F)",
    "lat": 25.042787,
    "lng": 121.509309,
    "address": "100臺北市中正區秀山街4號13樓"
  },
  {
    "dataType": "wifi",
    "category": "洽公場所",
    "name": "行政院環境保護署第2辦公室會議室(14F)",
    "lat": 25.042787,
    "lng": 121.509309,
    "address": "100臺北市中正區秀山街4號14樓"
  },
  {
    "dataType": "wifi",
    "category": "文教館所",
    "name": "國立臺灣博物館本館1F服務台",
    "lat": 25.042902,
    "lng": 121.51503,
    "address": "100臺北市中正區襄陽路2號"
  },
  {
    "dataType": "wifi",
    "category": "文教館所",
    "name": "國立臺灣博物館本館1F東展示室",
    "lat": 25.042902,
    "lng": 121.51503,
    "address": "100臺北市中正區襄陽路2號"
  },
  {
    "dataType": "wifi",
    "category": "文教館所",
    "name": "國立臺灣博物館本館1F西展示室",
    "lat": 25.042902,
    "lng": 121.51503,
    "address": "100臺北市中正區襄陽路2號"
  },
  {
    "dataType": "wifi",
    "category": "文教館所",
    "name": "國立臺灣博物館本館3F展示室",
    "lat": 25.042902,
    "lng": 121.51503,
    "address": "100臺北市中正區襄陽路2號"
  },
  {
    "dataType": "wifi",
    "category": "藝文場館",
    "name": "中山堂管理所1F服務臺",
    "lat": 25.043048,
    "lng": 121.510052,
    "address": "100臺北市中正區延平南路98號1F"
  },
  {
    "dataType": "wifi",
    "category": "公園",
    "name": "228和平公園-3號公廁-兒童遊戲場",
    "lat": 25.043099,
    "lng": 121.514255,
    "address": "100臺北市中正區凱達格蘭3號(3號公廁外牆)"
  },
  {
    "dataType": "wifi",
    "category": "洽公場所",
    "name": "台北中山堂郵局",
    "lat": 25.043122,
    "lng": 121.50896,
    "address": "100臺北市中正區秀山街1號"
  },
  {
    "dataType": "wifi",
    "category": "藝文場館",
    "name": "中山堂管理所2F堡壘廳後門外",
    "lat": 25.043126,
    "lng": 121.510108,
    "address": "100臺北市中正區延平南路98號2F"
  },
  {
    "dataType": "wifi",
    "category": "文教館所",
    "name": "國立臺灣博物館本館B1東、西展示室",
    "lat": 25.043129,
    "lng": 121.515051,
    "address": "100臺北市中正區襄陽路2號B1"
  },
  {
    "dataType": "wifi",
    "category": "洽公場所",
    "name": "合庫西門分行營業廳",
    "lat": 25.043214,
    "lng": 121.505043,
    "address": "108臺北市萬華區昆明街77號"
  },
  {
    "dataType": "wifi",
    "category": "藝文場館",
    "name": "中山堂管理所1F演員休息室門外左側",
    "lat": 25.043234,
    "lng": 121.509584,
    "address": "100臺北市中正區延平南路98號1F"
  },
  {
    "dataType": "wifi",
    "category": "洽公場所",
    "name": "立法院郵局",
    "lat": 25.043252,
    "lng": 121.519895,
    "address": "100臺北市中正區濟南路一段1號"
  },
  {
    "dataType": "wifi",
    "category": "洽公場所",
    "name": "華南商業銀行城內分行",
    "lat": 25.043262,
    "lng": 121.511635,
    "address": "100臺北市中正區博愛路93號"
  },
  {
    "dataType": "wifi",
    "category": "藝文場館",
    "name": "中山堂管理所1F演員休息室門內",
    "lat": 25.043267,
    "lng": 121.509608,
    "address": "100臺北市中正區延平南路98號1F"
  },
  {
    "dataType": "wifi",
    "category": "藝文場館",
    "name": "中山堂管理所3F台北書院門外",
    "lat": 25.04331,
    "lng": 121.509611,
    "address": "100臺北市中正區延平南路98號3F"
  },
  {
    "dataType": "wifi",
    "category": "藝文場館",
    "name": "中山堂管理所3F茶坊門外",
    "lat": 25.04331,
    "lng": 121.509611,
    "address": "100臺北市中正區延平南路98號3F"
  },
  {
    "dataType": "wifi",
    "category": "洽公場所",
    "name": "經濟部礦務局5樓公開閱覽室",
    "lat": 25.043321,
    "lng": 121.508994,
    "address": "100臺北市中正區中華路一段53號5樓"
  },
  {
    "dataType": "wifi",
    "category": "公車站",
    "name": "博物館(襄陽)-E-襄陽路",
    "lat": 25.043354,
    "lng": 121.514649,
    "address": "100臺北市中正區襄陽路25號斜對面候車亭"
  },
  {
    "dataType": "wifi",
    "category": "藝文場館",
    "name": "中山堂管理所2F光復廳中間門外上方",
    "lat": 25.043362,
    "lng": 121.509571,
    "address": "100臺北市中正區延平南路98號2F"
  },
  {
    "dataType": "wifi",
    "category": "藝文場館",
    "name": "中山堂管理所2F光復廳往主任室門內上方",
    "lat": 25.043391,
    "lng": 121.509432,
    "address": "100臺北市中正區延平南路98號2F"
  },
  {
    "dataType": "wifi",
    "category": "文教館所",
    "name": "國立臺灣博物館土銀館1F服務台",
    "lat": 25.043565,
    "lng": 121.514164,
    "address": "100臺北市中正區襄陽路25號"
  },
  {
    "dataType": "wifi",
    "category": "文教館所",
    "name": "國立臺灣博物館土銀館展示室",
    "lat": 25.043565,
    "lng": 121.514164,
    "address": "100臺北市中正區襄陽路25號"
  },
  {
    "dataType": "wifi",
    "category": "洽公場所",
    "name": "合庫營業部營業廳",
    "lat": 25.043739,
    "lng": 121.515164,
    "address": "100臺北市中正區館前路77號"
  },
  {
    "dataType": "wifi",
    "category": "行政機關",
    "name": "警察局局本部9F保防科門口",
    "lat": 25.043775,
    "lng": 121.508928,
    "address": "100臺北市中正區延平南路96號9F"
  },
  {
    "dataType": "wifi",
    "category": "行政機關",
    "name": "警察局局本部11F1103防治科內後方",
    "lat": 25.043784,
    "lng": 121.509362,
    "address": "100臺北市中正區延平南路96號11F"
  },
  {
    "dataType": "wifi",
    "category": "行政機關",
    "name": "警察局局本部2F202會計室",
    "lat": 25.04379,
    "lng": 121.510053,
    "address": "100臺北市中正區延平南路96號2F"
  },
  {
    "dataType": "wifi",
    "category": "行政機關",
    "name": "警察局局本部4F403第二會議室大門",
    "lat": 25.043812,
    "lng": 121.50952,
    "address": "100臺北市中正區延平南路96號4F"
  },
  {
    "dataType": "wifi",
    "category": "行政機關",
    "name": "警察局局本部5F辦公室門口",
    "lat": 25.043812,
    "lng": 121.50952,
    "address": "100臺北市中正區延平南路96號5F"
  },
  {
    "dataType": "wifi",
    "category": "行政機關",
    "name": "警察局局本部7F政風室",
    "lat": 25.043812,
    "lng": 121.50952,
    "address": "100臺北市中正區延平南路96號7F"
  },
  {
    "dataType": "wifi",
    "category": "行政機關",
    "name": "警察局局本部6F第一會議室",
    "lat": 25.043876,
    "lng": 121.509742,
    "address": "100臺北市中正區延平南路96號6F"
  },
  {
    "dataType": "wifi",
    "category": "行政機關",
    "name": "警察局局本部7F督察室門口",
    "lat": 25.043876,
    "lng": 121.509742,
    "address": "100臺北市中正區延平南路96號7F"
  },
  {
    "dataType": "wifi",
    "category": "行政機關",
    "name": "警察局局本部8F人事室東方",
    "lat": 25.043876,
    "lng": 121.509742,
    "address": "100臺北市中正區延平南路96號8F"
  },
  {
    "dataType": "wifi",
    "category": "行政機關",
    "name": "警察局局本部5F資訊室中央",
    "lat": 25.043881,
    "lng": 121.509621,
    "address": "100臺北市中正區延平南路96號5F"
  },
  {
    "dataType": "wifi",
    "category": "行政機關",
    "name": "警察局局本部B3FB306大禮堂門口",
    "lat": 25.043883,
    "lng": 121.509866,
    "address": "100臺北市中正區延平南路96號B3F"
  },
  {
    "dataType": "wifi",
    "category": "行政機關",
    "name": "警察局局本部B3F文康室內",
    "lat": 25.043883,
    "lng": 121.509866,
    "address": "100臺北市中正區延平南路96號B3F"
  },
  {
    "dataType": "wifi",
    "category": "行政機關",
    "name": "警察局局本部1F104外事科門口",
    "lat": 25.043911,
    "lng": 121.509769,
    "address": "100臺北市中正區延平南路96號1F"
  },
  {
    "dataType": "wifi",
    "category": "公眾服務",
    "name": "警察局局本部1F志工服務臺",
    "lat": 25.043942,
    "lng": 121.509566,
    "address": "100臺北市中正區延平南路96號1F"
  },
  {
    "dataType": "wifi",
    "category": "行政機關",
    "name": "警察局局本部B1FB101保安中隊門口",
    "lat": 25.043942,
    "lng": 121.509566,
    "address": "100臺北市中正區延平南路96號B1F"
  },
  {
    "dataType": "wifi",
    "category": "行政機關",
    "name": "警察局局本部1F108空調室門口右側",
    "lat": 25.043942,
    "lng": 121.509566,
    "address": "100臺北市中正區延平南路96號1F"
  },
  {
    "dataType": "wifi",
    "category": "行政機關",
    "name": "警察局局本部6F保安科門口",
    "lat": 25.043942,
    "lng": 121.509566,
    "address": "100臺北市中正區延平南路96號6F"
  },
  {
    "dataType": "wifi",
    "category": "行政機關",
    "name": "警察局局本部8F行政科門口",
    "lat": 25.043942,
    "lng": 121.509566,
    "address": "100臺北市中正區延平南路96號8F"
  },
  {
    "dataType": "wifi",
    "category": "行政機關",
    "name": "警察局局本部3F301局長室門口",
    "lat": 25.043963,
    "lng": 121.509434,
    "address": "100臺北市中正區延平南路96號3F"
  },
  {
    "dataType": "wifi",
    "category": "行政機關",
    "name": "警察局局本部4F勤務指揮中心大門",
    "lat": 25.043963,
    "lng": 121.509434,
    "address": "100臺北市中正區延平南路96號4F"
  },
  {
    "dataType": "wifi",
    "category": "洽公場所",
    "name": "行政院台商聯合服務中心",
    "lat": 25.043969,
    "lng": 121.515176,
    "address": "100臺北市中正區館前路71號8樓"
  },
  {
    "dataType": "wifi",
    "category": "洽公場所",
    "name": "立法院大門會客室",
    "lat": 25.044,
    "lng": 121.51958,
    "address": "100臺北市中正區中山南路1號"
  },
  {
    "dataType": "wifi",
    "category": "行政機關",
    "name": "警察局局本部LF大廳2號電梯門口右側",
    "lat": 25.044016,
    "lng": 121.509951,
    "address": "100臺北市中正區延平南路96號1F"
  },
  {
    "dataType": "wifi",
    "category": "洽公場所",
    "name": "立法院議場",
    "lat": 25.044048,
    "lng": 121.519559,
    "address": "100臺北市中正區中山南路1號"
  },
  {
    "dataType": "wifi",
    "category": "醫院",
    "name": "北市聯醫昆明院區1F批價櫃檯",
    "lat": 25.044062,
    "lng": 121.505021,
    "address": "108臺北市萬華區昆明街100號"
  },
  {
    "dataType": "wifi",
    "category": "醫院",
    "name": "北市聯醫昆明院區4F新興傳染病及藥癮防治科中央",
    "lat": 25.044062,
    "lng": 121.505021,
    "address": "108臺北市萬華區昆明街100號"
  },
  {
    "dataType": "wifi",
    "category": "醫院",
    "name": "北市聯醫昆明院區6F慢性傳染病股門口",
    "lat": 25.044062,
    "lng": 121.505021,
    "address": "108臺北市萬華區昆明街100號"
  },
  {
    "dataType": "wifi",
    "category": "行政機關",
    "name": "警察局局本部2F205後勤科財產股門口",
    "lat": 25.044099,
    "lng": 121.50946,
    "address": "100臺北市中正區延平南路96號2F"
  },
  {
    "dataType": "wifi",
    "category": "洽公場所",
    "name": "臺灣土地銀行營業部",
    "lat": 25.044113,
    "lng": 121.514734,
    "address": "100臺北市中正區館前路46號"
  },
  {
    "dataType": "wifi",
    "category": "行政機關",
    "name": "警察局局本部3F307主任秘書辦公室中央",
    "lat": 25.04418,
    "lng": 121.509213,
    "address": "100臺北市中正區延平南路96號3F"
  },
  {
    "dataType": "wifi",
    "category": "洽公場所",
    "name": "第一商業銀行西門分行",
    "lat": 25.044186,
    "lng": 121.506222,
    "address": "108臺北市萬華區西寧南路52號"
  },
  {
    "dataType": "wifi",
    "category": "醫院",
    "name": "北市聯醫昆明院區1F中藥局中央",
    "lat": 25.044194,
    "lng": 121.505006,
    "address": "108臺北市萬華區昆明街100號"
  },
  {
    "dataType": "wifi",
    "category": "醫院",
    "name": "北市聯醫昆明院區3F第9診間門口",
    "lat": 25.0442,
    "lng": 121.50476,
    "address": "108臺北市萬華區昆明街100號"
  },
  {
    "dataType": "wifi",
    "category": "醫院",
    "name": "北市聯醫昆明院區9F醫務長室門口",
    "lat": 25.0442,
    "lng": 121.50476,
    "address": "108臺北市萬華區昆明街100號"
  },
  {
    "dataType": "wifi",
    "category": "醫院",
    "name": "北市聯醫昆明院區1F聯合服務中心櫃台",
    "lat": 25.044203,
    "lng": 121.505041,
    "address": "108臺北市萬華區昆明街100號"
  },
  {
    "dataType": "wifi",
    "category": "洽公場所",
    "name": "臺灣銀行採購部",
    "lat": 25.044205,
    "lng": 121.511199,
    "address": "100臺北市中正區武昌街一段45號3樓"
  },
  {
    "dataType": "wifi",
    "category": "行政機關",
    "name": "警察局局本部10F1008機務組內管理組門口",
    "lat": 25.044278,
    "lng": 121.508898,
    "address": "100臺北市中正區延平南路96號10F"
  },
  {
    "dataType": "wifi",
    "category": "醫院",
    "name": "北市聯醫昆明院區4F團體討論室門口",
    "lat": 25.044319,
    "lng": 121.504733,
    "address": "108臺北市萬華區昆明街100號"
  },
  {
    "dataType": "wifi",
    "category": "醫院",
    "name": "北市聯醫昆明院區5F性病及愛滋病防治組外側走道",
    "lat": 25.044319,
    "lng": 121.504733,
    "address": "108臺北市萬華區昆明街100號5F(性病及愛滋病防治組門口)"
  },
  {
    "dataType": "wifi",
    "category": "醫院",
    "name": "北市聯醫昆明院區7F會議室與結核病防治組走道中央",
    "lat": 25.044319,
    "lng": 121.504733,
    "address": "108臺北市萬華區昆明街100號"
  },
  {
    "dataType": "wifi",
    "category": "遊客中心",
    "name": "西門町遊客中心",
    "lat": 25.04435,
    "lng": 121.507545,
    "address": "108臺北市萬華區漢中街45號1樓"
  },
  {
    "dataType": "wifi",
    "category": "醫院",
    "name": "北市聯醫昆明院區6F預防接種股門口",
    "lat": 25.044356,
    "lng": 121.505081,
    "address": "108臺北市萬華區昆明街100號"
  },
  {
    "dataType": "wifi",
    "category": "行政機關",
    "name": "警察局局本部9F法規室門口",
    "lat": 25.044364,
    "lng": 121.509107,
    "address": "100臺北市中正區延平南路96號9F"
  },
  {
    "dataType": "wifi",
    "category": "醫院",
    "name": "北市聯醫昆明院區3F空調室門口",
    "lat": 25.044365,
    "lng": 121.504811,
    "address": "108臺北市萬華區昆明街100號"
  },
  {
    "dataType": "wifi",
    "category": "醫院",
    "name": "北市聯醫昆明院區2F第27門診門口",
    "lat": 25.044375,
    "lng": 121.504812,
    "address": "108臺北市萬華區昆明街100號"
  },
  {
    "dataType": "wifi",
    "category": "行政機關",
    "name": "警察局局本部10F秘書室檔案股門口",
    "lat": 25.044393,
    "lng": 121.509047,
    "address": "100臺北市中正區延平南路96號10F"
  },
  {
    "dataType": "wifi",
    "category": "洽公場所",
    "name": "臺灣銀行股份有限公司武昌分行",
    "lat": 25.044403,
    "lng": 121.510853,
    "address": "110臺北市中正區武昌街一段49號"
  },
  {
    "dataType": "wifi",
    "category": "醫院",
    "name": "北市聯醫昆明院區5F會議室門口外",
    "lat": 25.044409,
    "lng": 121.504721,
    "address": "108臺北市萬華區昆明街100號"
  },
  {
    "dataType": "wifi",
    "category": "醫院",
    "name": "北市聯醫昆明院區8F標準病人休息室門口",
    "lat": 25.044422,
    "lng": 121.504648,
    "address": "108臺北市萬華區昆明街100號"
  },
  {
    "dataType": "wifi",
    "category": "行政機關",
    "name": "警察局局本部11F1106犯罪預防科大門",
    "lat": 25.044454,
    "lng": 121.508811,
    "address": "100臺北市中正區延平南路96號11F"
  },
  {
    "dataType": "wifi",
    "category": "醫院",
    "name": "北市聯醫昆明院區6F科長辦公室門口",
    "lat": 25.044464,
    "lng": 121.504508,
    "address": "108臺北市萬華區昆明街100號"
  },
  {
    "dataType": "wifi",
    "category": "醫院",
    "name": "北市聯醫昆明院區10F檢驗室",
    "lat": 25.044468,
    "lng": 121.504949,
    "address": "108臺北市萬華區昆明街100號"
  },
  {
    "dataType": "wifi",
    "category": "公車站",
    "name": "中華路北站-S1-中華路一段",
    "lat": 25.044563,
    "lng": 121.508669,
    "address": "108臺北市萬華區中華路一段94號前候車亭"
  },
  {
    "dataType": "wifi",
    "category": "圖書館",
    "name": "圖書館西門智慧圖書館B1F中央",
    "lat": 25.044577,
    "lng": 121.509184,
    "address": "100臺北市中正區中華路一段51-1號B1F"
  },
  {
    "dataType": "wifi",
    "category": "洽公場所",
    "name": "台北南陽郵局",
    "lat": 25.044596,
    "lng": 121.515994,
    "address": "100臺北市中正區信陽街8號"
  },
  {
    "dataType": "wifi",
    "category": "洽公場所",
    "name": "中央健康保險署-臺北業務組公保大樓5樓聯合服務中心",
    "lat": 25.044678,
    "lng": 121.517489,
    "address": "100臺北市中正區公園路15-1號1樓"
  },
  {
    "dataType": "wifi",
    "category": "洽公場所",
    "name": "上海商銀城中分行",
    "lat": 25.044713,
    "lng": 121.514872,
    "address": "100臺北市中正區館前路28號"
  },
  {
    "dataType": "wifi",
    "category": "洽公場所",
    "name": "臺灣土地銀行臺北分行",
    "lat": 25.044779,
    "lng": 121.511284,
    "address": "100臺北市中正區博愛路72號"
  },
  {
    "dataType": "wifi",
    "category": "洽公場所",
    "name": "華南商業銀行營業部",
    "lat": 25.044823,
    "lng": 121.513094,
    "address": "100臺北市中正區重慶南路一段38號"
  },
  {
    "dataType": "wifi",
    "category": "洽公場所",
    "name": "臺灣銀行館前分行",
    "lat": 25.044898,
    "lng": 121.515154,
    "address": "100臺北市中正區館前路49號"
  },
  {
    "dataType": "wifi",
    "category": "公車站",
    "name": "峨嵋街口(中醫院區)-N-康定路",
    "lat": 25.044923,
    "lng": 121.503025,
    "address": "108臺北市萬華區康定路19號前候車亭"
  },
  {
    "dataType": "wifi",
    "category": "公車站",
    "name": "中華路北站-慢車道-N-中華路一段",
    "lat": 25.045037,
    "lng": 121.508877,
    "address": "100臺北市中正區中華路一段41號旁候車亭"
  },
  {
    "dataType": "wifi",
    "category": "藝文場館",
    "name": "臺北市電影主題公園1F D棟音響設備上",
    "lat": 25.045232,
    "lng": 121.503467,
    "address": "108臺北市萬華區康定路19號1F"
  },
  {
    "dataType": "wifi",
    "category": "洽公場所",
    "name": "兆豐國際商銀城中分行",
    "lat": 25.045394,
    "lng": 121.515462,
    "address": "100臺北市中正區許昌街42號"
  },
  {
    "dataType": "wifi",
    "category": "公車站",
    "name": "中華路北站-N-中華路一段",
    "lat": 25.04563,
    "lng": 121.50957,
    "address": "100臺北市中正區中華路一段29之4號旁候車亭"
  },
  {
    "dataType": "wifi",
    "category": "洽公場所",
    "name": "第一金融控股股份有限公司",
    "lat": 25.045813,
    "lng": 121.513114,
    "address": "100臺北市中正區重慶南路一段30號18樓"
  },
  {
    "dataType": "wifi",
    "category": "洽公場所",
    "name": "第一商業銀行營業部分行",
    "lat": 25.045814,
    "lng": 121.513114,
    "address": "100臺北市中正區重慶南路一段30號"
  },
  {
    "dataType": "wifi",
    "category": "洽公場所",
    "name": "台北復興橋郵局",
    "lat": 25.045986,
    "lng": 121.519409,
    "address": "100臺北市中正區忠孝西路一段1號"
  },
  {
    "dataType": "wifi",
    "category": "洽公場所",
    "name": "文化部影視及流行音樂產業局",
    "lat": 25.046066,
    "lng": 121.514444,
    "address": "100臺北市中正區開封街一段三號"
  },
  {
    "dataType": "wifi",
    "category": "洽公場所",
    "name": "數位發展部新光大樓1",
    "lat": 25.046129,
    "lng": 121.515333,
    "address": "100臺北市中正區忠孝西路一段66號"
  },
  {
    "dataType": "wifi",
    "category": "洽公場所",
    "name": "數位發展部新光大樓2",
    "lat": 25.046129,
    "lng": 121.515333,
    "address": "100臺北市中正區忠孝西路一段66號"
  },
  {
    "dataType": "wifi",
    "category": "公車站",
    "name": "臺北車站(忠孝)-W2-忠孝西路一段",
    "lat": 25.046558,
    "lng": 121.516689,
    "address": "100臺北市中正區忠孝西路一段(捷運台北車站4號出口旁)候車亭"
  },
  {
    "dataType": "wifi",
    "category": "公車站",
    "name": "臺北車站(忠孝)-W1-忠孝西路一段",
    "lat": 25.046698,
    "lng": 121.517167,
    "address": "100臺北市中正區忠孝西路一段(捷運台北車站4號出口旁)候車亭"
  },
  {
    "dataType": "wifi",
    "category": "商圈市集",
    "name": "K區地下街B1F 東側廣場旁消防栓出水口前",
    "lat": 25.046701,
    "lng": 121.516949,
    "address": "100臺北市中正區忠孝西路一段47號B1F"
  },
  {
    "dataType": "wifi",
    "category": "社區中心",
    "name": "萬華福星區民活動中心2F中央",
    "lat": 25.046735,
    "lng": 121.506929,
    "address": "108臺北市萬華區西寧南路14-3號2F"
  },
  {
    "dataType": "wifi",
    "category": "商圈市集",
    "name": "K區地下街B1F KB108店前",
    "lat": 25.046832,
    "lng": 121.516536,
    "address": "100臺北市中正區忠孝西路一段47號B1F"
  },
  {
    "dataType": "wifi",
    "category": "商圈市集",
    "name": "K區地下街B1F中廣場左側",
    "lat": 25.046912,
    "lng": 121.516239,
    "address": "100臺北市中正區忠孝西路一段47號B1F"
  },
  {
    "dataType": "wifi",
    "category": "商圈市集",
    "name": "K區地下街B1F KB144店前方",
    "lat": 25.046926,
    "lng": 121.516727,
    "address": "100臺北市中正區忠孝西路一段47號B1F"
  },
  {
    "dataType": "wifi",
    "category": "商圈市集",
    "name": "K區地下街B1F西廣場右側",
    "lat": 25.046996,
    "lng": 121.515231,
    "address": "100臺北市中正區忠孝西路一段47號B1F"
  },
  {
    "dataType": "wifi",
    "category": "商圈市集",
    "name": "K區地下街B1F KB157店前方",
    "lat": 25.046996,
    "lng": 121.515231,
    "address": "100臺北市中正區忠孝西路一段47號B1F"
  },
  {
    "dataType": "wifi",
    "category": "商圈市集",
    "name": "K區地下街B1F中廣場右側",
    "lat": 25.047003,
    "lng": 121.515884,
    "address": "100臺北市中正區忠孝西路一段47號B1F"
  },
  {
    "dataType": "wifi",
    "category": "商圈市集",
    "name": "K區地下街B1F KB143店前方",
    "lat": 25.047023,
    "lng": 121.517082,
    "address": "100臺北市中正區忠孝西路一段47號B1F"
  },
  {
    "dataType": "wifi",
    "category": "大眾運輸節點",
    "name": "臺鐵局臺北站第3月台8車位置",
    "lat": 25.047049,
    "lng": 121.517322,
    "address": "100臺北市中正區黎明里北平西路3號"
  },
  {
    "dataType": "wifi",
    "category": "大眾運輸節點",
    "name": "臺鐵局臺北站第4月台6車位置",
    "lat": 25.047049,
    "lng": 121.517322,
    "address": "100臺北市中正區黎明里北平西路3號"
  },
  {
    "dataType": "wifi",
    "category": "大眾運輸節點",
    "name": "臺鐵局臺北站第3月台12車位置",
    "lat": 25.047049,
    "lng": 121.517322,
    "address": "100臺北市中正區黎明里北平西路3號"
  },
  {
    "dataType": "wifi",
    "category": "大眾運輸節點",
    "name": "臺鐵局臺北站第4月台2車位置",
    "lat": 25.047049,
    "lng": 121.517322,
    "address": "100臺北市中正區黎明里北平西路3號"
  },
  {
    "dataType": "wifi",
    "category": "大眾運輸節點",
    "name": "臺北站地下1樓北迴廊西側置物櫃旁",
    "lat": 25.047049,
    "lng": 121.517322,
    "address": "100臺北市中正區黎明里北平西路3號"
  },
  {
    "dataType": "wifi",
    "category": "大眾運輸節點",
    "name": "臺鐵局臺北站地下1樓機場捷運連通道南迴廊東側",
    "lat": 25.047049,
    "lng": 121.517322,
    "address": "100臺北市中正區黎明里北平西路3號"
  },
  {
    "dataType": "wifi",
    "category": "大眾運輸節點",
    "name": "臺鐵局臺北站地下1樓北迴廊自動售票機旁",
    "lat": 25.047049,
    "lng": 121.517322,
    "address": "100臺北市中正區黎明里北平西路3號"
  },
  {
    "dataType": "wifi",
    "category": "大眾運輸節點",
    "name": "臺鐵局臺北站地下1樓機場捷運連通道北迴廊東側",
    "lat": 25.047049,
    "lng": 121.517322,
    "address": "100臺北市中正區黎明里北平西路3號"
  },
  {
    "dataType": "wifi",
    "category": "大眾運輸節點",
    "name": "臺鐵局臺北站地下1樓機場捷運連通道北迴廊西側",
    "lat": 25.047049,
    "lng": 121.517322,
    "address": "100臺北市中正區黎明里北平西路3號"
  },
  {
    "dataType": "wifi",
    "category": "大眾運輸節點",
    "name": "臺鐵局臺北站地下1樓機場捷運連通道西迴廊北側",
    "lat": 25.047049,
    "lng": 121.517322,
    "address": "100臺北市中正區黎明里北平西路3號"
  },
  {
    "dataType": "wifi",
    "category": "大眾運輸節點",
    "name": "臺鐵局臺北站地下1樓機場捷運連通道南迴廊西側",
    "lat": 25.047049,
    "lng": 121.517322,
    "address": "100臺北市中正區黎明里北平西路3號"
  },
  {
    "dataType": "wifi",
    "category": "大眾運輸節點",
    "name": "臺鐵局臺北站地下1樓機場捷運連通道西迴廊南側",
    "lat": 25.047049,
    "lng": 121.517322,
    "address": "100臺北市中正區黎明里北平西路3號"
  },
  {
    "dataType": "wifi",
    "category": "大眾運輸節點",
    "name": "臺鐵局臺北站第3月台4車位置K30柱旁",
    "lat": 25.047049,
    "lng": 121.517322,
    "address": "100臺北市中正區黎明里北平西路3號"
  },
  {
    "dataType": "wifi",
    "category": "大眾運輸節點",
    "name": "臺北站地下1樓北迴廊臺鐵便當本舖3號店旁",
    "lat": 25.047049,
    "lng": 121.517322,
    "address": "100臺北市中正區黎明里北平西路3號"
  },
  {
    "dataType": "wifi",
    "category": "大眾運輸節點",
    "name": "北捷松山線北門站B1F連通道西側",
    "lat": 25.047049,
    "lng": 121.517322,
    "address": "100臺北市中正區黎明里北平西路3號"
  },
  {
    "dataType": "wifi",
    "category": "大眾運輸節點",
    "name": "站前地下街(Z區)Z7出口旁",
    "lat": 25.047049,
    "lng": 121.517322,
    "address": "100臺北市中正區黎明里北平西路3號"
  },
  {
    "dataType": "wifi",
    "category": "商圈市集",
    "name": "K區地下街B1F西廣場左側",
    "lat": 25.047091,
    "lng": 121.515228,
    "address": "100臺北市中正區忠孝西路一段47號B1F"
  },
  {
    "dataType": "wifi",
    "category": "商圈市集",
    "name": "K區地下街B1F KB116前方",
    "lat": 25.047092,
    "lng": 121.515279,
    "address": "100臺北市中正區忠孝西路一段47號B1F"
  },
  {
    "dataType": "wifi",
    "category": "洽公場所",
    "name": "台北北門郵局-1",
    "lat": 25.047256,
    "lng": 121.512117,
    "address": "100臺北市中正區忠孝西路一段114號"
  },
  {
    "dataType": "wifi",
    "category": "洽公場所",
    "name": "台北北門郵局-2",
    "lat": 25.047256,
    "lng": 121.512117,
    "address": "100臺北市中正區忠孝西路一段114號"
  },
  {
    "dataType": "wifi",
    "category": "洽公場所",
    "name": "台北北門郵局-3",
    "lat": 25.047256,
    "lng": 121.512117,
    "address": "100臺北市中正區忠孝西路一段114號"
  },
  {
    "dataType": "wifi",
    "category": "洽公場所",
    "name": "台北北門郵局-4",
    "lat": 25.047256,
    "lng": 121.512117,
    "address": "100臺北市中正區忠孝西路一段114號"
  },
  {
    "dataType": "wifi",
    "category": "洽公場所",
    "name": "台北北門郵局-5",
    "lat": 25.047256,
    "lng": 121.512117,
    "address": "100臺北市中正區忠孝西路一段114號"
  },
  {
    "dataType": "wifi",
    "category": "公車站",
    "name": "萬華運動中心-S-西寧南路",
    "lat": 25.047371,
    "lng": 121.507142,
    "address": "108臺北市萬華區西寧南路6之1號旁候車亭"
  },
  {
    "dataType": "wifi",
    "category": "運動場館",
    "name": "萬華運動中心1F社區教室前方",
    "lat": 25.047388,
    "lng": 121.50684,
    "address": "108臺北市萬華區西寧南路6之1號1F"
  },
  {
    "dataType": "wifi",
    "category": "運動場館",
    "name": "萬華運動中心3F健身房重訓區",
    "lat": 25.047408,
    "lng": 121.506753,
    "address": "108臺北市萬華區西寧南路6之1號3F"
  },
  {
    "dataType": "wifi",
    "category": "運動場館",
    "name": "萬華運動中心2F高爾夫球訓練區後方",
    "lat": 25.047458,
    "lng": 121.506867,
    "address": "108臺北市萬華區西寧南路6之1號2F"
  },
  {
    "dataType": "wifi",
    "category": "運動場館",
    "name": "萬華運動中心3F健身房櫃臺旁",
    "lat": 25.047458,
    "lng": 121.506867,
    "address": "108臺北市萬華區西寧南路6之1號3F"
  },
  {
    "dataType": "wifi",
    "category": "運動場館",
    "name": "萬華運動中心4F攀岩場座位區",
    "lat": 25.047458,
    "lng": 121.506867,
    "address": "108臺北市萬華區西寧南路6之1號4F"
  },
  {
    "dataType": "wifi",
    "category": "運動場館",
    "name": "萬華運動中心7F室內座位區",
    "lat": 25.047458,
    "lng": 121.506867,
    "address": "108臺北市萬華區西寧南路6之1號7F"
  },
  {
    "dataType": "wifi",
    "category": "運動場館",
    "name": "萬華運動中心1F櫃臺前方",
    "lat": 25.047511,
    "lng": 121.506872,
    "address": "108臺北市萬華區西寧南路6之1號1F"
  },
  {
    "dataType": "wifi",
    "category": "運動場館",
    "name": "萬華運動中心2F高爾夫球訓練區櫃臺旁",
    "lat": 25.047523,
    "lng": 121.506886,
    "address": "108臺北市萬華區西寧南路6之1號2F"
  },
  {
    "dataType": "wifi",
    "category": "洽公場所",
    "name": "交通部臺灣鐵路管理局局演藝廳-1",
    "lat": 25.047704,
    "lng": 121.517372,
    "address": "100臺北市中正區北平西路3號5樓5136室"
  },
  {
    "dataType": "wifi",
    "category": "洽公場所",
    "name": "交通部臺灣鐵路管理局局演藝廳-3",
    "lat": 25.047704,
    "lng": 121.517372,
    "address": "100臺北市中正區北平西路3號5樓5136室"
  },
  {
    "dataType": "wifi",
    "category": "洽公場所",
    "name": "交通部臺灣鐵路管理局局第1會議室-1",
    "lat": 25.047704,
    "lng": 121.517372,
    "address": "100臺北市中正區北平西路3號5樓5036室"
  },
  {
    "dataType": "wifi",
    "category": "洽公場所",
    "name": "交通部臺灣鐵路管理局局第1會議室-2",
    "lat": 25.047704,
    "lng": 121.517372,
    "address": "100臺北市中正區北平西路3號5樓5036室"
  },
  {
    "dataType": "wifi",
    "category": "洽公場所",
    "name": "交通部臺灣鐵路管理局局第4會議室",
    "lat": 25.047704,
    "lng": 121.517372,
    "address": "100臺北市中正區北平西路3號6樓6007室"
  },
  {
    "dataType": "wifi",
    "category": "洽公場所",
    "name": "交通部臺灣鐵路管理局局第5會議室",
    "lat": 25.047704,
    "lng": 121.517372,
    "address": "100臺北市中正區北平西路3號6樓6046室"
  },
  {
    "dataType": "wifi",
    "category": "洽公場所",
    "name": "交通部臺灣鐵路管理局局第9會議室",
    "lat": 25.047704,
    "lng": 121.517372,
    "address": "100臺北市中正區北平西路3號3樓3081室"
  },
  {
    "dataType": "wifi",
    "category": "洽公場所",
    "name": "交通部臺灣鐵路管理局文檔科檔案室",
    "lat": 25.047704,
    "lng": 121.517372,
    "address": "100臺北市中正區北平西路3號6樓6002室"
  },
  {
    "dataType": "wifi",
    "category": "大眾運輸",
    "name": "臺北車站旅遊服務中心1F服務櫃檯後方",
    "lat": 25.047705,
    "lng": 121.516513,
    "address": "100臺北市中正區北平西路3號1F"
  },
  {
    "dataType": "wifi",
    "category": "洽公場所",
    "name": "臺鐵局行政處檔案閱覽室",
    "lat": 25.047751,
    "lng": 121.517363,
    "address": "100臺北市中正區北平西路3號4樓4101室"
  },
  {
    "dataType": "wifi",
    "category": "洽公場所",
    "name": "臺鐵局材料處公開閱覽室",
    "lat": 25.047751,
    "lng": 121.517363,
    "address": "100臺北市中正區北平西路3號5樓5075室"
  },
  {
    "dataType": "wifi",
    "category": "洽公場所",
    "name": "臺鐵局秘書室國會聯絡室",
    "lat": 25.047751,
    "lng": 121.517363,
    "address": "100臺北市中正區北平西路3號6樓6002室"
  },
  {
    "dataType": "wifi",
    "category": "洽公場所",
    "name": "臺鐵局秘書室新聞聯絡室",
    "lat": 25.047751,
    "lng": 121.517363,
    "address": "100臺北市中正區北平西路3號5樓5007室"
  },
  {
    "dataType": "wifi",
    "category": "洽公場所",
    "name": "交通部臺灣鐵路管理局演藝廳-1",
    "lat": 25.047751,
    "lng": 121.517363,
    "address": "100臺北市中正區北平西路3號5樓"
  },
  {
    "dataType": "wifi",
    "category": "洽公場所",
    "name": "交通部臺灣鐵路管理局演藝廳-2",
    "lat": 25.047751,
    "lng": 121.517363,
    "address": "100臺北市中正區北平西路3號5樓"
  },
  {
    "dataType": "wifi",
    "category": "洽公場所",
    "name": "交通部臺灣鐵路管理局演藝廳-3",
    "lat": 25.047751,
    "lng": 121.517363,
    "address": "100臺北市中正區北平西路3號5樓"
  },
  {
    "dataType": "wifi",
    "category": "洽公場所",
    "name": "交通部臺灣鐵路管理局第1會議室-1",
    "lat": 25.047751,
    "lng": 121.517363,
    "address": "100臺北市中正區北平西路3號5樓"
  },
  {
    "dataType": "wifi",
    "category": "洽公場所",
    "name": "交通部臺灣鐵路管理局第1會議室-2",
    "lat": 25.047751,
    "lng": 121.517363,
    "address": "100臺北市中正區北平西路3號5樓"
  },
  {
    "dataType": "wifi",
    "category": "洽公場所",
    "name": "交通部臺灣鐵路管理局第2會議室",
    "lat": 25.047751,
    "lng": 121.517363,
    "address": "100臺北市中正區北平西路3號5樓"
  },
  {
    "dataType": "wifi",
    "category": "洽公場所",
    "name": "交通部臺灣鐵路管理局第3會議室",
    "lat": 25.047751,
    "lng": 121.517363,
    "address": "100臺北市中正區北平西路3號5樓"
  },
  {
    "dataType": "wifi",
    "category": "洽公場所",
    "name": "交通部臺灣鐵路管理局第4會議室",
    "lat": 25.047751,
    "lng": 121.517363,
    "address": "100臺北市中正區北平西路3號6樓"
  },
  {
    "dataType": "wifi",
    "category": "洽公場所",
    "name": "交通部臺灣鐵路管理局第5會議室",
    "lat": 25.047751,
    "lng": 121.517363,
    "address": "100臺北市中正區北平西路3號6樓"
  },
  {
    "dataType": "wifi",
    "category": "洽公場所",
    "name": "交通部臺灣鐵路管理局第9會議室",
    "lat": 25.047751,
    "lng": 121.517363,
    "address": "100臺北市中正區北平西路3號3樓"
  },
  {
    "dataType": "wifi",
    "category": "洽公場所",
    "name": "台北火車站郵局",
    "lat": 25.047828,
    "lng": 121.517371,
    "address": "100臺北市中正區北平西路3號"
  },
  {
    "dataType": "wifi",
    "category": "藝文場館",
    "name": "臺北記憶倉庫1F機房",
    "lat": 25.047833,
    "lng": 121.512459,
    "address": "100臺北市中正區忠孝西路一段265號1F"
  },
  {
    "dataType": "wifi",
    "category": "洽公場所",
    "name": "財政部臺北國稅局總局1F民眾服務區",
    "lat": 25.047844,
    "lng": 121.509189,
    "address": "108臺北市萬華區中華路一段2號1樓"
  },
  {
    "dataType": "wifi",
    "category": "洽公場所",
    "name": "財政部臺北國稅局總局4F民眾服務區",
    "lat": 25.047844,
    "lng": 121.509189,
    "address": "108臺北市萬華區中華路一段2號4樓"
  },
  {
    "dataType": "wifi",
    "category": "洽公場所",
    "name": "財政部臺北國稅局總局7F民眾服務區",
    "lat": 25.047844,
    "lng": 121.509189,
    "address": "108臺北市萬華區中華路一段2號7樓"
  },
  {
    "dataType": "wifi",
    "category": "大眾運輸節點",
    "name": "臺鐵局臺北站地下一樓東南角",
    "lat": 25.047974,
    "lng": 121.517425,
    "address": "100臺北市中正區北平西路3號"
  },
  {
    "dataType": "wifi",
    "category": "大眾運輸節點",
    "name": "臺鐵局臺北站地下三樓剪收票口(R13)",
    "lat": 25.047974,
    "lng": 121.517425,
    "address": "100臺北市中正區北平西路3號"
  },
  {
    "dataType": "wifi",
    "category": "其他",
    "name": "EMU3000型列車-第(2)編組",
    "lat": 25.04801,
    "lng": 121.51806,
    "address": "100臺北市中正區北平西路3號5樓"
  },
  {
    "dataType": "wifi",
    "category": "其他",
    "name": "EMU3000型列車-第(4)編組",
    "lat": 25.04801,
    "lng": 121.51806,
    "address": "100臺北市中正區北平西路3號5樓"
  },
  {
    "dataType": "wifi",
    "category": "其他",
    "name": "EMU3000型列車-第(5)編組",
    "lat": 25.04801,
    "lng": 121.51806,
    "address": "100臺北市中正區北平西路3號5樓"
  },
  {
    "dataType": "wifi",
    "category": "其他",
    "name": "EMU3000型列車-第(6)編組",
    "lat": 25.04801,
    "lng": 121.51806,
    "address": "100臺北市中正區北平西路3號5樓"
  },
  {
    "dataType": "wifi",
    "category": "其他",
    "name": "EMU3000型列車-第(7)編組",
    "lat": 25.04801,
    "lng": 121.51806,
    "address": "100臺北市中正區北平西路3號5樓"
  },
  {
    "dataType": "wifi",
    "category": "其他",
    "name": "EMU3000型列車-第(8)編組",
    "lat": 25.04801,
    "lng": 121.51806,
    "address": "100臺北市中正區北平西路3號5樓"
  },
  {
    "dataType": "wifi",
    "category": "其他",
    "name": "EMU3000型列車-第(9)編組",
    "lat": 25.04801,
    "lng": 121.51806,
    "address": "100臺北市中正區北平西路3號5樓"
  },
  {
    "dataType": "wifi",
    "category": "其他",
    "name": "EMU3000型列車-第(10)編組",
    "lat": 25.04801,
    "lng": 121.51806,
    "address": "100臺北市中正區北平西路3號5樓"
  },
  {
    "dataType": "wifi",
    "category": "其他",
    "name": "EMU3000型列車-第(12)編組",
    "lat": 25.04801,
    "lng": 121.51806,
    "address": "100臺北市中正區北平西路3號5樓"
  },
  {
    "dataType": "wifi",
    "category": "其他",
    "name": "EMU3000型列車-第(13)編組",
    "lat": 25.04801,
    "lng": 121.51806,
    "address": "100臺北市中正區北平西路3號5樓"
  },
  {
    "dataType": "wifi",
    "category": "其他",
    "name": "EMU3000型列車-第(14)編組",
    "lat": 25.04801,
    "lng": 121.51806,
    "address": "100臺北市中正區北平西路3號5樓"
  },
  {
    "dataType": "wifi",
    "category": "其他",
    "name": "EMU3000型列車-第(15)編組",
    "lat": 25.04801,
    "lng": 121.51806,
    "address": "100臺北市中正區北平西路3號5樓"
  },
  {
    "dataType": "wifi",
    "category": "其他",
    "name": "EMU3000型列車-第(16)編組",
    "lat": 25.04801,
    "lng": 121.51806,
    "address": "100臺北市中正區北平西路3號5樓"
  },
  {
    "dataType": "wifi",
    "category": "其他",
    "name": "EMU3000型列車-第(17)編組",
    "lat": 25.04801,
    "lng": 121.51806,
    "address": "100臺北市中正區北平西路3號5樓"
  },
  {
    "dataType": "wifi",
    "category": "其他",
    "name": "EMU3000型列車-第(18)編組",
    "lat": 25.04801,
    "lng": 121.51806,
    "address": "100臺北市中正區北平西路3號5樓"
  },
  {
    "dataType": "wifi",
    "category": "其他",
    "name": "EMU3000型列車-第(19)編組",
    "lat": 25.04801,
    "lng": 121.51806,
    "address": "100臺北市中正區北平西路3號5樓"
  },
  {
    "dataType": "wifi",
    "category": "其他",
    "name": "EMU3000型列車-第(20)編組",
    "lat": 25.04801,
    "lng": 121.51806,
    "address": "100臺北市中正區北平西路3號5樓"
  },
  {
    "dataType": "wifi",
    "category": "其他",
    "name": "EMU3000型列車-第(21)編組",
    "lat": 25.04801,
    "lng": 121.51806,
    "address": "100臺北市中正區北平西路3號5樓"
  },
  {
    "dataType": "wifi",
    "category": "其他",
    "name": "EMU3000型列車-第(22)編組",
    "lat": 25.04801,
    "lng": 121.51806,
    "address": "100臺北市中正區北平西路3號5樓"
  },
  {
    "dataType": "wifi",
    "category": "其他",
    "name": "EMU3000型列車-第(25)編組",
    "lat": 25.04801,
    "lng": 121.51806,
    "address": "100臺北市中正區北平西路3號5樓"
  },
  {
    "dataType": "wifi",
    "category": "其他",
    "name": "EMU3000型列車-第(26)編組",
    "lat": 25.04801,
    "lng": 121.51806,
    "address": "100臺北市中正區北平西路3號5樓"
  },
  {
    "dataType": "wifi",
    "category": "其他",
    "name": "EMU3000型列車-第(27)編組",
    "lat": 25.04801,
    "lng": 121.51806,
    "address": "100臺北市中正區北平西路3號5樓"
  },
  {
    "dataType": "wifi",
    "category": "其他",
    "name": "EMU3000型列車-第(28)編組",
    "lat": 25.04801,
    "lng": 121.51806,
    "address": "100臺北市中正區北平西路3號5樓"
  },
  {
    "dataType": "wifi",
    "category": "其他",
    "name": "EMU3000型列車-第(29)編組",
    "lat": 25.04801,
    "lng": 121.51806,
    "address": "100臺北市中正區北平西路3號5樓"
  },
  {
    "dataType": "wifi",
    "category": "其他",
    "name": "EMU3000型列車-第(30)編組",
    "lat": 25.04801,
    "lng": 121.51806,
    "address": "100臺北市中正區北平西路3號5樓"
  },
  {
    "dataType": "wifi",
    "category": "其他",
    "name": "EMU3000型列車-第(32)編組",
    "lat": 25.04801,
    "lng": 121.51806,
    "address": "100臺北市中正區北平西路3號5樓"
  },
  {
    "dataType": "wifi",
    "category": "其他",
    "name": "EMU3000型列車-第(33)編組",
    "lat": 25.04801,
    "lng": 121.51806,
    "address": "100臺北市中正區北平西路3號5樓"
  },
  {
    "dataType": "wifi",
    "category": "其他",
    "name": "EMU3000型列車-第(34)編組",
    "lat": 25.04801,
    "lng": 121.51806,
    "address": "100臺北市中正區北平西路3號5樓"
  },
  {
    "dataType": "wifi",
    "category": "其他",
    "name": "EMU3000型列車-第(35)編組",
    "lat": 25.04801,
    "lng": 121.51806,
    "address": "100臺北市中正區北平西路3號5樓"
  },
  {
    "dataType": "wifi",
    "category": "其他",
    "name": "EMU3000型列車-第(36)編組",
    "lat": 25.04801,
    "lng": 121.51806,
    "address": "100臺北市中正區北平西路3號5樓"
  },
  {
    "dataType": "wifi",
    "category": "其他",
    "name": "EMU3000型列車-第(37)編組",
    "lat": 25.04801,
    "lng": 121.51806,
    "address": "100臺北市中正區北平西路3號5樓"
  },
  {
    "dataType": "wifi",
    "category": "大眾運輸節點",
    "name": "臺鐵局臺北站R13票房",
    "lat": 25.048013,
    "lng": 121.517339,
    "address": "100臺北市中正區北平西路3號"
  },
  {
    "dataType": "wifi",
    "category": "大眾運輸節點",
    "name": "臺鐵局臺北站大廳西側",
    "lat": 25.048013,
    "lng": 121.517339,
    "address": "100臺北市中正區北平西路3號"
  },
  {
    "dataType": "wifi",
    "category": "大眾運輸節點",
    "name": "臺鐵局臺北站大廳東側",
    "lat": 25.048013,
    "lng": 121.517339,
    "address": "100臺北市中正區北平西路3號"
  },
  {
    "dataType": "wifi",
    "category": "大眾運輸節點",
    "name": "臺鐵局臺北站西剪票入口(地下1樓)",
    "lat": 25.048013,
    "lng": 121.517339,
    "address": "100臺北市中正區北平西路3號"
  },
  {
    "dataType": "wifi",
    "category": "大眾運輸節點",
    "name": "臺鐵局臺北站東剪票入口(地下1樓)",
    "lat": 25.048013,
    "lng": 121.517339,
    "address": "100臺北市中正區北平西路3號"
  },
  {
    "dataType": "wifi",
    "category": "商圈市集",
    "name": "台北地下街B1F-行政服務中心門口",
    "lat": 25.048032,
    "lng": 121.51827,
    "address": "100臺北市中正區市民大道一段100號B1F"
  },
  {
    "dataType": "wifi",
    "category": "商圈市集",
    "name": "台北地下街B1F-172攤位旁",
    "lat": 25.048094,
    "lng": 121.518271,
    "address": "100臺北市中正區市民大道一段100號B1F"
  },
  {
    "dataType": "wifi",
    "category": "商圈市集",
    "name": "台北地下街B1F-廣場13中央",
    "lat": 25.048274,
    "lng": 121.518128,
    "address": "100臺北市中正區市民大道一段100號B1F"
  },
  {
    "dataType": "wifi",
    "category": "商圈市集",
    "name": "台北地下街B1F-廣場12左側",
    "lat": 25.048312,
    "lng": 121.517924,
    "address": "100臺北市中正區市民大道一段100號B1F"
  },
  {
    "dataType": "wifi",
    "category": "商圈市集",
    "name": "台北地下街B1F-183攤位旁",
    "lat": 25.048345,
    "lng": 121.517947,
    "address": "100臺北市中正區市民大道一段100號B1F"
  },
  {
    "dataType": "wifi",
    "category": "商圈市集",
    "name": "台北地下街B1F-160攤位旁",
    "lat": 25.048421,
    "lng": 121.517337,
    "address": "100臺北市中正區市民大道一段100號B1F"
  },
  {
    "dataType": "wifi",
    "category": "商圈市集",
    "name": "台北地下街B1F-廣場11中央",
    "lat": 25.048421,
    "lng": 121.517352,
    "address": "100臺北市中正區市民大道一段100號B1F"
  },
  {
    "dataType": "wifi",
    "category": "公車站",
    "name": "臺北車站(鄭州)-3-E1-市民大道",
    "lat": 25.048435,
    "lng": 121.517757,
    "address": "100臺北市中正區市民大道與承德路口往東150m候車亭"
  },
  {
    "dataType": "wifi",
    "category": "商圈市集",
    "name": "台北地下街B1F-157攤位旁",
    "lat": 25.048455,
    "lng": 121.516971,
    "address": "100臺北市中正區市民大道一段100號B1F"
  },
  {
    "dataType": "wifi",
    "category": "商圈市集",
    "name": "台北地下街B1F-162攤位旁",
    "lat": 25.048456,
    "lng": 121.517311,
    "address": "100臺北市中正區市民大道一段100號B1F"
  },
  {
    "dataType": "wifi",
    "category": "公車站",
    "name": "臺北車站(鄭州)-2-E-市民大道",
    "lat": 25.048474,
    "lng": 121.517304,
    "address": "100臺北市中正區市民大道與承德路口往東50m候車亭"
  },
  {
    "dataType": "wifi",
    "category": "公車站",
    "name": "臺北車站(鄭州)-E-市民大道",
    "lat": 25.048511,
    "lng": 121.517087,
    "address": "100臺北市中正區市民大道與承德路口往東50m候車亭"
  },
  {
    "dataType": "wifi",
    "category": "商圈市集",
    "name": "台北地下街B1F-143攤位旁",
    "lat": 25.048639,
    "lng": 121.51647,
    "address": "100臺北市中正區市民大道一段100號B1F"
  },
  {
    "dataType": "wifi",
    "category": "商圈市集",
    "name": "台北地下街B1F-廣場12右側",
    "lat": 25.048679,
    "lng": 121.517965,
    "address": "100臺北市中正區市民大道一段100號B1F"
  },
  {
    "dataType": "wifi",
    "category": "商圈市集",
    "name": "台北地下街B1F-133攤位旁",
    "lat": 25.048714,
    "lng": 121.516204,
    "address": "100臺北市中正區市民大道一段100號B1F"
  },
  {
    "dataType": "wifi",
    "category": "商圈市集",
    "name": "台北地下街B1F-廣場10中央",
    "lat": 25.048749,
    "lng": 121.516611,
    "address": "100臺北市中正區市民大道一段100號B1F"
  },
  {
    "dataType": "wifi",
    "category": "商圈市集",
    "name": "台北地下街B1F-126攤位旁",
    "lat": 25.048768,
    "lng": 121.516073,
    "address": "100臺北市中正區市民大道一段100號B1F"
  },
  {
    "dataType": "wifi",
    "category": "商圈市集",
    "name": "台北地下街B1F-100攤位旁",
    "lat": 25.048824,
    "lng": 121.515242,
    "address": "100臺北市中正區市民大道一段100號B1F"
  },
  {
    "dataType": "wifi",
    "category": "商圈市集",
    "name": "台北地下街B1F-廣場9中央",
    "lat": 25.048852,
    "lng": 121.516132,
    "address": "100臺北市中正區市民大道一段100號B1F"
  },
  {
    "dataType": "wifi",
    "category": "行政機關",
    "name": "交通控制中心B3F警務室與交控中心交界處",
    "lat": 25.048868,
    "lng": 121.51878,
    "address": "103臺北市大同區華陰街32號B3F"
  },
  {
    "dataType": "wifi",
    "category": "洽公場所",
    "name": "國立臺灣博物館北門館廳舍演講廳",
    "lat": 25.048914,
    "lng": 121.511445,
    "address": "103臺北市大同區延平北路一段2號"
  },
  {
    "dataType": "wifi",
    "category": "洽公場所",
    "name": "國立臺灣博物館北門館食堂多功能會議室",
    "lat": 25.048914,
    "lng": 121.511445,
    "address": "103臺北市大同區延平北路一段2號"
  },
  {
    "dataType": "wifi",
    "category": "大眾運輸",
    "name": "臺北轉運站1F服務臺旁",
    "lat": 25.048934,
    "lng": 121.518661,
    "address": "103臺北市大同區市民大道一段209號1F"
  },
  {
    "dataType": "wifi",
    "category": "商圈市集",
    "name": "台北地下街B1F-156攤位旁",
    "lat": 25.04894,
    "lng": 121.516294,
    "address": "100臺北市中正區市民大道一段100號B1F"
  },
  {
    "dataType": "wifi",
    "category": "商圈市集",
    "name": "台北地下街B1F-144攤位旁",
    "lat": 25.048979,
    "lng": 121.516089,
    "address": "100臺北市中正區市民大道一段100號B1F"
  },
  {
    "dataType": "wifi",
    "category": "大眾運輸",
    "name": "臺北轉運站1F售票前",
    "lat": 25.048979,
    "lng": 121.518569,
    "address": "103臺北市大同區市民大道一段209號1F"
  },
  {
    "dataType": "wifi",
    "category": "大眾運輸",
    "name": "臺北轉運站2F統聯座位區",
    "lat": 25.048996,
    "lng": 121.518429,
    "address": "103臺北市大同區市民大道一段209號2F"
  },
  {
    "dataType": "wifi",
    "category": "大眾運輸",
    "name": "臺北轉運站2F國光座位區",
    "lat": 25.049009,
    "lng": 121.518396,
    "address": "103臺北市大同區市民大道一段209號2F"
  },
  {
    "dataType": "wifi",
    "category": "公車站",
    "name": "捷運北門站-S1-塔城街",
    "lat": 25.049013,
    "lng": 121.510075,
    "address": "103臺北市大同區塔城街10號捷運北門1號出口旁候車亭"
  },
  {
    "dataType": "wifi",
    "category": "商圈市集",
    "name": "台北地下街B1F-132攤位旁",
    "lat": 25.049014,
    "lng": 121.515948,
    "address": "100臺北市中正區市民大道一段100號B1F"
  },
  {
    "dataType": "wifi",
    "category": "行政機關",
    "name": "交通控制中心B2F零件倉庫駐點座位前",
    "lat": 25.049018,
    "lng": 121.518631,
    "address": "103臺北市大同區華陰街32號B2F"
  },
  {
    "dataType": "wifi",
    "category": "商圈市集",
    "name": "台北地下街B1F-118攤位旁",
    "lat": 25.04904,
    "lng": 121.515714,
    "address": "100臺北市中正區市民大道一段100號B1F"
  },
  {
    "dataType": "wifi",
    "category": "商圈市集",
    "name": "台北地下街B1F-124攤位旁",
    "lat": 25.04904,
    "lng": 121.515714,
    "address": "100臺北市中正區市民大道一段100號B1F"
  },
  {
    "dataType": "wifi",
    "category": "商圈市集",
    "name": "台北地下街B1F-廣場7中央",
    "lat": 25.049065,
    "lng": 121.514982,
    "address": "100臺北市中正區市民大道一段100號B1F"
  },
  {
    "dataType": "wifi",
    "category": "商圈市集",
    "name": "台北地下街B1F-116攤位旁",
    "lat": 25.049066,
    "lng": 121.515709,
    "address": "100臺北市中正區市民大道一段100號B1F"
  },
  {
    "dataType": "wifi",
    "category": "大眾運輸",
    "name": "臺北轉運站4F和欣客運",
    "lat": 25.049107,
    "lng": 121.518406,
    "address": "103臺北市大同區市民大道一段209號4F"
  },
  {
    "dataType": "wifi",
    "category": "商圈市集",
    "name": "台北地下街B1F-廣場8中央",
    "lat": 25.049115,
    "lng": 121.515297,
    "address": "100臺北市中正區市民大道一段100號B1F"
  },
  {
    "dataType": "wifi",
    "category": "商圈市集",
    "name": "台北地下街B1F-91攤位旁",
    "lat": 25.049139,
    "lng": 121.514844,
    "address": "100臺北市中正區市民大道一段100號B1F"
  },
  {
    "dataType": "wifi",
    "category": "大眾運輸",
    "name": "臺北轉運站3F統聯客運彰化",
    "lat": 25.049141,
    "lng": 121.518371,
    "address": "103臺北市大同區市民大道一段209號3F"
  },
  {
    "dataType": "wifi",
    "category": "大眾運輸",
    "name": "臺北轉運站3F統聯客運高雄",
    "lat": 25.04917,
    "lng": 121.518418,
    "address": "103臺北市大同區市民大道一段209號3F"
  },
  {
    "dataType": "wifi",
    "category": "行政機關",
    "name": "交通控制中心B3F辦公室門口",
    "lat": 25.049177,
    "lng": 121.518851,
    "address": "103臺北市大同區華陰街32號B3F"
  },
  {
    "dataType": "wifi",
    "category": "大眾運輸",
    "name": "臺北轉運站4F葛瑪蘭客運",
    "lat": 25.049199,
    "lng": 121.518443,
    "address": "103臺北市大同區市民大道一段209號4F"
  },
  {
    "dataType": "wifi",
    "category": "商圈市集",
    "name": "台北地下街B1F-83攤位旁",
    "lat": 25.049225,
    "lng": 121.51489,
    "address": "100臺北市中正區市民大道一段100號B1F"
  },
  {
    "dataType": "wifi",
    "category": "商圈市集",
    "name": "台北地下街B1F-99攤位旁",
    "lat": 25.049226,
    "lng": 121.514953,
    "address": "100臺北市中正區市民大道一段100號B1F"
  },
  {
    "dataType": "wifi",
    "category": "商圈市集",
    "name": "台北地下街B1F-90攤位旁",
    "lat": 25.049227,
    "lng": 121.514905,
    "address": "100臺北市中正區市民大道一段100號B1F"
  },
  {
    "dataType": "wifi",
    "category": "商圈市集",
    "name": "台北地下街B1F-54攤位旁",
    "lat": 25.049237,
    "lng": 121.51356,
    "address": "100臺北市中正區市民大道一段100號B1F"
  },
  {
    "dataType": "wifi",
    "category": "商圈市集",
    "name": "台北地下街B1F-84攤位旁",
    "lat": 25.049243,
    "lng": 121.513952,
    "address": "100臺北市中正區市民大道一段100號B1F"
  },
  {
    "dataType": "wifi",
    "category": "商圈市集",
    "name": "台北地下街B1F-廣場6中央",
    "lat": 25.04927,
    "lng": 121.514823,
    "address": "100臺北市中正區市民大道一段100號B1F"
  },
  {
    "dataType": "wifi",
    "category": "行政機關",
    "name": "交通控制中心B2F簡報室門口",
    "lat": 25.049279,
    "lng": 121.518828,
    "address": "103臺北市大同區華陰街32號B2F"
  },
  {
    "dataType": "wifi",
    "category": "商圈市集",
    "name": "台北地下街B1F-73攤位旁",
    "lat": 25.04928,
    "lng": 121.514768,
    "address": "100臺北市中正區市民大道一段100號B1F"
  },
  {
    "dataType": "wifi",
    "category": "商圈市集",
    "name": "台北地下街B1F-廣場5中央",
    "lat": 25.049288,
    "lng": 121.513596,
    "address": "100臺北市中正區市民大道一段100號B1F"
  },
  {
    "dataType": "wifi",
    "category": "商圈市集",
    "name": "台北地下街B1F-41攤位旁",
    "lat": 25.04933,
    "lng": 121.513141,
    "address": "100臺北市中正區市民大道一段100號B1F"
  },
  {
    "dataType": "wifi",
    "category": "商圈市集",
    "name": "台北地下街B1F-74攤位旁",
    "lat": 25.049363,
    "lng": 121.513914,
    "address": "100臺北市中正區市民大道一段100號B1F"
  },
  {
    "dataType": "wifi",
    "category": "商圈市集",
    "name": "台北地下街B1F-63攤位旁",
    "lat": 25.04944,
    "lng": 121.513398,
    "address": "100臺北市中正區市民大道一段100號B1F"
  },
  {
    "dataType": "wifi",
    "category": "公車站",
    "name": "捷運北門站-N1-塔城街",
    "lat": 25.049441,
    "lng": 121.510487,
    "address": "103臺北市大同區塔城街10號對面捷運北門2號出口旁候車亭"
  },
  {
    "dataType": "wifi",
    "category": "商圈市集",
    "name": "台北地下街B1F-53攤位旁",
    "lat": 25.049491,
    "lng": 121.513486,
    "address": "100臺北市中正區市民大道一段100號B1F"
  },
  {
    "dataType": "wifi",
    "category": "商圈市集",
    "name": "台北地下街B1F-43攤位旁",
    "lat": 25.049494,
    "lng": 121.513305,
    "address": "100臺北市中正區市民大道一段100號B1F"
  },
  {
    "dataType": "wifi",
    "category": "商圈市集",
    "name": "台北地下街B1F-62攤位旁",
    "lat": 25.049494,
    "lng": 121.513305,
    "address": "100臺北市中正區市民大道一段100號B1F"
  },
  {
    "dataType": "wifi",
    "category": "商圈市集",
    "name": "台北地下街B1F-廣場4中央",
    "lat": 25.049517,
    "lng": 121.513025,
    "address": "100臺北市中正區市民大道一段100號B1F"
  },
  {
    "dataType": "wifi",
    "category": "商圈市集",
    "name": "台北地下街B1F-S30-1攤位旁",
    "lat": 25.049617,
    "lng": 121.512829,
    "address": "100臺北市中正區市民大道一段100號B1F"
  },
  {
    "dataType": "wifi",
    "category": "商圈市集",
    "name": "台北地下街B1F-33攤位旁",
    "lat": 25.049641,
    "lng": 121.512942,
    "address": "100臺北市中正區市民大道一段100號B1F"
  },
  {
    "dataType": "wifi",
    "category": "商圈市集",
    "name": "台北地下街B1F-34攤位旁",
    "lat": 25.049674,
    "lng": 121.512861,
    "address": "100臺北市中正區市民大道一段100號B1F"
  },
  {
    "dataType": "wifi",
    "category": "商圈市集",
    "name": "台北地下街B1F-027攤位旁",
    "lat": 25.049757,
    "lng": 121.512434,
    "address": "100臺北市中正區市民大道一段100號B1F"
  },
  {
    "dataType": "wifi",
    "category": "商圈市集",
    "name": "台北地下街B1F-廣場3中央",
    "lat": 25.049763,
    "lng": 121.512443,
    "address": "100臺北市中正區市民大道一段100號B1F"
  },
  {
    "dataType": "wifi",
    "category": "商圈市集",
    "name": "台北地下街B1F-006攤位旁",
    "lat": 25.049868,
    "lng": 121.511117,
    "address": "100臺北市中正區市民大道一段100號B1F"
  },
  {
    "dataType": "wifi",
    "category": "社區中心",
    "name": "健康社會住宅A1棟1F大廳電信箱上方風扇",
    "lat": 25.049911,
    "lng": 121.512088,
    "address": "105臺北市松山區健康路291~307號1F"
  },
  {
    "dataType": "wifi",
    "category": "商圈市集",
    "name": "台北地下街B1F-廣場1左側",
    "lat": 25.049951,
    "lng": 121.511147,
    "address": "100臺北市中正區市民大道一段100號B1F"
  },
  {
    "dataType": "wifi",
    "category": "商圈市集",
    "name": "台北地下街B1F-022攤位旁",
    "lat": 25.049953,
    "lng": 121.511834,
    "address": "100臺北市中正區市民大道一段100號B1F"
  },
  {
    "dataType": "wifi",
    "category": "商圈市集",
    "name": "台北地下街B1F-021攤位旁",
    "lat": 25.049979,
    "lng": 121.511653,
    "address": "100臺北市中正區市民大道一段100號B1F"
  },
  {
    "dataType": "wifi",
    "category": "公園",
    "name": "玉泉公園-健身房-入口處",
    "lat": 25.050004,
    "lng": 121.507711,
    "address": "103臺北市大同區西寧北路28號玉泉公園-健身房-入口處"
  },
  {
    "dataType": "wifi",
    "category": "公園",
    "name": "玉泉公園-游泳池南側",
    "lat": 25.050033,
    "lng": 121.507473,
    "address": "103臺北市大同區西寧北路28號玉泉公園-游泳池西南側"
  },
  {
    "dataType": "wifi",
    "category": "商圈市集",
    "name": "台北地下街B1F-廣場2中央",
    "lat": 25.050044,
    "lng": 121.511439,
    "address": "100臺北市中正區市民大道一段100號B1F"
  },
  {
    "dataType": "wifi",
    "category": "商圈市集",
    "name": "台北地下街B1F-廣場1右側",
    "lat": 25.05005,
    "lng": 121.51112,
    "address": "100臺北市中正區市民大道一段100號B1F"
  },
  {
    "dataType": "wifi",
    "category": "商圈市集",
    "name": "台北地下街B1F-003攤位旁",
    "lat": 25.050065,
    "lng": 121.511443,
    "address": "100臺北市中正區市民大道一段100號B1F"
  },
  {
    "dataType": "wifi",
    "category": "公車站",
    "name": "聯合醫院中興院區(塔城)-N-塔城街",
    "lat": 25.050632,
    "lng": 121.510571,
    "address": "103臺北市大同區塔城街7號旁候車亭"
  },
  {
    "dataType": "wifi",
    "category": "藝文場館",
    "name": "臺北當代藝術館1F大廳天花板",
    "lat": 25.050808,
    "lng": 121.51913,
    "address": "103臺北市大同區長安西路39號1F"
  },
  {
    "dataType": "wifi",
    "category": "醫院",
    "name": "北市聯醫院本部1F兒童發展評估療育中心綜合治療室門口",
    "lat": 25.050837,
    "lng": 121.50973,
    "address": "103臺北市大同區鄭州路145號"
  },
  {
    "dataType": "wifi",
    "category": "醫院",
    "name": "北市聯醫本部2F兒童發展評估療育中心201會議室門口",
    "lat": 25.050837,
    "lng": 121.50973,
    "address": "103臺北市大同區鄭州路145號"
  },
  {
    "dataType": "wifi",
    "category": "醫院",
    "name": "北市聯醫本部3F301會議室門口",
    "lat": 25.050837,
    "lng": 121.50973,
    "address": "103臺北市大同區鄭州路145號"
  },
  {
    "dataType": "wifi",
    "category": "醫院",
    "name": "北市聯醫本部3F企劃行政中心大門內門口",
    "lat": 25.050837,
    "lng": 121.50973,
    "address": "103臺北市大同區鄭州路145號"
  },
  {
    "dataType": "wifi",
    "category": "醫院",
    "name": "北市聯醫本部4F健康關懷客服中心門口前",
    "lat": 25.050837,
    "lng": 121.50973,
    "address": "103臺北市大同區鄭州路145號"
  },
  {
    "dataType": "wifi",
    "category": "醫院",
    "name": "北市聯醫本部4F醫療事務室緊急出口右前方柱子旁",
    "lat": 25.050837,
    "lng": 121.50973,
    "address": "103臺北市大同區鄭州路145號"
  },
  {
    "dataType": "wifi",
    "category": "醫院",
    "name": "北市聯醫陽明院區5F522病房門口",
    "lat": 25.050837,
    "lng": 121.50973,
    "address": "111臺北市士林區雨聲街105號"
  },
  {
    "dataType": "wifi",
    "category": "醫院",
    "name": "北市聯醫院本部1F兒童發展評估療育中心護理站東側",
    "lat": 25.051054,
    "lng": 121.50986,
    "address": "103臺北市大同區鄭州路145號"
  },
  {
    "dataType": "wifi",
    "category": "醫院",
    "name": "北市聯醫中興院區10F1055病房門口",
    "lat": 25.051095,
    "lng": 121.509352,
    "address": "103臺北市大同區鄭州路145號"
  },
  {
    "dataType": "wifi",
    "category": "醫院",
    "name": "北市聯醫中興院區9F966病房門口",
    "lat": 25.051095,
    "lng": 121.509458,
    "address": "103臺北市大同區鄭州路145號"
  },
  {
    "dataType": "wifi",
    "category": "醫院",
    "name": "北市聯醫中興院區3F運動治療室門外走廊",
    "lat": 25.051096,
    "lng": 121.509384,
    "address": "103臺北市大同區鄭州路145號"
  },
  {
    "dataType": "wifi",
    "category": "醫院",
    "name": "北市聯醫中興院區2F居家護理庫房門口",
    "lat": 25.051096,
    "lng": 121.509505,
    "address": "103臺北市大同區鄭州路145號"
  },
  {
    "dataType": "wifi",
    "category": "醫院",
    "name": "北市聯醫中興院區B1F美食街",
    "lat": 25.051127,
    "lng": 121.509431,
    "address": "103臺北市大同區鄭州路145號"
  },
  {
    "dataType": "wifi",
    "category": "醫院",
    "name": "北市聯醫中興院區6F院長室門口",
    "lat": 25.051175,
    "lng": 121.509221,
    "address": "103臺北市大同區鄭州路145號"
  },
  {
    "dataType": "wifi",
    "category": "洽公場所",
    "name": "臺灣中小企業銀行營業部",
    "lat": 25.051177,
    "lng": 121.510259,
    "address": "103臺北市大同區塔城街30號"
  },
  {
    "dataType": "wifi",
    "category": "醫院",
    "name": "北市聯醫中興院區1F大廳藥局",
    "lat": 25.051182,
    "lng": 121.509538,
    "address": "103臺北市大同區鄭州路145號"
  },
  {
    "dataType": "wifi",
    "category": "醫院",
    "name": "北市聯醫中興院區8F867病房門口",
    "lat": 25.051192,
    "lng": 121.509331,
    "address": "103臺北市大同區鄭州路145號"
  },
  {
    "dataType": "wifi",
    "category": "洽公場所",
    "name": "財政部關務署",
    "lat": 25.051214,
    "lng": 121.510627,
    "address": "103臺北市大同區塔城街13號"
  },
  {
    "dataType": "wifi",
    "category": "洽公場所",
    "name": "第一商業銀行建成分行",
    "lat": 25.05122,
    "lng": 121.5169,
    "address": "103臺北市大同區承德路一段40號"
  },
  {
    "dataType": "wifi",
    "category": "醫院",
    "name": "北市聯醫中興院區10F1066病房門口",
    "lat": 25.051226,
    "lng": 121.509481,
    "address": "103臺北市大同區鄭州路145號"
  },
  {
    "dataType": "wifi",
    "category": "醫院",
    "name": "北市聯醫中興院區9F955病房門口",
    "lat": 25.051248,
    "lng": 121.509523,
    "address": "103臺北市大同區鄭州路145號"
  },
  {
    "dataType": "wifi",
    "category": "醫院",
    "name": "北市聯醫中興院區8F853病房門口",
    "lat": 25.051264,
    "lng": 121.509508,
    "address": "103臺北市大同區鄭州路145號"
  },
  {
    "dataType": "wifi",
    "category": "醫院",
    "name": "北市聯醫中興院區6F骨科中心外走廊中央",
    "lat": 25.05128,
    "lng": 121.50954,
    "address": "103臺北市大同區鄭州路145號"
  },
  {
    "dataType": "wifi",
    "category": "醫院",
    "name": "北市聯醫中興院區B1F腫瘤治療科服務台西側",
    "lat": 25.051288,
    "lng": 121.509267,
    "address": "103臺北市大同區鄭州路145號"
  },
  {
    "dataType": "wifi",
    "category": "公車站",
    "name": "聯合醫院中興院區(西寧)-N-西寧北路",
    "lat": 25.051307,
    "lng": 121.508495,
    "address": "103臺北市大同區西寧北路32號對面候車亭"
  },
  {
    "dataType": "wifi",
    "category": "醫院",
    "name": "北市聯醫中興院區5F心導管室門口",
    "lat": 25.051307,
    "lng": 121.509425,
    "address": "103臺北市大同區鄭州路145號"
  },
  {
    "dataType": "wifi",
    "category": "醫院",
    "name": "北市聯醫中興院區10F民眾休息區中央",
    "lat": 25.051311,
    "lng": 121.509135,
    "address": "103臺北市大同區鄭州路145號"
  },
  {
    "dataType": "wifi",
    "category": "醫院",
    "name": "北市聯醫中興院區9F民眾休息區中央",
    "lat": 25.051333,
    "lng": 121.509147,
    "address": "103臺北市大同區鄭州路145號"
  },
  {
    "dataType": "wifi",
    "category": "醫院",
    "name": "北市聯醫中興院區7F外科醫師執班室門口",
    "lat": 25.051337,
    "lng": 121.509406,
    "address": "103臺北市大同區鄭州路145號"
  },
  {
    "dataType": "wifi",
    "category": "醫院",
    "name": "北市聯醫中興院區3F資訊室會議室門口",
    "lat": 25.051353,
    "lng": 121.5094,
    "address": "103臺北市大同區鄭州路145號"
  },
  {
    "dataType": "wifi",
    "category": "醫院",
    "name": "北市聯醫中興院區B1F病歷室",
    "lat": 25.05136,
    "lng": 121.509448,
    "address": "103臺北市大同區鄭州路145號"
  },
  {
    "dataType": "wifi",
    "category": "醫院",
    "name": "北市聯醫中興院區8F民眾休息區中央",
    "lat": 25.051362,
    "lng": 121.509127,
    "address": "103臺北市大同區鄭州路145號"
  },
  {
    "dataType": "wifi",
    "category": "醫院",
    "name": "北市聯醫中興院區2F精神科門口",
    "lat": 25.051363,
    "lng": 121.50914,
    "address": "103臺北市大同區鄭州路145號"
  },
  {
    "dataType": "wifi",
    "category": "醫院",
    "name": "北市聯醫中興院區10F醫師值班室門口",
    "lat": 25.051372,
    "lng": 121.509419,
    "address": "103臺北市大同區鄭州路145號中興院區10F醫師值班室門口"
  },
  {
    "dataType": "wifi",
    "category": "醫院",
    "name": "北市聯醫中興院區5F家屬等候區中央",
    "lat": 25.051389,
    "lng": 121.509124,
    "address": "103臺北市大同區鄭州路145號"
  },
  {
    "dataType": "wifi",
    "category": "公車站",
    "name": "聯合醫院中興院區(塔城)-S-塔城街",
    "lat": 25.051424,
    "lng": 121.510432,
    "address": "103臺北市大同區塔城街30號旁候車亭"
  },
  {
    "dataType": "wifi",
    "category": "醫院",
    "name": "北市聯醫中興院區6F第一會議室旁",
    "lat": 25.051426,
    "lng": 121.509385,
    "address": "103臺北市大同區鄭州路145號"
  },
  {
    "dataType": "wifi",
    "category": "醫院",
    "name": "北市聯醫中興院區9F神經外科主任室門口",
    "lat": 25.05143,
    "lng": 121.509389,
    "address": "103臺北市大同區鄭州路145號"
  },
  {
    "dataType": "wifi",
    "category": "醫院",
    "name": "北市聯醫中興院區B1F藥劑科走廊",
    "lat": 25.051433,
    "lng": 121.509468,
    "address": "103臺北市大同區鄭州路145號"
  },
  {
    "dataType": "wifi",
    "category": "醫院",
    "name": "北市聯醫中興院區1F健檢中心",
    "lat": 25.051437,
    "lng": 121.509471,
    "address": "103臺北市大同區鄭州路145號"
  },
  {
    "dataType": "wifi",
    "category": "醫院",
    "name": "北市聯醫中興院區8F工友值班室門口",
    "lat": 25.051468,
    "lng": 121.509369,
    "address": "103臺北市大同區鄭州路145號"
  },
  {
    "dataType": "wifi",
    "category": "醫院",
    "name": "北市聯醫中興院區2F老人健康檢查服務處門口",
    "lat": 25.051521,
    "lng": 121.509626,
    "address": "103臺北市大同區鄭州路145號"
  },
  {
    "dataType": "wifi",
    "category": "醫院",
    "name": "北市聯醫中興院區1F急診大門",
    "lat": 25.051534,
    "lng": 121.50898,
    "address": "103臺北市大同區鄭州路145號"
  },
  {
    "dataType": "wifi",
    "category": "醫院",
    "name": "北市聯醫中興院區5F麻醉科辦公室與恢復室中央",
    "lat": 25.051545,
    "lng": 121.509463,
    "address": "103臺北市大同區鄭州路145號"
  },
  {
    "dataType": "wifi",
    "category": "醫院",
    "name": "北市聯醫中興院區1F放設科櫃台",
    "lat": 25.051558,
    "lng": 121.509532,
    "address": "103臺北市大同區鄭州路145號"
  },
  {
    "dataType": "wifi",
    "category": "醫院",
    "name": "北市聯醫中興院區9F945病房門口",
    "lat": 25.051562,
    "lng": 121.509574,
    "address": "103臺北市大同區鄭州路145號"
  },
  {
    "dataType": "wifi",
    "category": "醫院",
    "name": "北市聯醫中興院區6F臨床技能中心門口",
    "lat": 25.051562,
    "lng": 121.509664,
    "address": "103臺北市大同區鄭州路145號"
  },
  {
    "dataType": "wifi",
    "category": "醫院",
    "name": "北市聯醫中興院區8F807病房門口",
    "lat": 25.051579,
    "lng": 121.50898,
    "address": "103臺北市大同區鄭州路145號中興院區8F807病房門口"
  },
  {
    "dataType": "wifi",
    "category": "醫院",
    "name": "北市聯醫中興院區5F內科加護病房配膳室門口",
    "lat": 25.051584,
    "lng": 121.509023,
    "address": "103臺北市大同區鄭州路145號"
  },
  {
    "dataType": "wifi",
    "category": "醫院",
    "name": "北市聯醫中興院區7F745病房門口",
    "lat": 25.051585,
    "lng": 121.509605,
    "address": "103臺北市大同區鄭州路145號"
  },
  {
    "dataType": "wifi",
    "category": "醫院",
    "name": "北市聯醫中興院區2F家庭醫學科門口",
    "lat": 25.051587,
    "lng": 121.509357,
    "address": "103臺北市大同區鄭州路145號"
  },
  {
    "dataType": "wifi",
    "category": "醫院",
    "name": "北市聯醫中興院區9F908病房門口",
    "lat": 25.051593,
    "lng": 121.508791,
    "address": "103臺北市大同區鄭州路145號"
  },
  {
    "dataType": "wifi",
    "category": "醫院",
    "name": "北市聯醫中興院區B1F解剖病理科",
    "lat": 25.051593,
    "lng": 121.509074,
    "address": "103臺北市大同區鄭州路145號"
  },
  {
    "dataType": "wifi",
    "category": "醫院",
    "name": "北市聯醫中興院區8F845病房門口",
    "lat": 25.051594,
    "lng": 121.509572,
    "address": "103臺北市大同區鄭州路145號"
  },
  {
    "dataType": "wifi",
    "category": "醫院",
    "name": "北市聯醫中興院區6F607病房門口",
    "lat": 25.051595,
    "lng": 121.50879,
    "address": "103臺北市大同區鄭州路145號"
  },
  {
    "dataType": "wifi",
    "category": "醫院",
    "name": "北市聯醫中興院區10F1008病房門口",
    "lat": 25.051608,
    "lng": 121.508905,
    "address": "103臺北市大同區鄭州路145號"
  },
  {
    "dataType": "wifi",
    "category": "醫院",
    "name": "北市聯醫中興院區7F766病房門口",
    "lat": 25.051614,
    "lng": 121.509642,
    "address": "103臺北市大同區鄭州路145號"
  },
  {
    "dataType": "wifi",
    "category": "醫院",
    "name": "北市聯醫中興院區7F756病房門口",
    "lat": 25.051614,
    "lng": 121.509642,
    "address": "103臺北市大同區鄭州路145號"
  },
  {
    "dataType": "wifi",
    "category": "醫院",
    "name": "北市聯醫中興院區7F707病房門口",
    "lat": 25.05163,
    "lng": 121.508853,
    "address": "103臺北市大同區鄭州路145號"
  },
  {
    "dataType": "wifi",
    "category": "醫院",
    "name": "北市聯醫中興院區2F小兒科門口",
    "lat": 25.051638,
    "lng": 121.509082,
    "address": "103臺北市大同區鄭州路145號"
  },
  {
    "dataType": "wifi",
    "category": "洽公場所",
    "name": "國民健康署1樓大廳",
    "lat": 25.051644,
    "lng": 121.510316,
    "address": "103臺北市大同區塔城街36號"
  },
  {
    "dataType": "wifi",
    "category": "醫院",
    "name": "北市聯醫中興院區3F檢驗科中央",
    "lat": 25.051648,
    "lng": 121.509048,
    "address": "103臺北市大同區鄭州路145號"
  },
  {
    "dataType": "wifi",
    "category": "醫院",
    "name": "北市聯醫中興院區10F1045病房門口",
    "lat": 25.051657,
    "lng": 121.509594,
    "address": "103臺北市大同區鄭州路145號中興院區10F1045病房門口"
  },
  {
    "dataType": "wifi",
    "category": "醫院",
    "name": "北市聯醫中興院區3F精神內科檢查室",
    "lat": 25.051673,
    "lng": 121.509321,
    "address": "103臺北市大同區鄭州路145號"
  },
  {
    "dataType": "wifi",
    "category": "醫院",
    "name": "北市聯醫中興院區2F中醫科門口",
    "lat": 25.051679,
    "lng": 121.508894,
    "address": "103臺北市大同區鄭州路145號"
  },
  {
    "dataType": "wifi",
    "category": "醫院",
    "name": "北市聯醫中興院區8F816病房門口",
    "lat": 25.051724,
    "lng": 121.509015,
    "address": "103臺北市大同區鄭州路145號中興院區8F816病房門口"
  },
  {
    "dataType": "wifi",
    "category": "醫院",
    "name": "北市聯醫中興院區10F1019病房門口",
    "lat": 25.051729,
    "lng": 121.508992,
    "address": "103臺北市大同區鄭州路145號"
  },
  {
    "dataType": "wifi",
    "category": "醫院",
    "name": "北市聯醫中興院區9F919病房門口",
    "lat": 25.051729,
    "lng": 121.50908,
    "address": "103臺北市大同區鄭州路145號"
  },
  {
    "dataType": "wifi",
    "category": "醫院",
    "name": "北市聯醫中興院區6F618病房門口",
    "lat": 25.051731,
    "lng": 121.508859,
    "address": "103臺北市大同區鄭州路145號"
  },
  {
    "dataType": "wifi",
    "category": "醫院",
    "name": "北市聯醫中興院區7F719病房門口",
    "lat": 25.051731,
    "lng": 121.508944,
    "address": "103臺北市大同區鄭州路145號"
  },
  {
    "dataType": "wifi",
    "category": "醫院",
    "name": "北市聯醫中興院區9F932病房門口",
    "lat": 25.051746,
    "lng": 121.509447,
    "address": "103臺北市大同區鄭州路145號"
  },
  {
    "dataType": "wifi",
    "category": "醫院",
    "name": "北市聯醫中興院區1FX光室後方",
    "lat": 25.051768,
    "lng": 121.509366,
    "address": "103臺北市大同區鄭州路145號"
  },
  {
    "dataType": "wifi",
    "category": "醫院",
    "name": "北市聯醫中興院區10F1032病房門口",
    "lat": 25.05178,
    "lng": 121.509622,
    "address": "103臺北市大同區鄭州路145號中興院區10F1032病房門口"
  },
  {
    "dataType": "wifi",
    "category": "其他",
    "name": "衛生福利部國民健康署2樓",
    "lat": 25.05179,
    "lng": 121.51034,
    "address": "103臺北市大同區塔城街36號2樓"
  },
  {
    "dataType": "wifi",
    "category": "其他",
    "name": "衛生福利部國民健康署3樓B",
    "lat": 25.05179,
    "lng": 121.51034,
    "address": "103臺北市大同區塔城街36號3樓"
  },
  {
    "dataType": "wifi",
    "category": "其他",
    "name": "衛生福利部國民健康署4樓B",
    "lat": 25.05179,
    "lng": 121.51034,
    "address": "103臺北市大同區塔城街36號4樓"
  },
  {
    "dataType": "wifi",
    "category": "其他",
    "name": "衛生福利部國民健康署5樓B",
    "lat": 25.05179,
    "lng": 121.51034,
    "address": "103臺北市大同區塔城街36號5樓"
  },
  {
    "dataType": "wifi",
    "category": "醫院",
    "name": "北市聯醫中興院區8F833病房門口",
    "lat": 25.051799,
    "lng": 121.509459,
    "address": "103臺北市大同區鄭州路145號"
  },
  {
    "dataType": "wifi",
    "category": "醫院",
    "name": "北市聯醫中興院區6F635病房門口",
    "lat": 25.051804,
    "lng": 121.509502,
    "address": "103臺北市大同區鄭州路145號"
  },
  {
    "dataType": "wifi",
    "category": "醫院",
    "name": "北市聯醫中興院區3F內視鏡室門口",
    "lat": 25.051848,
    "lng": 121.50916,
    "address": "103臺北市大同區鄭州路145號"
  },
  {
    "dataType": "wifi",
    "category": "醫院",
    "name": "北市聯醫中興院區6F626病房門口",
    "lat": 25.051882,
    "lng": 121.509218,
    "address": "103臺北市大同區鄭州路145號"
  },
  {
    "dataType": "wifi",
    "category": "其他",
    "name": "台北市大同區圓環社區發展協會",
    "lat": 25.052941,
    "lng": 121.515462,
    "address": "103臺北市大同區建功里重慶北路一段83巷37號"
  },
  {
    "dataType": "wifi",
    "category": "其他",
    "name": "臺北市大同區真善美社區發展協會",
    "lat": 25.053,
    "lng": 121.513,
    "address": "103臺北市大同區朝陽里天水路51巷4-1號二樓"
  },
  {
    "dataType": "wifi",
    "category": "洽公場所",
    "name": "兆豐國際商銀大稻程分行",
    "lat": 25.053081,
    "lng": 121.508504,
    "address": "103臺北市大同區西寧北路62-5號"
  },
  {
    "dataType": "wifi",
    "category": "洽公場所",
    "name": "臺灣銀行延平分行",
    "lat": 25.053095,
    "lng": 121.509816,
    "address": "103臺北市大同區南京西路406號"
  },
  {
    "dataType": "wifi",
    "category": "洽公場所",
    "name": "華南商業銀行建成分行",
    "lat": 25.05339,
    "lng": 121.516346,
    "address": "103臺北市大同區南京西路228號"
  },
  {
    "dataType": "wifi",
    "category": "洽公場所",
    "name": "兆豐國際商銀大同分行",
    "lat": 25.054007,
    "lng": 121.515613,
    "address": "103臺北市大同區南京西路113號"
  },
  {
    "dataType": "wifi",
    "category": "社區中心",
    "name": "大同光能區民活動中心2F天花板中央",
    "lat": 25.054519,
    "lng": 121.518209,
    "address": "103臺北市大同區承德路二段33號2F"
  },
  {
    "dataType": "wifi",
    "category": "商圈市集",
    "name": "永樂市場4F 22攤",
    "lat": 25.054527,
    "lng": 121.510386,
    "address": "103臺北市大同區迪化街一段21號4F"
  },
  {
    "dataType": "wifi",
    "category": "商圈市集",
    "name": "永樂市場3F 3073攤",
    "lat": 25.054527,
    "lng": 121.510731,
    "address": "103臺北市大同區迪化街一段21號3F"
  },
  {
    "dataType": "wifi",
    "category": "商圈市集",
    "name": "永樂市場4F 73攤",
    "lat": 25.054527,
    "lng": 121.51091,
    "address": "103臺北市大同區迪化街一段21號4F"
  },
  {
    "dataType": "wifi",
    "category": "其他",
    "name": "財團法人臺北市松年長春社會福利基金會(大同)",
    "lat": 25.054546,
    "lng": 121.518378,
    "address": "103臺北市大同區光能里承德路二段33號一樓"
  },
  {
    "dataType": "wifi",
    "category": "商圈市集",
    "name": "永樂市場2F 2084攤",
    "lat": 25.054599,
    "lng": 121.510848,
    "address": "103臺北市大同區迪化街一段21號2F"
  },
  {
    "dataType": "wifi",
    "category": "洽公場所",
    "name": "台北圓環郵局",
    "lat": 25.054648,
    "lng": 121.514479,
    "address": "103臺北市大同區重慶北路二段15號"
  },
  {
    "dataType": "wifi",
    "category": "藝文場館",
    "name": "臺北市藝文推廣處社會教育館大稻埕戲苑8F服務臺後方",
    "lat": 25.054668,
    "lng": 121.510852,
    "address": "103臺北市大同區迪化街一段21號8F"
  },
  {
    "dataType": "wifi",
    "category": "行政機關",
    "name": "市場處6F入口",
    "lat": 25.054766,
    "lng": 121.510599,
    "address": "103臺北市大同區迪化街一段21號6F"
  },
  {
    "dataType": "wifi",
    "category": "商圈市集",
    "name": "永樂市場1F1025攤位前",
    "lat": 25.05478,
    "lng": 121.510774,
    "address": "103臺北市大同區迪化街一段21號1F"
  },
  {
    "dataType": "wifi",
    "category": "洽公場所",
    "name": "台北迪化街郵局",
    "lat": 25.054789,
    "lng": 121.509986,
    "address": "103臺北市大同區迪化街一段38號"
  },
  {
    "dataType": "wifi",
    "category": "商圈市集",
    "name": "永樂市場1F1018攤位前",
    "lat": 25.054832,
    "lng": 121.510356,
    "address": "103臺北市大同區迪化街一段21號1F"
  },
  {
    "dataType": "wifi",
    "category": "商圈市集",
    "name": "永樂市場1F1008攤位前",
    "lat": 25.054921,
    "lng": 121.510205,
    "address": "103臺北市大同區迪化街一段21號1F"
  },
  {
    "dataType": "wifi",
    "category": "行政機關",
    "name": "市場處5F人事室門前",
    "lat": 25.054932,
    "lng": 121.510562,
    "address": "103臺北市大同區迪化街一段21號5F"
  },
  {
    "dataType": "wifi",
    "category": "遊客中心",
    "name": "大稻埕遊客中心",
    "lat": 25.054941,
    "lng": 121.509988,
    "address": "103臺北市大同區迪化街一段44號1F"
  },
  {
    "dataType": "wifi",
    "category": "行政機關",
    "name": "市場處6F處長室前",
    "lat": 25.054945,
    "lng": 121.510652,
    "address": "103臺北市大同區迪化街一段21號6F"
  },
  {
    "dataType": "wifi",
    "category": "藝文場館",
    "name": "臺北市藝文推廣處大稻埕戲苑7F教室區",
    "lat": 25.055118,
    "lng": 121.510418,
    "address": "103臺北市大同區迪化街一段21號7F"
  },
  {
    "dataType": "wifi",
    "category": "行政機關",
    "name": "大同士林婦女支持培力中心7F大禮堂內門口前方",
    "lat": 25.055131,
    "lng": 121.510256,
    "address": "103臺北市大同區迪化街一段21號7F"
  },
  {
    "dataType": "wifi",
    "category": "行政機關",
    "name": "市場處6F第一會議室前",
    "lat": 25.055136,
    "lng": 121.510859,
    "address": "103臺北市大同區迪化街一段21號6F"
  },
  {
    "dataType": "wifi",
    "category": "商圈市集",
    "name": "永樂市場2F 2028攤",
    "lat": 25.055214,
    "lng": 121.510305,
    "address": "103臺北市大同區迪化街一段21號2F"
  },
  {
    "dataType": "wifi",
    "category": "商圈市集",
    "name": "永樂市場3F 3021攤",
    "lat": 25.055247,
    "lng": 121.510389,
    "address": "103臺北市大同區迪化街一段21號3F"
  },
  {
    "dataType": "wifi",
    "category": "藝文場館",
    "name": "臺北市藝文推廣處大稻埕戲苑8F門口",
    "lat": 25.055286,
    "lng": 121.510853,
    "address": "103臺北市大同區迪化街一段21號8F"
  },
  {
    "dataType": "wifi",
    "category": "其他",
    "name": "臺北市大同區星明社區發展協會",
    "lat": 25.055317,
    "lng": 121.517597,
    "address": "103臺北市大同區星明里太原路161巷4號"
  },
  {
    "dataType": "wifi",
    "category": "藝文場館",
    "name": "臺北市藝文推廣處大稻埕戲苑9F櫃台",
    "lat": 25.055319,
    "lng": 121.51052,
    "address": "103臺北市大同區迪化街一段21號9F"
  },
  {
    "dataType": "wifi",
    "category": "行政機關",
    "name": "市場處5F秘書室外",
    "lat": 25.055349,
    "lng": 121.510522,
    "address": "103臺北市大同區迪化街一段21號5F"
  },
  {
    "dataType": "wifi",
    "category": "商圈市集",
    "name": "永樂市場1F1401攤位前",
    "lat": 25.05539,
    "lng": 121.510495,
    "address": "103臺北市大同區迪化街一段21號1F"
  },
  {
    "dataType": "wifi",
    "category": "其他",
    "name": "社團法人台北市歐伊寇斯OIKOS社區關懷協會",
    "lat": 25.055402,
    "lng": 121.511458,
    "address": "103臺北市大同區永樂里延平北路二段60巷2號"
  },
  {
    "dataType": "wifi",
    "category": "藝文場館",
    "name": "臺北市藝文推廣處大稻埕戲苑9F後台",
    "lat": 25.055429,
    "lng": 121.510819,
    "address": "103臺北市大同區迪化街一段21號9F"
  },
  {
    "dataType": "wifi",
    "category": "洽公場所",
    "name": "第一商業銀行大稻埕分行",
    "lat": 25.055781,
    "lng": 121.51015,
    "address": "103臺北市大同區迪化街一段63號"
  },
  {
    "dataType": "wifi",
    "category": "公園",
    "name": "朝陽茶葉公園-停車場行人出口處",
    "lat": 25.055825,
    "lng": 121.512801,
    "address": "103臺北市大同區重慶北路二段68號"
  },
  {
    "dataType": "wifi",
    "category": "洽公場所",
    "name": "上海商銀承德分行",
    "lat": 25.055976,
    "lng": 121.518417,
    "address": "103臺北市大同區承德路二段77號"
  },
  {
    "dataType": "wifi",
    "category": "洽公場所",
    "name": "勞動部職業訓練局一樓櫃台",
    "lat": 25.056224,
    "lng": 121.512043,
    "address": "103臺北市大同區延平北路二段83號"
  },
  {
    "dataType": "wifi",
    "category": "洽公場所",
    "name": "華南商業銀行大稻埕分行",
    "lat": 25.056663,
    "lng": 121.511465,
    "address": "103臺北市大同區延平北路二段96號"
  },
  {
    "dataType": "wifi",
    "category": "大眾運輸",
    "name": "大稻埕-大稻埕碼頭貨櫃市集(碼頭售票亭)",
    "lat": 25.056696,
    "lng": 121.507584,
    "address": "103臺北市大同區民生西路底號五號水門"
  },
  {
    "dataType": "wifi",
    "category": "商圈市集",
    "name": "雙連市場B1F 019攤位旁",
    "lat": 25.056853,
    "lng": 121.516862,
    "address": "103臺北市大同區民生西路198號B1F"
  },
  {
    "dataType": "wifi",
    "category": "圖書館",
    "name": "圖書館建成分館4F多功能活動室旁天方板",
    "lat": 25.056899,
    "lng": 121.516515,
    "address": "103臺北市大同區民生西路198號"
  },
  {
    "dataType": "wifi",
    "category": "商圈市集",
    "name": "雙連市場1F 065攤位旁",
    "lat": 25.056906,
    "lng": 121.516527,
    "address": "103臺北市大同區民生西路198號1F"
  },
  {
    "dataType": "wifi",
    "category": "圖書館",
    "name": "圖書館建成分館4F資訊檢索區",
    "lat": 25.056926,
    "lng": 121.516274,
    "address": "103臺北市大同區民生西路198號"
  },
  {
    "dataType": "wifi",
    "category": "圖書館",
    "name": "圖書館建成分館4F筆電區",
    "lat": 25.056955,
    "lng": 121.516686,
    "address": "103臺北市大同區民生西路198號"
  },
  {
    "dataType": "wifi",
    "category": "商圈市集",
    "name": "雙連市場1F 029攤位旁",
    "lat": 25.056956,
    "lng": 121.516574,
    "address": "103臺北市大同區民生西路198號1F"
  },
  {
    "dataType": "wifi",
    "category": "商圈市集",
    "name": "雙連市場1F 020攤位旁",
    "lat": 25.056998,
    "lng": 121.516625,
    "address": "103臺北市大同區民生西路198號1F"
  },
  {
    "dataType": "wifi",
    "category": "藝文場館",
    "name": "新芳春茶行1F焙籠間前",
    "lat": 25.05722,
    "lng": 121.512622,
    "address": "103臺北市大同區民生西路309號1F"
  },
  {
    "dataType": "wifi",
    "category": "藝文場館",
    "name": "新芳春茶行1F資訊服務台前",
    "lat": 25.057332,
    "lng": 121.51252,
    "address": "103臺北市大同區民生西路309號1F"
  },
  {
    "dataType": "wifi",
    "category": "藝文場館",
    "name": "新芳春茶行2F電梯前",
    "lat": 25.057394,
    "lng": 121.512601,
    "address": "103臺北市大同區民生西路309號2F"
  },
  {
    "dataType": "wifi",
    "category": "公園",
    "name": "歸綏戲曲公園-舞台旁",
    "lat": 25.057932,
    "lng": 121.513546,
    "address": "103臺北市大同區歸綏街164-9號"
  },
  {
    "dataType": "wifi",
    "category": "藝文場館",
    "name": "臺灣新文化運動紀念館2F走廊女廁前",
    "lat": 25.059113,
    "lng": 121.515055,
    "address": "103臺北市大同區寧夏路87號2F"
  },
  {
    "dataType": "wifi",
    "category": "圖書館",
    "name": "圖書館延平分館1F綜合服務台",
    "lat": 25.05912,
    "lng": 121.512096,
    "address": "103臺北市大同區保安街47號1F"
  },
  {
    "dataType": "wifi",
    "category": "藝文場館",
    "name": "臺灣新文化運動紀念館1F拘留室監牢",
    "lat": 25.059128,
    "lng": 121.515107,
    "address": "103臺北市大同區寧夏路87號1F"
  },
  {
    "dataType": "wifi",
    "category": "藝文場館",
    "name": "臺灣新文化運動紀念館1F走廊男廁前",
    "lat": 25.059152,
    "lng": 121.515082,
    "address": "103臺北市大同區寧夏路87號1F"
  },
  {
    "dataType": "wifi",
    "category": "圖書館",
    "name": "圖書館延平分館5F期刊報紙區中央",
    "lat": 25.059209,
    "lng": 121.512124,
    "address": "103臺北市大同區保安街47號5F"
  },
  {
    "dataType": "wifi",
    "category": "圖書館",
    "name": "圖書館延平分館4F自修室中央",
    "lat": 25.059211,
    "lng": 121.512105,
    "address": "103臺北市大同區保安街47號4F"
  },
  {
    "dataType": "wifi",
    "category": "圖書館",
    "name": "圖書館延平分館7F書庫電梯口",
    "lat": 25.059231,
    "lng": 121.512109,
    "address": "103臺北市大同區保安街47號7F"
  },
  {
    "dataType": "wifi",
    "category": "圖書館",
    "name": "圖書館延平分館8F電梯門口",
    "lat": 25.059259,
    "lng": 121.512117,
    "address": "103臺北市大同區保安街47號8F"
  },
  {
    "dataType": "wifi",
    "category": "圖書館",
    "name": "圖書館延平分館6F兒童室",
    "lat": 25.059269,
    "lng": 121.512105,
    "address": "103臺北市大同區保安街47號6F"
  },
  {
    "dataType": "wifi",
    "category": "圖書館",
    "name": "圖書館延平分館9F參考資料區",
    "lat": 25.059278,
    "lng": 121.512126,
    "address": "103臺北市大同區保安街47號9F"
  },
  {
    "dataType": "wifi",
    "category": "圖書館",
    "name": "圖書館延平分館10F視聽室",
    "lat": 25.059303,
    "lng": 121.512148,
    "address": "103臺北市大同區保安街47號10F"
  },
  {
    "dataType": "wifi",
    "category": "社區中心",
    "name": "大同延平區民活動中心3F門口",
    "lat": 25.059334,
    "lng": 121.512065,
    "address": "103臺北市大同區保安街47之1號3F"
  },
  {
    "dataType": "wifi",
    "category": "其他",
    "name": "台北市大同區大有里辦公處",
    "lat": 25.059514,
    "lng": 121.510566,
    "address": "103臺北市大同區大有里民樂街179號一樓"
  },
  {
    "dataType": "wifi",
    "category": "洽公場所",
    "name": "台北保安郵局",
    "lat": 25.059914,
    "lng": 121.513766,
    "address": "103臺北市大同區重慶北路二段183號"
  }
]
