[
  {
    "dataType": "wifi",
    "category": "洽公場所",
    "name": "新莊新泰路郵局",
    "lat": 25.041788,
    "lng": 121.44475,
    "address": "242新北市新莊區新泰路333號"
  },
  {
    "dataType": "wifi",
    "category": "其他",
    "name": "財團法人新北市私立雙連社會福利慈善事業基金會(頭前站)",
    "lat": 25.042323,
    "lng": 121.456542,
    "address": "242新北市新莊區思賢里長青街30號三樓"
  },
  {
    "dataType": "wifi",
    "category": "公立醫院",
    "name": "衛生福利部臺北醫院一樓大廳(1)",
    "lat": 25.042965,
    "lng": 121.45958,
    "address": "242新北市新莊區思源路127號"
  },
  {
    "dataType": "wifi",
    "category": "公立醫院",
    "name": "衛生福利部臺北醫院二樓候診區(1)",
    "lat": 25.042965,
    "lng": 121.45958,
    "address": "242新北市新莊區思源路127號"
  },
  {
    "dataType": "wifi",
    "category": "公立醫院",
    "name": "衛生福利部臺北醫院三樓門診候診區",
    "lat": 25.042965,
    "lng": 121.45958,
    "address": "242新北市新莊區思源路127號"
  },
  {
    "dataType": "wifi",
    "category": "公立醫院",
    "name": "衛生福利部臺北醫院八樓大禮堂",
    "lat": 25.042965,
    "lng": 121.45958,
    "address": "242新北市新莊區思源路127號"
  },
  {
    "dataType": "wifi",
    "category": "公立醫院",
    "name": "衛生福利部臺北醫院八樓第一會議室",
    "lat": 25.042965,
    "lng": 121.45958,
    "address": "242新北市新莊區思源路127號"
  },
  {
    "dataType": "wifi",
    "category": "公立醫院",
    "name": "衛生福利部臺北醫院急診候診區",
    "lat": 25.042965,
    "lng": 121.45958,
    "address": "242新北市新莊區思源路127號"
  },
  {
    "dataType": "wifi",
    "category": "公立醫院",
    "name": "衛生福利部臺北醫院一樓大廳(2)",
    "lat": 25.042965,
    "lng": 121.45958,
    "address": "242新北市新莊區思源路127號"
  },
  {
    "dataType": "wifi",
    "category": "公立醫院",
    "name": "衛生福利部臺北醫院二樓候診區(2)",
    "lat": 25.042965,
    "lng": 121.45958,
    "address": "242新北市新莊區思源路127號"
  },
  {
    "dataType": "wifi",
    "category": "公立醫院",
    "name": "衛生福利部臺北醫院中醫科門診區",
    "lat": 25.042965,
    "lng": 121.45958,
    "address": "242新北市新莊區思源路127號"
  },
  {
    "dataType": "wifi",
    "category": "公立醫院",
    "name": "衛生福利部臺北醫院泌尿科門診區",
    "lat": 25.042965,
    "lng": 121.45958,
    "address": "242新北市新莊區思源路127號"
  },
  {
    "dataType": "wifi",
    "category": "洽公場所",
    "name": "新莊中港郵局",
    "lat": 25.043931,
    "lng": 121.454369,
    "address": "242新北市新莊區復興路二段22號"
  },
  {
    "dataType": "wifi",
    "category": "其他",
    "name": "中華民國樂齡生活規劃協會(中港站)",
    "lat": 25.045025,
    "lng": 121.454444,
    "address": "242新北市新莊區自強里中港路288巷53號一樓"
  },
  {
    "dataType": "wifi",
    "category": "洽公場所",
    "name": "兆豐國際商銀思源分行",
    "lat": 25.045163,
    "lng": 121.459399,
    "address": "242新北市新莊區思源路16號"
  },
  {
    "dataType": "wifi",
    "category": "其他",
    "name": "愛相隨親子成長協會",
    "lat": 25.045212,
    "lng": 121.44826,
    "address": "242新北市新莊區中泰里中港一街130號"
  },
  {
    "dataType": "wifi",
    "category": "洽公場所",
    "name": "上海商銀新莊分行",
    "lat": 25.045596,
    "lng": 121.444508,
    "address": "242新北市新莊區中平路85號"
  },
  {
    "dataType": "wifi",
    "category": "其他",
    "name": "中華全齡關懷協會(三重文化站)",
    "lat": 25.047,
    "lng": 121.458,
    "address": "241新北市三重區文化里平安街26號"
  },
  {
    "dataType": "wifi",
    "category": "洽公場所",
    "name": "新莊幸福郵局",
    "lat": 25.048932,
    "lng": 121.449481,
    "address": "242新北市新莊區幸福路723號"
  },
  {
    "dataType": "wifi",
    "category": "其他",
    "name": "新北市光塩愛心關懷協會",
    "lat": 25.050411,
    "lng": 121.442117,
    "address": "242新北市新莊區立廷里立信三街25之3號"
  },
  {
    "dataType": "wifi",
    "category": "洽公場所",
    "name": "新莊昌盛郵局",
    "lat": 25.051171,
    "lng": 121.453374,
    "address": "242新北市新莊區中華路二段160號"
  },
  {
    "dataType": "wifi",
    "category": "洽公場所",
    "name": "文化部-行政院新莊聯合辦公大樓13樓",
    "lat": 25.051712,
    "lng": 121.444715,
    "address": "242新北市新莊區中平路439號南棟13樓"
  },
  {
    "dataType": "wifi",
    "category": "洽公場所",
    "name": "文化部-行政院新莊聯合辦公大樓14樓",
    "lat": 25.051712,
    "lng": 121.444715,
    "address": "242新北市新莊區中平路439號南棟14樓"
  },
  {
    "dataType": "wifi",
    "category": "洽公場所",
    "name": "文化部-行政院新莊聯合辦公大樓15樓",
    "lat": 25.051712,
    "lng": 121.444715,
    "address": "242新北市新莊區中平路439號南棟15樓"
  },
  {
    "dataType": "wifi",
    "category": "洽公場所",
    "name": "文化部-行政院新莊聯合辦公大樓16樓",
    "lat": 25.051712,
    "lng": 121.444715,
    "address": "242新北市新莊區中平路439號南棟16樓"
  },
  {
    "dataType": "wifi",
    "category": "洽公場所",
    "name": "文化部-行政院新莊聯合辦公大樓17樓",
    "lat": 25.051712,
    "lng": 121.444715,
    "address": "242新北市新莊區中平路439號南棟17樓"
  },
  {
    "dataType": "wifi",
    "category": "洽公場所",
    "name": "文化部-行政院新莊聯合辦公大樓18樓",
    "lat": 25.051712,
    "lng": 121.444715,
    "address": "242新北市新莊區中平路439號南棟18樓"
  },
  {
    "dataType": "wifi",
    "category": "洽公場所",
    "name": "行政院新莊聯合辦公大樓-B1國際會議廳-1",
    "lat": 25.05177,
    "lng": 121.444715,
    "address": "242新北市新莊區中平路439號B1"
  },
  {
    "dataType": "wifi",
    "category": "洽公場所",
    "name": "行政院新莊聯合辦公大樓-B1國際會議廳-2",
    "lat": 25.05177,
    "lng": 121.444715,
    "address": "242新北市新莊區中平路439號B1"
  },
  {
    "dataType": "wifi",
    "category": "洽公場所",
    "name": "行政院新莊聯合辦公大樓-B1開放餐廳及公共區域-1",
    "lat": 25.05177,
    "lng": 121.444715,
    "address": "242新北市新莊區中平路439號B1"
  },
  {
    "dataType": "wifi",
    "category": "洽公場所",
    "name": "行政院新莊聯合辦公大樓-B1開放餐廳及公共區域-2",
    "lat": 25.05177,
    "lng": 121.444715,
    "address": "242新北市新莊區中平路439號B1"
  },
  {
    "dataType": "wifi",
    "category": "洽公場所",
    "name": "行政院新莊聯合辦公大樓-B1開放餐廳及公共區域-3",
    "lat": 25.05177,
    "lng": 121.444715,
    "address": "242新北市新莊區中平路439號B1"
  },
  {
    "dataType": "wifi",
    "category": "洽公場所",
    "name": "行政院新莊聯合辦公大樓-B1開放餐廳及公共區域-4",
    "lat": 25.05177,
    "lng": 121.444715,
    "address": "242新北市新莊區中平路439號B1"
  },
  {
    "dataType": "wifi",
    "category": "洽公場所",
    "name": "行政院新莊聯合辦公大樓-2F綠廊201會議室",
    "lat": 25.05177,
    "lng": 121.444715,
    "address": "242新北市新莊區中平路439號2樓"
  },
  {
    "dataType": "wifi",
    "category": "洽公場所",
    "name": "行政院新莊聯合辦公大樓-2F綠廊202會議室",
    "lat": 25.05177,
    "lng": 121.444715,
    "address": "242新北市新莊區中平路439號2樓"
  },
  {
    "dataType": "wifi",
    "category": "洽公場所",
    "name": "行政院新莊聯合辦公大樓-南棟10F公共會議室區-1",
    "lat": 25.05177,
    "lng": 121.444715,
    "address": "242新北市新莊區中平路439號南棟10樓"
  },
  {
    "dataType": "wifi",
    "category": "洽公場所",
    "name": "行政院新莊聯合辦公大樓-南棟10F公共會議室區-2",
    "lat": 25.05177,
    "lng": 121.444715,
    "address": "242新北市新莊區中平路439號南棟10樓"
  },
  {
    "dataType": "wifi",
    "category": "洽公場所",
    "name": "行政院新莊聯合辦公大樓-南棟10F公共會議室區-3",
    "lat": 25.05177,
    "lng": 121.444715,
    "address": "242新北市新莊區中平路439號南棟10樓"
  },
  {
    "dataType": "wifi",
    "category": "洽公場所",
    "name": "行政院新莊聯合辦公大樓-南棟10F公共會議室區-4",
    "lat": 25.05177,
    "lng": 121.444715,
    "address": "242新北市新莊區中平路439號南棟10樓"
  },
  {
    "dataType": "wifi",
    "category": "洽公場所",
    "name": "行政院新莊聯合辦公大樓-南棟10F公共會議室區-5",
    "lat": 25.05177,
    "lng": 121.444715,
    "address": "242新北市新莊區中平路439號南棟10樓"
  },
  {
    "dataType": "wifi",
    "category": "洽公場所",
    "name": "行政院新莊聯合辦公大樓-南棟10F公共會議室區-6",
    "lat": 25.05177,
    "lng": 121.444715,
    "address": "242新北市新莊區中平路439號南棟10樓"
  },
  {
    "dataType": "wifi",
    "category": "洽公場所",
    "name": "行政院新莊聯合辦公大樓-南棟2F2塊小辦公區",
    "lat": 25.05177,
    "lng": 121.444715,
    "address": "242新北市新莊區中平路439號南棟2樓"
  },
  {
    "dataType": "wifi",
    "category": "洽公場所",
    "name": "行政院新莊聯合辦公大樓-北棟1F南側展示廳-1",
    "lat": 25.05177,
    "lng": 121.444715,
    "address": "242新北市新莊區中平路439號北棟1樓"
  },
  {
    "dataType": "wifi",
    "category": "洽公場所",
    "name": "行政院新莊聯合辦公大樓-南棟1F大廳櫃臺",
    "lat": 25.05177,
    "lng": 121.444715,
    "address": "242新北市新莊區中平路439號南棟1樓"
  },
  {
    "dataType": "wifi",
    "category": "洽公場所",
    "name": "行政院新莊聯合辦公大樓-南棟1F南側展示廳-1",
    "lat": 25.05177,
    "lng": 121.444715,
    "address": "242新北市新莊區中平路439號南棟1樓"
  },
  {
    "dataType": "wifi",
    "category": "洽公場所",
    "name": "行政院新莊聯合辦公大樓-南棟1F南側展示廳-2",
    "lat": 25.05177,
    "lng": 121.444715,
    "address": "242新北市新莊區中平路439號南棟1樓"
  },
  {
    "dataType": "wifi",
    "category": "洽公場所",
    "name": "行政院新莊聯合辦公大樓-南棟1F辦公區-1",
    "lat": 25.05177,
    "lng": 121.444715,
    "address": "242新北市新莊區中平路439號南棟1樓"
  },
  {
    "dataType": "wifi",
    "category": "洽公場所",
    "name": "行政院新莊聯合辦公大樓-南棟1F辦公區-2",
    "lat": 25.05177,
    "lng": 121.444715,
    "address": "242新北市新莊區中平路439號南棟1樓"
  },
  {
    "dataType": "wifi",
    "category": "洽公場所",
    "name": "行政院新莊聯合辦公大樓-北棟10F公共會議室區-1",
    "lat": 25.05177,
    "lng": 121.444715,
    "address": "242新北市新莊區中平路439號北棟10樓"
  },
  {
    "dataType": "wifi",
    "category": "洽公場所",
    "name": "行政院新莊聯合辦公大樓-北棟10F公共會議室區-2",
    "lat": 25.05177,
    "lng": 121.444715,
    "address": "242新北市新莊區中平路439號北棟10樓"
  },
  {
    "dataType": "wifi",
    "category": "洽公場所",
    "name": "行政院新莊聯合辦公大樓-北棟10F公共會議室區-3",
    "lat": 25.05177,
    "lng": 121.444715,
    "address": "242新北市新莊區中平路439號北棟10樓"
  },
  {
    "dataType": "wifi",
    "category": "洽公場所",
    "name": "行政院新莊聯合辦公大樓-北棟10F公共會議室區-4",
    "lat": 25.05177,
    "lng": 121.444715,
    "address": "242新北市新莊區中平路439號北棟10樓"
  },
  {
    "dataType": "wifi",
    "category": "洽公場所",
    "name": "行政院新莊聯合辦公大樓-北棟10F公共會議室區-5",
    "lat": 25.05177,
    "lng": 121.444715,
    "address": "242新北市新莊區中平路439號北棟10樓"
  },
  {
    "dataType": "wifi",
    "category": "洽公場所",
    "name": "行政院新莊聯合辦公大樓-北棟10F公共會議室區-6",
    "lat": 25.05177,
    "lng": 121.444715,
    "address": "242新北市新莊區中平路439號北棟10樓"
  },
  {
    "dataType": "wifi",
    "category": "洽公場所",
    "name": "行政院新莊聯合辦公大樓-北棟2F2塊小辦公區",
    "lat": 25.05177,
    "lng": 121.444715,
    "address": "242新北市新莊區中平路439號北棟2樓"
  },
  {
    "dataType": "wifi",
    "category": "洽公場所",
    "name": "行政院新莊聯合辦公大樓-北棟2F挑高區",
    "lat": 25.05177,
    "lng": 121.444715,
    "address": "242新北市新莊區中平路439號北棟2樓"
  },
  {
    "dataType": "wifi",
    "category": "洽公場所",
    "name": "行政院新莊聯合辦公大樓-北棟1F大廳櫃臺",
    "lat": 25.05177,
    "lng": 121.444715,
    "address": "242新北市新莊區中平路439號北棟1樓"
  },
  {
    "dataType": "wifi",
    "category": "洽公場所",
    "name": "行政院新莊聯合辦公大樓-南棟2F挑高區",
    "lat": 25.05177,
    "lng": 121.444715,
    "address": "242新北市新莊區中平路439號南棟2樓"
  },
  {
    "dataType": "wifi",
    "category": "洽公場所",
    "name": "行政院新莊聯合辦公大樓-北棟1F南側展示廳-2",
    "lat": 25.05177,
    "lng": 121.444715,
    "address": "242新北市新莊區中平路439號北棟1樓"
  },
  {
    "dataType": "wifi",
    "category": "洽公場所",
    "name": "行政院新莊聯合辦公大樓-北棟1F辦公區-1",
    "lat": 25.05177,
    "lng": 121.444715,
    "address": "242新北市新莊區中平路439號北棟1樓"
  },
  {
    "dataType": "wifi",
    "category": "洽公場所",
    "name": "行政院新莊聯合辦公大樓-北棟1F辦公區-2",
    "lat": 25.05177,
    "lng": 121.444715,
    "address": "242新北市新莊區中平路439號北棟1樓"
  },
  {
    "dataType": "wifi",
    "category": "洽公場所",
    "name": "華南商業銀行北新莊分行",
    "lat": 25.051797,
    "lng": 121.452629,
    "address": "242新北市新莊區中華路二段211號"
  },
  {
    "dataType": "wifi",
    "category": "其他",
    "name": "中華民國樂齡生活規劃協會(福壽站)",
    "lat": 25.052214,
    "lng": 121.457633,
    "address": "242新北市新莊區信義里福壽街124巷12號一樓"
  },
  {
    "dataType": "wifi",
    "category": "其他",
    "name": "原住民族委員會一樓廣場",
    "lat": 25.052274,
    "lng": 121.44484,
    "address": "242新北市新莊區中平路439號北棟"
  },
  {
    "dataType": "wifi",
    "category": "洽公場所",
    "name": "原住民族委員會14樓大型會議室A",
    "lat": 25.052274,
    "lng": 121.44484,
    "address": "242新北市新莊區中平路439號北棟"
  },
  {
    "dataType": "wifi",
    "category": "洽公場所",
    "name": "原住民族委員會14樓大型會議室B",
    "lat": 25.052274,
    "lng": 121.44484,
    "address": "242新北市新莊區中平路439號北棟"
  },
  {
    "dataType": "wifi",
    "category": "洽公場所",
    "name": "原住民族委員會15樓中型會議室",
    "lat": 25.052274,
    "lng": 121.44484,
    "address": "242新北市新莊區中平路439號北棟"
  },
  {
    "dataType": "wifi",
    "category": "洽公場所",
    "name": "原住民族委員會16樓小型會議室",
    "lat": 25.052274,
    "lng": 121.44484,
    "address": "242新北市新莊區中平路439號北棟"
  },
  {
    "dataType": "wifi",
    "category": "洽公場所",
    "name": "原住民族委員會16樓原住民文物展示區A",
    "lat": 25.052274,
    "lng": 121.44484,
    "address": "242新北市新莊區中平路439號北棟"
  },
  {
    "dataType": "wifi",
    "category": "洽公場所",
    "name": "原住民族委員會16樓原住民文物展示區B",
    "lat": 25.052274,
    "lng": 121.44484,
    "address": "242新北市新莊區中平路439號北棟"
  },
  {
    "dataType": "wifi",
    "category": "洽公場所",
    "name": "上海商銀北新莊分行",
    "lat": 25.052406,
    "lng": 121.452325,
    "address": "242新北市新莊區中華路二段187號"
  },
  {
    "dataType": "wifi",
    "category": "洽公場所",
    "name": "兆豐國際商銀新莊分行",
    "lat": 25.052773,
    "lng": 121.45967,
    "address": "242新北市新莊區思源路421號"
  },
  {
    "dataType": "wifi",
    "category": "洽公場所",
    "name": "第一商業銀行(幸福分行)",
    "lat": 25.055538,
    "lng": 121.444274,
    "address": "242新北市新莊區中平路435號"
  },
  {
    "dataType": "wifi",
    "category": "洽公場所",
    "name": "法務部行政執行署新北分署12樓民眾等候區南區",
    "lat": 25.055957,
    "lng": 121.444531,
    "address": "242新北市新莊區中平路439號北棟12樓"
  },
  {
    "dataType": "wifi",
    "category": "洽公場所",
    "name": "法務部行政執行署新北分署13樓民眾等候區南區",
    "lat": 25.055957,
    "lng": 121.444531,
    "address": "242新北市新莊區中平路439號北棟13樓"
  },
  {
    "dataType": "wifi",
    "category": "洽公場所",
    "name": "行政院勞動部勞工保險局新莊合署辦公大樓(南棟1樓)",
    "lat": 25.056122,
    "lng": 121.443083,
    "address": "220新北市新莊區中平路439號南棟1樓"
  },
  {
    "dataType": "wifi",
    "category": "文教館所",
    "name": "國家電影及視聽文化中心1樓",
    "lat": 25.056645,
    "lng": 121.446926,
    "address": "242新北市新莊區文藝路2號1F"
  },
  {
    "dataType": "wifi",
    "category": "文教館所",
    "name": "國家電影及視聽文化中心1樓-2",
    "lat": 25.056645,
    "lng": 121.446926,
    "address": "242新北市新莊區文藝路2號1F"
  },
  {
    "dataType": "wifi",
    "category": "文教館所",
    "name": "國家電影及視聽文化中心2樓",
    "lat": 25.056645,
    "lng": 121.446926,
    "address": "242新北市新莊區文藝路2號2F"
  },
  {
    "dataType": "wifi",
    "category": "文教館所",
    "name": "國家電影及視聽文化中心3樓",
    "lat": 25.056645,
    "lng": 121.446926,
    "address": "242新北市新莊區文藝路2號3F"
  },
  {
    "dataType": "wifi",
    "category": "文教館所",
    "name": "國家電影及視聽文化中心4樓",
    "lat": 25.056645,
    "lng": 121.446926,
    "address": "242新北市新莊區文藝路2號4F"
  },
  {
    "dataType": "wifi",
    "category": "洽公場所",
    "name": "新莊副都心郵局",
    "lat": 25.056668,
    "lng": 121.44377,
    "address": "242新北市新莊區中平路439號北棟1樓"
  },
  {
    "dataType": "wifi",
    "category": "洽公場所",
    "name": "原住民族委員會14、15、16樓",
    "lat": 25.056683,
    "lng": 121.443476,
    "address": "242新北市新莊區中平路439號北棟14、15、16樓"
  },
  {
    "dataType": "wifi",
    "category": "洽公場所",
    "name": "客家委員會17樓-北側",
    "lat": 25.056808,
    "lng": 121.443352,
    "address": "242新北市新莊區中平路439號北棟17樓"
  },
  {
    "dataType": "wifi",
    "category": "洽公場所",
    "name": "客家委員會17樓-南側",
    "lat": 25.056808,
    "lng": 121.443352,
    "address": "242新北市新莊區中平路439號北棟17樓"
  },
  {
    "dataType": "wifi",
    "category": "洽公場所",
    "name": "客家委員會18樓-北側",
    "lat": 25.056808,
    "lng": 121.443352,
    "address": "242新北市新莊區中平路439號北棟18樓"
  },
  {
    "dataType": "wifi",
    "category": "洽公場所",
    "name": "客家委員會18樓-南側",
    "lat": 25.056808,
    "lng": 121.443352,
    "address": "242新北市新莊區中平路439號北棟18樓"
  },
  {
    "dataType": "wifi",
    "category": "其他",
    "name": "國家兒童未來館籌備處",
    "lat": 25.05682,
    "lng": 121.44335,
    "address": "242新北市新莊區中平路439號北棟9樓"
  },
  {
    "dataType": "wifi",
    "category": "洽公場所",
    "name": "法務部行政執行署新北分署12樓民眾等候區",
    "lat": 25.057379,
    "lng": 121.443421,
    "address": "242新北市新莊區中平路439號北棟12樓"
  },
  {
    "dataType": "wifi",
    "category": "洽公場所",
    "name": "臺灣土地銀行新莊分行",
    "lat": 25.05834,
    "lng": 121.45931,
    "address": "242新北市新莊區思源路553號"
  },
  {
    "dataType": "wifi",
    "category": "其他",
    "name": "財團法人新北市私立雙連社會福利慈善事業基金會(新北市新莊昌平公共托老中心)",
    "lat": 25.058587,
    "lng": 121.456977,
    "address": "242新北市新莊區昌平里中央路51號三樓"
  }
]
