[
  {
    "dataType": "wifi",
    "category": "其他",
    "name": "社團法人台灣認知功能促進協會",
    "lat": 25.00019,
    "lng": 121.431413,
    "address": "242新北市新莊區西盛里樹新路222號四樓"
  },
  {
    "dataType": "wifi",
    "category": "洽公場所",
    "name": "樹林樹新路郵局",
    "lat": 25.000696,
    "lng": 121.431064,
    "address": "238新北市樹林區樹新路229號"
  },
  {
    "dataType": "wifi",
    "category": "其他",
    "name": "交通部公路總局第一區養護工程處",
    "lat": 25.005939,
    "lng": 121.420104,
    "address": "238新北市樹林區中正路212號"
  },
  {
    "dataType": "wifi",
    "category": "洽公場所",
    "name": "臺灣土地銀行南新莊分行",
    "lat": 25.013051,
    "lng": 121.432722,
    "address": "242新北市新莊區新樹路288-23號1-3樓"
  },
  {
    "dataType": "wifi",
    "category": "洽公場所",
    "name": "新莊西盛郵局",
    "lat": 25.013276,
    "lng": 121.432793,
    "address": "242新北市新莊區新樹路457號"
  },
  {
    "dataType": "wifi",
    "category": "洽公場所",
    "name": "新莊民安郵局",
    "lat": 25.019611,
    "lng": 121.427196,
    "address": "242新北市新莊區民安西路85號"
  }
]
