[
  {
    "dataType": "wifi",
    "category": "其他",
    "name": "新北市板橋區龍興社區發展協會",
    "lat": 25.000828,
    "lng": 121.443218,
    "address": "220新北市板橋區龍安里2鄰龍興街42號B1"
  },
  {
    "dataType": "wifi",
    "category": "其他",
    "name": "新北市板橋區大浮洲發展協進會(龍安站)",
    "lat": 25.001209,
    "lng": 121.44269,
    "address": "220新北市板橋區龍安里大觀路二段174巷118弄12號一樓"
  },
  {
    "dataType": "wifi",
    "category": "其他",
    "name": "行政院國軍退除役官兵輔導委員會板橋榮譽國民之家",
    "lat": 25.001225,
    "lng": 121.445531,
    "address": "220新北市板橋區復興里大觀路二段32號"
  },
  {
    "dataType": "wifi",
    "category": "洽公場所",
    "name": "國軍退除役官兵輔導委員會板橋榮譽國民之家行政大樓一樓輔導室",
    "lat": 25.001243,
    "lng": 121.445571,
    "address": "220新北市板橋區大觀路二段32號"
  },
  {
    "dataType": "wifi",
    "category": "其他",
    "name": "新北市板橋大後埔文化關懷協進會-華興站",
    "lat": 25.003405,
    "lng": 121.454672,
    "address": "220新北市板橋區華興里南雅南路二段1之1號"
  },
  {
    "dataType": "wifi",
    "category": "其他",
    "name": "新北市板橋區大浮洲發展協進會(大安站)",
    "lat": 25.003418,
    "lng": 121.447534,
    "address": "220新北市板橋區大安里大觀路二段7巷14號"
  },
  {
    "dataType": "wifi",
    "category": "洽公場所",
    "name": "板橋南雅郵局",
    "lat": 25.004622,
    "lng": 121.455276,
    "address": "220新北市板橋區南雅南路一段123號"
  },
  {
    "dataType": "wifi",
    "category": "其他",
    "name": "新北市華福關懷協會",
    "lat": 25.005,
    "lng": 121.458,
    "address": "220新北市板橋區華福里大華街居安巷31號"
  },
  {
    "dataType": "wifi",
    "category": "洽公場所",
    "name": "第一商業銀行(板橋分行)",
    "lat": 25.005197,
    "lng": 121.459893,
    "address": "220新北市板橋區四川路一段107號"
  },
  {
    "dataType": "wifi",
    "category": "大眾運輸節點",
    "name": "臺鐵局浮洲站車站大廳",
    "lat": 25.008453,
    "lng": 121.446126,
    "address": "220新北市板橋區僑中二街156號"
  },
  {
    "dataType": "wifi",
    "category": "其他",
    "name": "財團法人台北市基督教台灣貴格會國光教會",
    "lat": 25.008462,
    "lng": 121.457959,
    "address": "220新北市板橋區流芳里東門街30之2號四樓"
  },
  {
    "dataType": "wifi",
    "category": "洽公場所",
    "name": "臺灣銀行板橋分行",
    "lat": 25.00928,
    "lng": 121.459375,
    "address": "220新北市板橋區府中路21號"
  },
  {
    "dataType": "wifi",
    "category": "其他",
    "name": "新北市板橋區大浮洲發展協進會(板橋浮洲站)",
    "lat": 25.010128,
    "lng": 121.449929,
    "address": "220新北市板橋區浮洲里大觀路一段28巷50號"
  },
  {
    "dataType": "wifi",
    "category": "其他",
    "name": "社團法人臺北市惜米翁社會福祉協會",
    "lat": 25.011114,
    "lng": 121.459809,
    "address": "220新北市板橋區挹秀里文化路一段32巷10號一樓"
  },
  {
    "dataType": "wifi",
    "category": "其他",
    "name": "新北市板橋區玉山青年會(華中站)",
    "lat": 25.012855,
    "lng": 121.446615,
    "address": "220新北市板橋區華中里僑中一街102巷7弄3號"
  },
  {
    "dataType": "wifi",
    "category": "洽公場所",
    "name": "板橋中正路郵局",
    "lat": 25.013057,
    "lng": 121.456121,
    "address": "220新北市板橋區中正路35號"
  },
  {
    "dataType": "wifi",
    "category": "洽公場所",
    "name": "上海商銀板橋分行",
    "lat": 25.013862,
    "lng": 121.456241,
    "address": "220新北市板橋區中正路69號"
  },
  {
    "dataType": "wifi",
    "category": "其他",
    "name": "新北市大社后愛心關懷協進會(北極壇站)",
    "lat": 25.014645,
    "lng": 121.457057,
    "address": "220新北市板橋區社後里中正路80巷5號一樓"
  },
  {
    "dataType": "wifi",
    "category": "其他",
    "name": "財團法人新北市自強基督教板橋浸禮聖經會",
    "lat": 25.014818,
    "lng": 121.455744,
    "address": "220新北市板橋區自強里大智街13號"
  },
  {
    "dataType": "wifi",
    "category": "其他",
    "name": "板橋區老人會",
    "lat": 25.014964,
    "lng": 121.456644,
    "address": "220新北市板橋區社後里中正路86號"
  },
  {
    "dataType": "wifi",
    "category": "其他",
    "name": "新北市中正愛心關懷協會(板橋自立站)",
    "lat": 25.015628,
    "lng": 121.453394,
    "address": "220新北市板橋區自立里大智街77號"
  },
  {
    "dataType": "wifi",
    "category": "其他",
    "name": "新北市大社后愛心關懷協進會-民權站",
    "lat": 25.016156,
    "lng": 121.459523,
    "address": "220新北市板橋區民權路202巷9弄40號一樓"
  },
  {
    "dataType": "wifi",
    "category": "其他",
    "name": "新北市大社后愛心關懷協進會(香社站)",
    "lat": 25.017808,
    "lng": 121.452762,
    "address": "220新北市板橋區香社里中正路275巷69號一樓"
  }
]
