[
  {
    "dataType": "wifi",
    "category": "洽公場所",
    "name": "嘉義市西區衛生所",
    "lat": 23.480016,
    "lng": 120.431002,
    "address": "600嘉義市西區德明路1號"
  },
  {
    "dataType": "wifi",
    "category": "大眾運輸節點",
    "name": "嘉義市農會(前候車亭)",
    "lat": 23.480041,
    "lng": 120.429879,
    "address": "600嘉義市西區北港路251號旁"
  },
  {
    "dataType": "wifi",
    "category": "公立醫院",
    "name": "嘉義醫院-10樓左側陽光室",
    "lat": 23.481051,
    "lng": 120.42882,
    "address": "600嘉義市西區北港路312號"
  },
  {
    "dataType": "wifi",
    "category": "公立醫院",
    "name": "嘉義醫院-1樓大廳口",
    "lat": 23.481051,
    "lng": 120.42882,
    "address": "600嘉義市西區北港路312號"
  },
  {
    "dataType": "wifi",
    "category": "其他",
    "name": "嘉義市西區竹圍社區發展協會",
    "lat": 23.48373,
    "lng": 120.43238,
    "address": "600嘉義市西區竹圍里竹圍路17號"
  },
  {
    "dataType": "wifi",
    "category": "其他",
    "name": "嘉義市婦女福利服務中心",
    "lat": 23.484321,
    "lng": 120.43318,
    "address": "600嘉義市西區德安路6號"
  },
  {
    "dataType": "wifi",
    "category": "文教館所",
    "name": "嘉義市婦女福利服務中心4樓演講廳",
    "lat": 23.48441,
    "lng": 120.43311,
    "address": "600嘉義市西區德安路6號4樓"
  },
  {
    "dataType": "wifi",
    "category": "洽公場所",
    "name": "嘉義北社郵局",
    "lat": 23.485537,
    "lng": 120.438174,
    "address": "600嘉義市西區北興街245號"
  },
  {
    "dataType": "wifi",
    "category": "文教館所",
    "name": "嘉義市世賢圖書館室內2樓",
    "lat": 23.488576,
    "lng": 120.427916,
    "address": "600嘉義市西區世賢路一段685號"
  },
  {
    "dataType": "wifi",
    "category": "文教館所",
    "name": "嘉義市世賢圖書館",
    "lat": 23.490121,
    "lng": 120.428545,
    "address": "600嘉義市西區世賢路一段685號"
  },
  {
    "dataType": "wifi",
    "category": "其他",
    "name": "財團法人嘉義市私立保康社會福利慈善事業基金會-祈樂園",
    "lat": 23.49175,
    "lng": 120.43346,
    "address": "600嘉義市西區保生里自由路426號"
  },
  {
    "dataType": "wifi",
    "category": "洽公場所",
    "name": "嘉義保安郵局",
    "lat": 23.492926,
    "lng": 120.434951,
    "address": "600嘉義市西區保安里保安一路241號"
  },
  {
    "dataType": "wifi",
    "category": "旅遊景點",
    "name": "嘉義市友愛綜合球場",
    "lat": 23.493016,
    "lng": 120.437364,
    "address": "600嘉義市西區友愛路629號廁所旁"
  },
  {
    "dataType": "wifi",
    "category": "旅遊景點",
    "name": "嘉義市北社尾公園",
    "lat": 23.494677,
    "lng": 120.42538,
    "address": "600嘉義市西區北社尾路203巷尾"
  },
  {
    "dataType": "wifi",
    "category": "文教館所",
    "name": "嘉義市北園國中",
    "lat": 23.494741,
    "lng": 120.427235,
    "address": "600嘉義市西區雙園街280號"
  }
]
