[
  {
    "name": "第一商業銀行嘉義分行",
    "lat": 23.48001,
    "lng": 120.449801,
    "address": "600嘉義市東區中山路307號"
  },
  {
    "name": "嘉義東門郵局",
    "lat": 23.480121,
    "lng": 120.456044,
    "address": "600嘉義市東區中正路141號"
  },
  {
    "name": "古蹟東門派出所",
    "lat": 23.4803747,
    "lng": 120.4554613,
    "address": "600嘉義市東區公明路236號"
  },
  {
    "name": "嘉義市中山路商圈(興中街口)",
    "lat": 23.480522,
    "lng": 120.451079,
    "address": "600嘉義市東區中山路263號前號誌燈桿"
  },
  {
    "name": "嘉義市政府2樓",
    "lat": 23.481026,
    "lng": 120.453676,
    "address": "600嘉義市東區中山路199號2樓"
  },
  {
    "name": "嘉義市政府7樓",
    "lat": 23.481026,
    "lng": 120.453676,
    "address": "600嘉義市東區中山路199號7樓"
  },
  {
    "name": "嘉義市政府九樓禮堂",
    "lat": 23.481068,
    "lng": 120.453789,
    "address": "600嘉義市東區中山路199號9樓"
  },
  {
    "name": "交通部公路總局第五區養護工程處",
    "lat": 23.481255,
    "lng": 120.457663,
    "address": "600嘉義市東區安和街209號"
  },
  {
    "name": "嘉義市警察局禮堂(警察局5樓)",
    "lat": 23.481281,
    "lng": 120.454736,
    "address": "600嘉義市東區中山路195號5樓"
  },
  {
    "name": "嘉義市政府中庭",
    "lat": 23.481305,
    "lng": 120.453597,
    "address": "600嘉義市東區中山路199號"
  },
  {
    "name": "嘉義市政府6樓會議室",
    "lat": 23.481315,
    "lng": 120.453599,
    "address": "600嘉義市東區中山路199號6樓"
  },
  {
    "name": "嘉義市政府8樓會議室",
    "lat": 23.481315,
    "lng": 120.453599,
    "address": "600嘉義市東區中山路199號8樓"
  },
  {
    "name": "嘉義市文化路商圈1",
    "lat": 23.481322,
    "lng": 120.449167,
    "address": "600嘉義市東區文化路179號對面(中央廣場電話亭)"
  },
  {
    "name": "嘉義市國華杏福檜樂福利協會",
    "lat": 23.48135,
    "lng": 120.44879,
    "address": "600嘉義市西區國華里國華街351巷20號"
  },
  {
    "name": "財政部南區國稅局嘉義分局",
    "lat": 23.481406,
    "lng": 120.453573,
    "address": "600嘉義市東區中山路199號4樓"
  },
  {
    "name": "嘉義市中央廣場公園",
    "lat": 23.481521,
    "lng": 120.449886,
    "address": "600嘉義市東區民權路、興中街口建築物牆體上"
  },
  {
    "name": "嘉義民權路郵局",
    "lat": 23.481678,
    "lng": 120.445231,
    "address": "600嘉義市西區民權路467號"
  },
  {
    "name": "嘉義市政府警察局",
    "lat": 23.48169,
    "lng": 120.455206,
    "address": "600嘉義市東區中山路195號"
  },
  {
    "name": "嘉義市政府稅務局",
    "lat": 23.481787,
    "lng": 120.454273,
    "address": "600嘉義市東區中山路154號"
  },
  {
    "name": "嘉義中山路郵局",
    "lat": 23.481872,
    "lng": 120.457832,
    "address": "600嘉義市東區中山路107號"
  },
  {
    "name": "嘉義市中正公園2",
    "lat": 23.48194,
    "lng": 120.44728,
    "address": "600嘉義市西區民權路416號(中正公園公廁口(民權路與忠義街入口旁)"
  },
  {
    "name": "嘉義市中山路商圈(安和街口)",
    "lat": 23.482121,
    "lng": 120.457738,
    "address": "600嘉義市東區中山路96號(行政執行署嘉義分署)前號誌燈桿"
  },
  {
    "name": "行政執行署嘉義分署1樓等候區",
    "lat": 23.4821478,
    "lng": 120.4578344,
    "address": "600嘉義市東區中山路96號"
  },
  {
    "name": "嘉義市中山路商圈(民國路口)",
    "lat": 23.482251,
    "lng": 120.45992,
    "address": "600嘉義市東區中山路與民國路口公話亭"
  },
  {
    "name": "嘉義市中正公園1",
    "lat": 23.482299,
    "lng": 120.447235,
    "address": "600嘉義市西區國華街、民權路交叉處"
  },
  {
    "name": "財政部國有財產署南區分署嘉義辦事處",
    "lat": 23.482333,
    "lng": 120.458181,
    "address": "600嘉義市東區中山路94號"
  },
  {
    "name": "自來水公司嘉義服務所",
    "lat": 23.482989,
    "lng": 120.455276,
    "address": "600嘉義市東區民權路293號"
  },
  {
    "name": "自來水公司第五區管理處",
    "lat": 23.482989,
    "lng": 120.455276,
    "address": "600嘉義市東區民權路293號"
  },
  {
    "name": "嘉義市九華山地藏庵",
    "lat": 23.483173,
    "lng": 120.456628,
    "address": "600嘉義市東區民權路255號"
  },
  {
    "name": "嘉義忠孝郵局",
    "lat": 23.483195,
    "lng": 120.454547,
    "address": "600嘉義市東區民權路208-1號"
  },
  {
    "name": "嘉義市政府警察局第二分局北門派出所",
    "lat": 23.483224,
    "lng": 120.452167,
    "address": "600嘉義市東區民權路268號"
  },
  {
    "name": "財團法人嘉義市慈龍寺",
    "lat": 23.483392,
    "lng": 120.449626,
    "address": "600嘉義市東區北門里長榮街206號"
  },
  {
    "name": "兆豐國際商銀嘉義分行",
    "lat": 23.483612,
    "lng": 120.448603,
    "address": "600嘉義市西區文化路259號"
  },
  {
    "name": "兆豐國際商銀嘉興分行",
    "lat": 23.484129,
    "lng": 120.451999,
    "address": "600嘉義市東區吳鳳北路379號"
  },
  {
    "name": "嘉義市西區慶安社區發展協會",
    "lat": 23.485,
    "lng": 120.444,
    "address": "600嘉義市西區慶安里長安街109巷46號"
  },
  {
    "name": "阿里山鐵路車庫園區(南側門)",
    "lat": 23.485299,
    "lng": 120.449392,
    "address": "600嘉義市東區林森西路2號"
  },
  {
    "name": "嘉義市長榮公園",
    "lat": 23.485308,
    "lng": 120.457231,
    "address": "600嘉義市東區安和街210號前公話亭"
  },
  {
    "name": "臺灣嘉義地方法院嘉義簡易庭2F當事人休息區",
    "lat": 23.485412,
    "lng": 120.448972,
    "address": "600嘉義市東區文化路308-1號"
  },
  {
    "name": "臺灣土地銀行嘉興分行",
    "lat": 23.485428,
    "lng": 120.441247,
    "address": "600嘉義市西區自由路28號"
  },
  {
    "name": "司法院(嘉義地方法院-簡易庭暨第二辦公大樓)",
    "lat": 23.4854418,
    "lng": 120.449299,
    "address": "600嘉義市東區文化路308之1號"
  },
  {
    "name": "嘉義市政府警察局第一分局北興派出所",
    "lat": 23.485506,
    "lng": 120.442211,
    "address": "600嘉義市西區博愛路一段506號"
  },
  {
    "name": "嘉義市交趾陶館",
    "lat": 23.485795,
    "lng": 120.453564,
    "address": "600嘉義市東區忠孝路275號B1"
  },
  {
    "name": "嘉義市政府文化局展覽室(3F)",
    "lat": 23.485795,
    "lng": 120.453564,
    "address": "600嘉義市東區忠孝路275號3樓"
  },
  {
    "name": "阿里山鐵路車庫園區(修理工廠)",
    "lat": 23.485811,
    "lng": 120.452259,
    "address": "600嘉義市東區林森西路2號(車庫園區修理工廠北側外牆)"
  },
  {
    "name": "行政院農業委員會林務局嘉義林區管理處",
    "lat": 23.485826,
    "lng": 120.453206,
    "address": "600嘉義市東區林森西路1號"
  },
  {
    "name": "嘉義製材所(木屋圍牆邊)",
    "lat": 23.48583,
    "lng": 120.45261,
    "address": "600嘉義市東區林森西路4號(林鐵處製材所後方木屋圍牆邊)"
  },
  {
    "name": "嘉義市森林之歌",
    "lat": 23.486422,
    "lng": 120.448074,
    "address": "600嘉義市東區文化路地下道旁"
  },
  {
    "name": "嘉義舊監獄(入口處)",
    "lat": 23.48648,
    "lng": 120.45861,
    "address": "600嘉義市東區維新路140號(入口休息室)"
  },
  {
    "name": "嘉義市檜意森活村(水池區)",
    "lat": 23.486733,
    "lng": 120.454154,
    "address": "600嘉義市東區林森東路1號"
  },
  {
    "name": "嘉義市檜意森活村(遊客服務中心旁)",
    "lat": 23.486738,
    "lng": 120.45416,
    "address": "600嘉義市東區林森東路1號"
  },
  {
    "name": "嘉義市市立博物館",
    "lat": 23.486975,
    "lng": 120.451521,
    "address": "600嘉義市東區忠孝路275-1號"
  },
  {
    "name": "嘉義市政府文化局圖書館(兒童閱覽室)",
    "lat": 23.487105,
    "lng": 120.452453,
    "address": "600嘉義市東區忠孝路275號"
  },
  {
    "name": "嘉義市政府文化局圖書館",
    "lat": 23.48834,
    "lng": 120.452664,
    "address": "600嘉義市東區忠孝路275號"
  },
  {
    "name": "嘉義埤子頭郵局",
    "lat": 23.488809,
    "lng": 120.446686,
    "address": "600嘉義市西區文化路456號"
  },
  {
    "name": "嘉義市北香湖公園1",
    "lat": 23.48968,
    "lng": 120.446,
    "address": "600嘉義市西區文化路439號(旁邊公話亭)"
  },
  {
    "name": "嘉義市選舉委員會",
    "lat": 23.490167,
    "lng": 120.454477,
    "address": "600嘉義市東區博東路333號"
  },
  {
    "name": "嘉義市北興國民中學",
    "lat": 23.490494,
    "lng": 120.455093,
    "address": "600嘉義市東區博東路262號(傳達室)"
  },
  {
    "name": "社團法人嘉義市西區新厝社區發展協會",
    "lat": 23.49059,
    "lng": 120.44081,
    "address": "600嘉義市西區新厝里龍江街87號"
  },
  {
    "name": "嘉義市北香湖公園3",
    "lat": 23.492187,
    "lng": 120.444553,
    "address": "600嘉義市西區友愛路1001號前安全島(友愛路口路口監控)"
  },
  {
    "name": "嘉義市嘉北國民小學守衛室",
    "lat": 23.493841,
    "lng": 120.455142,
    "address": "600嘉義市東區嘉北街65號"
  },
  {
    "name": "嘉義市北香湖公園2",
    "lat": 23.493873,
    "lng": 120.444187,
    "address": "600嘉義市西區文化路585號路口監控"
  },
  {
    "name": "臺灣銀行嘉北分行",
    "lat": 23.497066,
    "lng": 120.452244,
    "address": "600嘉義市東區忠孝路602號"
  },
  {
    "name": "嘉義市頂庄公園",
    "lat": 23.497721,
    "lng": 120.457268,
    "address": "600嘉義市東區義教街613巷27號"
  },
  {
    "name": "嘉義市政府警察局第二分局後湖派出所",
    "lat": 23.499026,
    "lng": 120.450493,
    "address": "600嘉義市東區忠孝路537號"
  },
  {
    "name": "社團法人嘉義市陽明健康促進會-頂庄社區",
    "lat": 23.499241,
    "lng": 120.45753,
    "address": "600嘉義市東區頂庄里義教街542巷20號"
  },
  {
    "name": "嘉義市忠孝路候車亭(嘉基陸橋旁)",
    "lat": 23.49948,
    "lng": 120.451,
    "address": "600嘉義市東區忠孝路539號(嘉基醫院門診大樓前電信箱體)"
  }
]
