[
  {
    "name": "警察局",
    "lat": 24.202555,
    "lng": 120.722984,
    "address": "427臺中市潭子區豐興路一段500號"
  },
  {
    "name": "潭子聯合辦公大樓5樓",
    "lat": 24.203212,
    "lng": 120.72285,
    "address": "427臺中市潭子區豐興路一段512號"
  },
  {
    "name": "潭子區公所",
    "lat": 24.2034982,
    "lng": 120.7231253,
    "address": "427臺中市潭子區豐興路一段512號"
  },
  {
    "name": "潭子區戶政事務所",
    "lat": 24.2034982,
    "lng": 120.7231253,
    "address": "427臺中市潭子區豐興路一段512號"
  },
  {
    "name": "臺中市潭子區聚興社區發展協會",
    "lat": 24.205038,
    "lng": 120.726438,
    "address": "427臺中市潭子區聚興里潭興路一段24號"
  },
  {
    "name": "臺中市潭子區新田社區發展協會",
    "lat": 24.214528,
    "lng": 120.724272,
    "address": "427臺中市潭子區新田里豐興路二段412號"
  }
]
