[
  {
    "name": "統一超商太平精美路精美店(公話)",
    "lat": 24.1200562,
    "lng": 120.7215217,
    "address": "411臺中市太平區精美路1號(公話)"
  },
  {
    "name": "統一超商太平光興路光興店(公話)",
    "lat": 24.121527,
    "lng": 120.734318,
    "address": "411臺中市太平區光興路1632號"
  },
  {
    "name": "中平社區活動中心",
    "lat": 24.122478,
    "lng": 120.72096,
    "address": "411臺中市太平區中平九街206號(TCTP4051)"
  },
  {
    "name": "財團法人一貫道崇正基金會(太平二站)",
    "lat": 24.122959,
    "lng": 120.720596,
    "address": "411臺中市太平區中平里中平九街181號"
  },
  {
    "name": "臺中市公車東平社區站",
    "lat": 24.1250442,
    "lng": 120.7257382,
    "address": "411臺中市太平區精美路279號(公話)"
  },
  {
    "name": "臺中市太平區福隆社區發展協會",
    "lat": 24.126133,
    "lng": 120.73431,
    "address": "411臺中市太平區福隆里光興路1463巷8號"
  },
  {
    "name": "OK超商太平成功東路永成店(公話)",
    "lat": 24.1289927,
    "lng": 120.7217219,
    "address": "411臺中市太平區成功東路153號"
  },
  {
    "name": "全家便利商店太平區永平南路店(公話)",
    "lat": 24.1303526,
    "lng": 120.7210829,
    "address": "411臺中市太平區永平南路1號"
  },
  {
    "name": "臺中市太平區永平社區發展協會",
    "lat": 24.130489,
    "lng": 120.720433,
    "address": "411臺中市太平區永平里中興東路99號"
  },
  {
    "name": "兆豐國際商銀太平分行",
    "lat": 24.13101,
    "lng": 120.721789,
    "address": "411臺中市太平區中興東路152號"
  },
  {
    "name": "臺中市公車東平國小(中興東路)站",
    "lat": 24.13184,
    "lng": 120.72279,
    "address": "411臺中市太平區中興東路185號前(TCTP3030)"
  },
  {
    "name": "統一超商太平東平路一江橋店(公話)",
    "lat": 24.133255,
    "lng": 120.735616,
    "address": "411臺中市太平區東平路1號"
  },
  {
    "name": "臺中市公車一江橋站",
    "lat": 24.133722,
    "lng": 120.73566,
    "address": "411臺中市太平區東平路12號"
  },
  {
    "name": "統一超商太平東村路東村店(公話)",
    "lat": 24.13751,
    "lng": 120.724198,
    "address": "411臺中市太平區東村路200號"
  }
]
