[
  {
    "dataType": "wifi",
    "category": "文教館所",
    "name": "臺中市立圖書館太平坪林分館",
    "lat": 24.141537,
    "lng": 120.732482,
    "address": "411臺中市太平區中山路一段213號"
  },
  {
    "dataType": "wifi",
    "category": "其他",
    "name": "全家便利商店太平新豐年店(公話)",
    "lat": 24.14182,
    "lng": 120.724576,
    "address": "411臺中市太平區大源十八街1號"
  },
  {
    "dataType": "wifi",
    "category": "公立醫院",
    "name": "太平區衛生所",
    "lat": 24.142517,
    "lng": 120.731404,
    "address": "411臺中市太平區中山路一段213-1號"
  },
  {
    "dataType": "wifi",
    "category": "其他",
    "name": "統一超商太平大源二街鑫佳慶店(公話)",
    "lat": 24.144441,
    "lng": 120.725162,
    "address": "411臺中市太平區大源二街1號"
  },
  {
    "dataType": "wifi",
    "category": "洽公場所",
    "name": "太平坪林郵局",
    "lat": 24.145076,
    "lng": 120.734317,
    "address": "411臺中市太平區中山路一段325、327號"
  },
  {
    "dataType": "wifi",
    "category": "其他",
    "name": "臺中市太平區豐年社區發展協會",
    "lat": 24.146795,
    "lng": 120.725574,
    "address": "411臺中市太平區豐年里大源路10巷40號一樓"
  },
  {
    "dataType": "wifi",
    "category": "洽公場所",
    "name": "太平區戶政事務所",
    "lat": 24.146811,
    "lng": 120.725472,
    "address": "411臺中市太平區大源路2-18號"
  },
  {
    "dataType": "wifi",
    "category": "洽公場所",
    "name": "太平地政事務所",
    "lat": 24.146829,
    "lng": 120.726211,
    "address": "411臺中市太平區大源路1-19號"
  },
  {
    "dataType": "wifi",
    "category": "其他",
    "name": "財團法人桃園市亮詮公益慈善基金會(太平)",
    "lat": 24.149055,
    "lng": 120.724488,
    "address": "411臺中市太平區中山里環太東路229號"
  },
  {
    "dataType": "wifi",
    "category": "其他",
    "name": "全家便利商店太平中山路中華店(公話)",
    "lat": 24.149887,
    "lng": 120.727513,
    "address": "411臺中市太平區中山路二段441號"
  },
  {
    "dataType": "wifi",
    "category": "公立醫院",
    "name": "國軍臺中總醫院-復健科",
    "lat": 24.1503,
    "lng": 120.73019,
    "address": "411臺中市太平區中山路二段348號"
  },
  {
    "dataType": "wifi",
    "category": "公立醫院",
    "name": "國軍臺中總醫院-眼科",
    "lat": 24.1503,
    "lng": 120.73019,
    "address": "411臺中市太平區中山路二段348號"
  },
  {
    "dataType": "wifi",
    "category": "公立醫院",
    "name": "國軍臺中總醫院-內科",
    "lat": 24.1503,
    "lng": 120.73019,
    "address": "411臺中市太平區中山路二段348號"
  },
  {
    "dataType": "wifi",
    "category": "公立醫院",
    "name": "國軍臺中總醫院-一病房區1",
    "lat": 24.1503,
    "lng": 120.73019,
    "address": "411臺中市太平區中山路二段348號"
  },
  {
    "dataType": "wifi",
    "category": "公立醫院",
    "name": "國軍臺中總醫院-一病房區2",
    "lat": 24.1503,
    "lng": 120.73019,
    "address": "411臺中市太平區中山路二段348號"
  },
  {
    "dataType": "wifi",
    "category": "公立醫院",
    "name": "國軍臺中總醫院-六病房區1",
    "lat": 24.1503,
    "lng": 120.73019,
    "address": "411臺中市太平區中山路二段348號"
  },
  {
    "dataType": "wifi",
    "category": "公立醫院",
    "name": "國軍臺中總醫院-六病房區2",
    "lat": 24.1503,
    "lng": 120.73019,
    "address": "411臺中市太平區中山路二段348號"
  },
  {
    "dataType": "wifi",
    "category": "公立醫院",
    "name": "國軍臺中總醫院-七病房區",
    "lat": 24.1503,
    "lng": 120.73019,
    "address": "411臺中市太平區中山路二段348號"
  },
  {
    "dataType": "wifi",
    "category": "公立醫院",
    "name": "國軍臺中總醫院-八病房區",
    "lat": 24.1503,
    "lng": 120.73019,
    "address": "411臺中市太平區中山路二段348號"
  },
  {
    "dataType": "wifi",
    "category": "公立醫院",
    "name": "國軍臺中總醫院-九病房區",
    "lat": 24.1503,
    "lng": 120.73019,
    "address": "411臺中市太平區中山路二段348號"
  },
  {
    "dataType": "wifi",
    "category": "公立醫院",
    "name": "國軍臺中總醫院-十病房區",
    "lat": 24.1503,
    "lng": 120.73019,
    "address": "411臺中市太平區中山路二段348號"
  },
  {
    "dataType": "wifi",
    "category": "公立醫院",
    "name": "國軍臺中總醫院-十一病房區",
    "lat": 24.1503,
    "lng": 120.73019,
    "address": "411臺中市太平區中山路二段348號"
  },
  {
    "dataType": "wifi",
    "category": "公立醫院",
    "name": "國軍臺中總醫院門診候診區",
    "lat": 24.150811,
    "lng": 120.729914,
    "address": "411臺中市太平區中山路二段348號"
  },
  {
    "dataType": "wifi",
    "category": "公立醫院",
    "name": "國軍臺中總醫院掛號大廳",
    "lat": 24.150811,
    "lng": 120.729914,
    "address": "411臺中市太平區中山路二段348號"
  },
  {
    "dataType": "wifi",
    "category": "洽公場所",
    "name": "國軍臺中總醫院-急診室",
    "lat": 24.150812,
    "lng": 120.729913,
    "address": "411臺中市太平區中山路二段348號"
  },
  {
    "dataType": "wifi",
    "category": "洽公場所",
    "name": "國軍臺中總醫院-圖書館",
    "lat": 24.150812,
    "lng": 120.729913,
    "address": "411臺中市太平區中山路二段348號"
  },
  {
    "dataType": "wifi",
    "category": "洽公場所",
    "name": "國軍臺中總醫院-藥局",
    "lat": 24.150812,
    "lng": 120.729913,
    "address": "411臺中市太平區中山路二段348號"
  },
  {
    "dataType": "wifi",
    "category": "其他",
    "name": "全家便利商店太平新平路育仁店(公話)",
    "lat": 24.151947,
    "lng": 120.721127,
    "address": "411臺中市太平區新平路三段150號"
  },
  {
    "dataType": "wifi",
    "category": "其他",
    "name": "全家便利商店太平大興路(公話)",
    "lat": 24.154491,
    "lng": 120.733405,
    "address": "411臺中市太平區大興路127號"
  },
  {
    "dataType": "wifi",
    "category": "其他",
    "name": "財團法人弘道老人福利基金會(華明)",
    "lat": 24.15559,
    "lng": 120.733504,
    "address": "411臺中市太平區光華里大興十一街177號"
  },
  {
    "dataType": "wifi",
    "category": "其他",
    "name": "臺中市太平區新城社區發展協會-新坪據點",
    "lat": 24.156063,
    "lng": 120.726142,
    "address": "411臺中市太平區新坪里新平路三段394巷1號"
  },
  {
    "dataType": "wifi",
    "category": "文教館所",
    "name": "屯區藝文中心",
    "lat": 24.156843,
    "lng": 120.735537,
    "address": "411臺中市太平區大興路201號"
  },
  {
    "dataType": "wifi",
    "category": "文教館所",
    "name": "屯區藝文中心-B1",
    "lat": 24.156843,
    "lng": 120.735537,
    "address": "411臺中市太平區大興路201號"
  },
  {
    "dataType": "wifi",
    "category": "其他",
    "name": "全家便利商店太平育賢路育賢店(公話)",
    "lat": 24.157522,
    "lng": 120.721598,
    "address": "411臺中市太平區育賢路156號"
  },
  {
    "dataType": "wifi",
    "category": "旅遊景點",
    "name": "樹孝商圈(樹孝路439號)",
    "lat": 24.157576,
    "lng": 120.720036,
    "address": "411臺中市太平區樹孝路439號"
  },
  {
    "dataType": "wifi",
    "category": "其他",
    "name": "全家便利商店北屯區太順路太順店(公話)",
    "lat": 24.158612,
    "lng": 120.725141,
    "address": "406臺中市北屯區太順路103號"
  }
]
