[
  {
    "dataType": "wifi",
    "category": "其他",
    "name": "台灣傳明社會公益協會",
    "lat": 22.671695,
    "lng": 120.358708,
    "address": "814高雄市仁武區仁慈里仁慈路75號"
  },
  {
    "dataType": "wifi",
    "category": "洽公場所",
    "name": "仁武仁雄郵局",
    "lat": 22.677292,
    "lng": 120.356017,
    "address": "814高雄市仁武區仁和村仁忠路79、81號"
  },
  {
    "dataType": "wifi",
    "category": "其他",
    "name": "臺灣長照產業聯合協會",
    "lat": 22.678118,
    "lng": 120.343126,
    "address": "814高雄市仁武區考潭里綠園新村156號"
  },
  {
    "dataType": "wifi",
    "category": "其他",
    "name": "高雄市仁武區慈惠社區發展協會",
    "lat": 22.679135,
    "lng": 120.34704,
    "address": "814高雄市仁武區赤山里赤東二街2之1號"
  },
  {
    "dataType": "wifi",
    "category": "其他",
    "name": "社團法人高雄市安和社會福利發展協會(赤山站)",
    "lat": 22.679135,
    "lng": 120.34704,
    "address": "814高雄市仁武區赤山里仁孝路450巷17號"
  },
  {
    "dataType": "wifi",
    "category": "洽公場所",
    "name": "仁武八德郵局",
    "lat": 22.679164,
    "lng": 120.340531,
    "address": "814高雄市仁武區八卦村八德南路396號"
  },
  {
    "dataType": "wifi",
    "category": "文教館所",
    "name": "高雄市立圖書館澄觀分館",
    "lat": 22.679807,
    "lng": 120.34559,
    "address": "814高雄市仁武區澄仁路200號"
  }
]
