[
  {
    "name": "高雄市左營區新光社區發展協會",
    "lat": 22.681,
    "lng": 120.303,
    "address": "813高雄市左營區新光里文萊路239號"
  },
  {
    "name": "華南商業銀行左營分行",
    "lat": 22.683955,
    "lng": 120.313428,
    "address": "813高雄市左營區博愛四路160號"
  },
  {
    "name": "臺鐵局新左營站第1月台3車位置",
    "lat": 22.6873814,
    "lng": 120.3074878,
    "address": "813高雄市左營區尾北里站前北路1號"
  },
  {
    "name": "臺鐵局新左營站第1月台8車位置",
    "lat": 22.6873814,
    "lng": 120.3074878,
    "address": "813高雄市左營區尾北里站前北路1號"
  },
  {
    "name": "臺鐵局新左營站第2月台6車位置",
    "lat": 22.6873814,
    "lng": 120.3074878,
    "address": "813高雄市左營區尾北里站前北路1號"
  },
  {
    "name": "臺鐵局新左營站第3月台6車位置",
    "lat": 22.6873814,
    "lng": 120.3074878,
    "address": "813高雄市左營區尾北里站前北路1號"
  },
  {
    "name": "臺鐵局新左營站售票房",
    "lat": 22.687544,
    "lng": 120.306788,
    "address": "813高雄市左營區站前北路1號"
  },
  {
    "name": "臺鐵局新左營站2樓大廳剪票入口",
    "lat": 22.6877358,
    "lng": 120.307072,
    "address": "813高雄市左營區站前北路1號"
  },
  {
    "name": "左營福山郵局",
    "lat": 22.68811,
    "lng": 120.31967,
    "address": "813高雄市左營區華夏路1708號"
  },
  {
    "name": "內政部警政署警察廣播電臺高雄臺",
    "lat": 22.688459,
    "lng": 120.317125,
    "address": "813高雄市左營區博愛四路455號"
  },
  {
    "name": "臺鐵局高雄運務段1樓檔案閱覽室",
    "lat": 22.6913477,
    "lng": 120.3106999,
    "address": "813高雄市左營區站前路5號"
  },
  {
    "name": "臺鐵局高雄運務段第一會議室",
    "lat": 22.6916782,
    "lng": 120.3105328,
    "address": "813高雄市左營區站前路5號"
  },
  {
    "name": "臺鐵局南區供應廠採購課",
    "lat": 22.691953,
    "lng": 120.307159,
    "address": "813高雄市左營區站前路5號"
  }
]
