[
  {
    "name": "高雄市楠梓區新加昌社區發展協會",
    "lat": 22.72273,
    "lng": 120.297728,
    "address": "811高雄市楠梓區加昌里壽民路16巷16號"
  },
  {
    "name": "高雄市楠梓區仁昌社區發展協會",
    "lat": 22.724246,
    "lng": 120.294854,
    "address": "811高雄市楠梓區仁昌里壽豐路461號"
  },
  {
    "name": "社團法人高雄市楠梓區翠屏社區發展協會",
    "lat": 22.726316,
    "lng": 120.299158,
    "address": "811高雄市楠梓區翠屏里德民路356巷30之18號"
  },
  {
    "name": "高雄市楠梓區下鹽田社區發展協會",
    "lat": 22.729288,
    "lng": 120.281276,
    "address": "811高雄市楠梓區藍田里大學二十六街951號"
  },
  {
    "name": "楠梓藍田郵局",
    "lat": 22.730158,
    "lng": 120.292067,
    "address": "811高雄市楠梓區藍昌路430號"
  },
  {
    "name": "高雄大學郵局",
    "lat": 22.7325096,
    "lng": 120.2812071,
    "address": "811高雄市楠梓區高雄大學路700號(學生活動中心1樓)"
  },
  {
    "name": "國立高雄大學圖書資訊館2樓",
    "lat": 22.734301,
    "lng": 120.285335,
    "address": "811高雄市楠梓區高雄大學路700號"
  }
]
