[
  {
    "dataType": "wifi",
    "category": "旅遊景點",
    "name": "高雄市政府觀光局旗津貝殼館",
    "lat": 22.602165,
    "lng": 120.273879,
    "address": "805高雄市旗津區旗津三路990號2樓"
  },
  {
    "dataType": "wifi",
    "category": "旅遊景點",
    "name": "旗津沙灘吧",
    "lat": 22.609889,
    "lng": 120.267517,
    "address": "805高雄市旗津區旗津三路1050號對面"
  },
  {
    "dataType": "wifi",
    "category": "洽公場所",
    "name": "高雄市旗津區戶政事務所",
    "lat": 22.610978,
    "lng": 120.26794,
    "address": "805高雄市旗津區振興里18鄰旗津三路1100號1樓"
  },
  {
    "dataType": "wifi",
    "category": "旅遊景點",
    "name": "旗津海水浴場救生站",
    "lat": 22.611018,
    "lng": 120.267404,
    "address": "805高雄市旗津區廟前路1號"
  },
  {
    "dataType": "wifi",
    "category": "文教館所",
    "name": "高雄市立圖書館旗津分館",
    "lat": 22.612129,
    "lng": 120.270746,
    "address": "805高雄市旗津區中洲三路528號"
  },
  {
    "dataType": "wifi",
    "category": "洽公場所",
    "name": "旗津郵局",
    "lat": 22.612528,
    "lng": 120.269409,
    "address": "805高雄市旗津區中洲三路817號"
  },
  {
    "dataType": "wifi",
    "category": "洽公場所",
    "name": "台電公司旗津服務所大廳",
    "lat": 22.613357,
    "lng": 120.269834,
    "address": "805高雄市旗津區大關路28號"
  },
  {
    "dataType": "wifi",
    "category": "洽公場所",
    "name": "內政部警政署高雄港務警察總隊一港口中隊",
    "lat": 22.613994,
    "lng": 120.269713,
    "address": "805高雄市旗津區海岸路10號"
  },
  {
    "dataType": "wifi",
    "category": "大眾運輸節點",
    "name": "高雄市輪船-旗津站(東側)",
    "lat": 22.614244,
    "lng": 120.269927,
    "address": "805高雄市旗津區海岸路10號1樓"
  },
  {
    "dataType": "wifi",
    "category": "大眾運輸節點",
    "name": "高雄市輪船-旗津站(西側)",
    "lat": 22.614244,
    "lng": 120.269927,
    "address": "805高雄市旗津區海岸路10號1樓"
  },
  {
    "dataType": "wifi",
    "category": "大眾運輸節點",
    "name": "高雄港國際旅運中心",
    "lat": 22.619017,
    "lng": 120.274994,
    "address": "804高雄市鼓山區捷興一街高雄港國際旅運中心"
  },
  {
    "dataType": "wifi",
    "category": "洽公場所",
    "name": "高雄港務分公司維護管理處開標室",
    "lat": 22.619057,
    "lng": 120.279354,
    "address": "804高雄市鼓山區蓬萊二路1號"
  },
  {
    "dataType": "wifi",
    "category": "洽公場所",
    "name": "高雄港務警察總隊",
    "lat": 22.619083,
    "lng": 120.278743,
    "address": "804高雄市鼓山區蓬萊路24號"
  },
  {
    "dataType": "wifi",
    "category": "洽公場所",
    "name": "財政部關務署高雄關局本部1F",
    "lat": 22.6194,
    "lng": 120.275,
    "address": "804高雄市鼓山區捷興一街3號"
  },
  {
    "dataType": "wifi",
    "category": "洽公場所",
    "name": "財政部關務署高雄關局本部2F",
    "lat": 22.6194,
    "lng": 120.275,
    "address": "804高雄市鼓山區捷興一街3號"
  },
  {
    "dataType": "wifi",
    "category": "洽公場所",
    "name": "內政部警政署高雄港務警察總隊三號碼頭中隊",
    "lat": 22.619673,
    "lng": 120.278886,
    "address": "804高雄市鼓山區蓬萊路28號"
  },
  {
    "dataType": "wifi",
    "category": "旅遊景點",
    "name": "鼓山輪渡站",
    "lat": 22.619745,
    "lng": 120.270012,
    "address": "804高雄市鼓山區濱海二路1號"
  }
]
