[
  {
    "name": "高雄市稅捐稽徵處楠梓分處",
    "lat": 22.72411,
    "lng": 120.326329,
    "address": "811高雄市楠梓區楠梓新路264號7樓"
  },
  {
    "name": "仁大工業區服務中心",
    "lat": 22.7256263,
    "lng": 120.3387977,
    "address": "815高雄市大社區經建路6號1樓"
  },
  {
    "name": "臺鐵局楠梓站候車室",
    "lat": 22.727062,
    "lng": 120.324309,
    "address": "811高雄市楠梓區建楠路229號"
  },
  {
    "name": "楠梓建楠郵局",
    "lat": 22.727281,
    "lng": 120.329878,
    "address": "811高雄市楠梓區建楠路3號"
  },
  {
    "name": "第一商業銀行(楠梓分行)",
    "lat": 22.7277713,
    "lng": 120.3295998,
    "address": "811高雄市楠梓區楠梓路3號"
  },
  {
    "name": "財政部高雄國稅局楠梓稽徵所",
    "lat": 22.728414,
    "lng": 120.326335,
    "address": "811高雄市楠梓區楠梓新路264號6樓"
  },
  {
    "name": "高雄市楠梓區公所2樓",
    "lat": 22.728414,
    "lng": 120.326335,
    "address": "811高雄市楠梓區楠梓新路264號2樓"
  },
  {
    "name": "楠梓郵局",
    "lat": 22.728428,
    "lng": 120.325831,
    "address": "811高雄市楠梓區楠梓新路247號"
  },
  {
    "name": "高雄市政府地政局楠梓地政事務所",
    "lat": 22.728587,
    "lng": 120.326316,
    "address": "811高雄市楠梓區楠梓新路264號4樓"
  },
  {
    "name": "華南商業銀行楠梓分行",
    "lat": 22.729502,
    "lng": 120.331836,
    "address": "811高雄市楠梓區興楠路336號"
  },
  {
    "name": "高雄市楠梓區戶政事務所",
    "lat": 22.729918,
    "lng": 120.325913,
    "address": "811高雄市楠梓區楠梓新路264號1樓"
  },
  {
    "name": "高雄市楠梓區新享平社區發展協會",
    "lat": 22.730171,
    "lng": 120.327868,
    "address": "811高雄市楠梓區享平里楠梓路80號"
  },
  {
    "name": "高雄市楠梓區惠民五台車社區發展協會",
    "lat": 22.730758,
    "lng": 120.321356,
    "address": "811高雄市楠梓區惠民里高楠公路1868巷100號"
  },
  {
    "name": "高雄高等行政法院郵局",
    "lat": 22.731406,
    "lng": 120.335807,
    "address": "811高雄市楠梓區興楠路180號"
  },
  {
    "name": "臺灣高雄少年及家事法院少年法庭",
    "lat": 22.731501,
    "lng": 120.335569,
    "address": "811高雄市楠梓區興楠路182號"
  },
  {
    "name": "臺灣高雄少年及家事法院家事法庭",
    "lat": 22.731501,
    "lng": 120.335569,
    "address": "811高雄市楠梓區常順街89號"
  },
  {
    "name": "司法院(高雄少年及家事法院-少年庭大樓)",
    "lat": 22.7318455,
    "lng": 120.3351491,
    "address": "811高雄市楠梓區興楠路182號"
  },
  {
    "name": "司法院(高雄高等行政法院)-1",
    "lat": 22.7322013,
    "lng": 120.3352868,
    "address": "811高雄市楠梓區興楠路180號"
  },
  {
    "name": "臺灣銀行楠梓分行",
    "lat": 22.732273,
    "lng": 120.327973,
    "address": "811高雄市楠梓區楠梓路201號"
  },
  {
    "name": "司法院(高雄少年及家事法院-家事庭大樓)",
    "lat": 22.7327531,
    "lng": 120.3351721,
    "address": "811高雄市楠梓區常順街89號"
  },
  {
    "name": "高雄市立圖書館楠仔坑分館",
    "lat": 22.733519,
    "lng": 120.327909,
    "address": "811高雄市楠梓區楠梓路262號"
  },
  {
    "name": "高雄市楠梓區清豐社區發展協會",
    "lat": 22.738329,
    "lng": 120.332827,
    "address": "811高雄市楠梓區清豐里土庫五路66號"
  }
]
