[
  {
    "name": "社團法人高雄市文教協會",
    "lat": 22.600592,
    "lng": 120.397972,
    "address": "831高雄市大寮區會社里鳳林三路315之22號三樓"
  },
  {
    "name": "高雄市稅捐稽徵處大寮分處",
    "lat": 22.602178,
    "lng": 120.397419,
    "address": "831高雄市大寮區鳳林三路336號"
  },
  {
    "name": "高雄市大寮區戶政事務所",
    "lat": 22.602405,
    "lng": 120.397115,
    "address": "831高雄市大寮區鳳林三路375號"
  },
  {
    "name": "高雄市立圖書館大寮分館",
    "lat": 22.604206,
    "lng": 120.393387,
    "address": "831高雄市大寮區永芳里進學路133號"
  },
  {
    "name": "高雄市大寮區公所民政課",
    "lat": 22.60543,
    "lng": 120.395442,
    "address": "831高雄市大寮區永芳里鳳林三路492號"
  },
  {
    "name": "高雄市大寮區公所農業課",
    "lat": 22.60543,
    "lng": 120.395442,
    "address": "831高雄市大寮區永芳里鳳林三路492號"
  },
  {
    "name": "高雄市大寮區公所",
    "lat": 22.60585,
    "lng": 120.395544,
    "address": "831高雄市大寮區鳳林三路492號"
  },
  {
    "name": "大寮郵局",
    "lat": 22.606637,
    "lng": 120.395495,
    "address": "831高雄市大寮區永芳村鳳林三路530號"
  },
  {
    "name": "大寮中興郵局",
    "lat": 22.614674,
    "lng": 120.388115,
    "address": "831高雄市大寮區鳳林四路34、36、38號"
  },
  {
    "name": "高雄市大寮區中興社區發展協會",
    "lat": 22.61766,
    "lng": 120.387552,
    "address": "831高雄市大寮區中興里中興文化路2巷2號"
  },
  {
    "name": "臺灣土地銀行大發分行",
    "lat": 22.619261,
    "lng": 120.383465,
    "address": "831高雄市大寮區鳳林四路272號1~4樓"
  }
]
