[
  {
    "dataType": "wifi",
    "category": "文教館所",
    "name": "國立海洋生物博物館交流大廳",
    "lat": 22.02201,
    "lng": 120.688245,
    "address": "944屏東縣車城鄉後灣村後灣路3號"
  },
  {
    "dataType": "wifi",
    "category": "文教館所",
    "name": "國立海洋生物博物館展場大廳",
    "lat": 22.039825,
    "lng": 120.696412,
    "address": "944屏東縣車城鄉後灣村後灣路2號"
  },
  {
    "dataType": "wifi",
    "category": "其他",
    "name": "南門護理之家枋山鄉長照樂智社區服務據點",
    "lat": 22.190603,
    "lng": 120.690868,
    "address": "941屏東縣枋山鄉善餘村德隆路19號"
  },
  {
    "dataType": "wifi",
    "category": "其他",
    "name": "屏東縣獅子鄉婦女成長關懷協會",
    "lat": 22.192965,
    "lng": 120.689547,
    "address": "941屏東縣枋山鄉楓港村南平29號"
  },
  {
    "dataType": "wifi",
    "category": "其他",
    "name": "屏東縣枋山鄉楓港社區發展協會",
    "lat": 22.192965,
    "lng": 120.689547,
    "address": "941屏東縣枋山鄉楓港村舊庄1之2號"
  },
  {
    "dataType": "wifi",
    "category": "洽公場所",
    "name": "枋山郵局",
    "lat": 22.198478,
    "lng": 120.689669,
    "address": "941屏東縣枋山鄉舊庄路47號"
  },
  {
    "dataType": "wifi",
    "category": "洽公場所",
    "name": "中油公司屏東縣枋山鄉楓港站",
    "lat": 22.199387,
    "lng": 120.689349,
    "address": "941屏東縣枋山鄉楓港村舊庄路53號"
  },
  {
    "dataType": "wifi",
    "category": "旅遊景點",
    "name": "墾丁國家公園管理處龍坑管制站",
    "lat": 21.903126,
    "lng": 120.855702,
    "address": "946屏東縣恆春鎮鵝鑾路50號"
  },
  {
    "dataType": "wifi",
    "category": "旅遊景點",
    "name": "墾丁國家公園管理處鵝鑾鼻(1)",
    "lat": 21.904143,
    "lng": 120.850856,
    "address": "946屏東縣恆春鎮燈塔路301號"
  },
  {
    "dataType": "wifi",
    "category": "旅遊景點",
    "name": "墾丁國家公園管理處貓鼻頭公園(2)",
    "lat": 21.924544,
    "lng": 120.736088,
    "address": "946屏東縣恆春鎮下泉路100號"
  },
  {
    "dataType": "wifi",
    "category": "其他",
    "name": "屏東縣恆春鎮水泉社區發展協會",
    "lat": 21.940498,
    "lng": 120.732502,
    "address": "946屏東縣恆春鎮水泉里頂泉路1號"
  },
  {
    "dataType": "wifi",
    "category": "旅遊景點",
    "name": "墾丁國家公園管理處後壁湖管理站",
    "lat": 21.947478,
    "lng": 120.741389,
    "address": "946屏東縣恆春鎮大光里大光路79-43號"
  },
  {
    "dataType": "wifi",
    "category": "洽公場所",
    "name": "台電公司第三核能發電廠",
    "lat": 21.947892,
    "lng": 120.741495,
    "address": "946屏東縣恆春鎮大光路79-64號"
  },
  {
    "dataType": "wifi",
    "category": "其他",
    "name": "屏東縣恆春鎮大光社區發展協會",
    "lat": 21.949175,
    "lng": 120.740496,
    "address": "946屏東縣恆春鎮大光里大光路26之6號"
  },
  {
    "dataType": "wifi",
    "category": "旅遊景點",
    "name": "墾丁國家公園管理處遊客中心(1)",
    "lat": 21.949365,
    "lng": 120.779014,
    "address": "946屏東縣恆春鎮墾丁路596號"
  },
  {
    "dataType": "wifi",
    "category": "旅遊景點",
    "name": "墾丁國家公園管理處遊客中心(2)",
    "lat": 21.949365,
    "lng": 120.779014,
    "address": "946屏東縣恆春鎮墾丁路596號"
  },
  {
    "dataType": "wifi",
    "category": "洽公場所",
    "name": "中油公司屏東縣恆春鎮墾丁站",
    "lat": 21.946114,
    "lng": 120.792776,
    "address": "946屏東縣恆春鎮墾丁里墾丁路402號"
  },
  {
    "dataType": "wifi",
    "category": "洽公場所",
    "name": "恆春墾丁郵局",
    "lat": 21.940188,
    "lng": 120.807383,
    "address": "946屏東縣恆春鎮墾丁路2號(星巴克旁)"
  },
  {
    "dataType": "wifi",
    "category": "其他",
    "name": "屏東縣恆春鎮墾丁社區發展協會",
    "lat": 21.944002,
    "lng": 120.800616,
    "address": "946屏東縣恆春鎮墾丁里墾丁路65之1號"
  },
  {
    "dataType": "wifi",
    "category": "其他",
    "name": "屏東縣社頂部落發展文化促進會",
    "lat": 21.959054,
    "lng": 120.815782,
    "address": "946屏東縣恆春鎮墾丁里社興路128號"
  },
  {
    "dataType": "wifi",
    "category": "旅遊景點",
    "name": "墾丁森林遊樂區",
    "lat": 21.959723,
    "lng": 120.812209,
    "address": "946屏東縣恆春鎮墾丁里公園路201號"
  },
  {
    "dataType": "wifi",
    "category": "其他",
    "name": "屏東縣恆春鎮水蛙窟社區營造協會",
    "lat": 21.940146,
    "lng": 120.837752,
    "address": "946屏東縣恆春鎮鵝鑾里風沙路500巷10之5號"
  },
  {
    "dataType": "wifi",
    "category": "旅遊景點",
    "name": "墾丁國家公園管理處龍鑾潭自然中心",
    "lat": 21.975479,
    "lng": 120.739863,
    "address": "946屏東縣恆春鎮東潭路86號"
  },
  {
    "dataType": "wifi",
    "category": "其他",
    "name": "屏東縣恆春鎮龍水社區發展協會",
    "lat": 21.97889,
    "lng": 120.730303,
    "address": "946屏東縣恆春鎮龍水里龍泉路284號"
  },
  {
    "dataType": "wifi",
    "category": "旅遊景點",
    "name": "墾丁國家公園管理處瓊麻展示區",
    "lat": 21.965389,
    "lng": 120.741697,
    "address": "946屏東縣恆春鎮草潭路4號"
  },
  {
    "dataType": "wifi",
    "category": "其他",
    "name": "屏東縣恆春鎮南灣社區發展協會",
    "lat": 21.961608,
    "lng": 120.763378,
    "address": "946屏東縣恆春鎮南灣里南灣路216號"
  },
  {
    "dataType": "wifi",
    "category": "其他",
    "name": "屏東縣恆春鎮山海社區產業文化協會",
    "lat": 21.9844,
    "lng": 120.714529,
    "address": "946屏東縣恆春鎮山海里山海路84號"
  },
  {
    "dataType": "wifi",
    "category": "洽公場所",
    "name": "自來水公司恆春營運所",
    "lat": 21.986332,
    "lng": 120.731166,
    "address": "946屏東縣恆春鎮龍泉路102號"
  },
  {
    "dataType": "wifi",
    "category": "公立醫院",
    "name": "恆春旅遊醫院-醫療大樓1樓掛號室大廳",
    "lat": 21.999027,
    "lng": 120.744467,
    "address": "946屏東縣恆春鎮恆南路188號"
  },
  {
    "dataType": "wifi",
    "category": "其他",
    "name": "屏東縣滿州鄉港口社區發展協會",
    "lat": 21.990766,
    "lng": 120.826838,
    "address": "947屏東縣滿州鄉港口村港口路42號"
  },
  {
    "dataType": "wifi",
    "category": "洽公場所",
    "name": "公路總局高雄區監理所屏東監理站恆春分站",
    "lat": 22.008402,
    "lng": 120.739274,
    "address": "946屏東縣恆春鎮草埔路11號1樓"
  },
  {
    "dataType": "wifi",
    "category": "其他",
    "name": "屏東縣恆春鎮虎頭山關懷促進協會",
    "lat": 22.011,
    "lng": 120.727,
    "address": "946屏東縣恆春鎮仁壽里仁愛路22號"
  },
  {
    "dataType": "wifi",
    "category": "洽公場所",
    "name": "恆春郵局",
    "lat": 22.001551,
    "lng": 120.742192,
    "address": "946屏東縣恆春鎮恆西路1巷32號"
  },
  {
    "dataType": "wifi",
    "category": "洽公場所",
    "name": "財政部南區國稅局恆春稽徵所",
    "lat": 22.001647,
    "lng": 120.745887,
    "address": "946屏東縣恆春鎮南門路98號2樓"
  },
  {
    "dataType": "wifi",
    "category": "洽公場所",
    "name": "第一商業銀行(恆春分行)",
    "lat": 22.001994,
    "lng": 120.745293,
    "address": "946屏東縣恆春鎮中正路17號"
  },
  {
    "dataType": "wifi",
    "category": "其他",
    "name": "屏東縣恆春鎮山腳社區發展協會",
    "lat": 22.00253,
    "lng": 120.741842,
    "address": "946屏東縣恆春鎮山腳里環城南路25號"
  },
  {
    "dataType": "wifi",
    "category": "洽公場所",
    "name": "恆春南門郵局",
    "lat": 22.002571,
    "lng": 120.744943,
    "address": "946屏東縣恆春鎮中正路51號"
  },
  {
    "dataType": "wifi",
    "category": "大眾運輸節點",
    "name": "恆春轉運站旅遊服務中心",
    "lat": 22.00258,
    "lng": 120.74538,
    "address": "946屏東縣恆春鎮中正路30號"
  },
  {
    "dataType": "wifi",
    "category": "洽公場所",
    "name": "屏東縣恆春地政事務所",
    "lat": 22.00293,
    "lng": 120.747012,
    "address": "946屏東縣恆春鎮文化路77號"
  },
  {
    "dataType": "wifi",
    "category": "洽公場所",
    "name": "屏東縣恆春戶政事務所",
    "lat": 22.003061,
    "lng": 120.745578,
    "address": "946屏東縣恆春鎮天文路60號"
  },
  {
    "dataType": "wifi",
    "category": "其他",
    "name": "屏東縣政府社會處(恆春社會福利綜合館)",
    "lat": 22.00345,
    "lng": 120.7483,
    "address": "946屏東縣恆春鎮文化路33號"
  },
  {
    "dataType": "wifi",
    "category": "文教館所",
    "name": "屏東縣恆春鎮立圖書館",
    "lat": 22.003629,
    "lng": 120.74694,
    "address": "946屏東縣恆春鎮天文路3號"
  },
  {
    "dataType": "wifi",
    "category": "其他",
    "name": "屏東縣恆春鎮瑯嶠老人會",
    "lat": 22.003823,
    "lng": 120.745523,
    "address": "946屏東縣恆春鎮城南里新興路36巷35號二樓"
  },
  {
    "dataType": "wifi",
    "category": "其他",
    "name": "屏東縣恆春鎮網紗社區發展協會",
    "lat": 22.0169,
    "lng": 120.7443,
    "address": "946屏東縣恆春鎮網紗里省北路272之6號"
  },
  {
    "dataType": "wifi",
    "category": "其他",
    "name": "屏東縣恆春鎮福增福健康促進協會",
    "lat": 22.017,
    "lng": 120.744,
    "address": "946屏東縣恆春鎮四溝里興北路興東巷19號"
  },
  {
    "dataType": "wifi",
    "category": "其他",
    "name": "屏東縣滿州鄉永靖社區發展協會",
    "lat": 22.010354,
    "lng": 120.794304,
    "address": "947屏東縣滿州鄉永靖村庄內路18號"
  },
  {
    "dataType": "wifi",
    "category": "洽公場所",
    "name": "滿州郵局",
    "lat": 22.018543,
    "lng": 120.837955,
    "address": "947屏東縣滿州鄉中山路25號"
  },
  {
    "dataType": "wifi",
    "category": "其他",
    "name": "屏東縣滿州鄉里德部落-2",
    "lat": 22.01345,
    "lng": 120.84229,
    "address": "947屏東縣滿州鄉里德路21號"
  },
  {
    "dataType": "wifi",
    "category": "其他",
    "name": "屏東縣恆春鎮茄湖社區發展協會",
    "lat": 22.035673,
    "lng": 120.717034,
    "address": "946屏東縣恆春鎮茄湖里茄苳路160號"
  },
  {
    "dataType": "wifi",
    "category": "其他",
    "name": "屏東縣滿州鄉滿州社區發展協會",
    "lat": 22.020799,
    "lng": 120.837284,
    "address": "947屏東縣滿州鄉滿州村中山路3巷35號"
  },
  {
    "dataType": "wifi",
    "category": "洽公場所",
    "name": "屏東縣恆春戶政事務所滿州辦公室",
    "lat": 22.02132,
    "lng": 120.837284,
    "address": "947屏東縣滿州鄉中山路3巷36號"
  },
  {
    "dataType": "wifi",
    "category": "其他",
    "name": "屏東縣滿州鄉響林社區發展協會",
    "lat": 22.037654,
    "lng": 120.833526,
    "address": "947屏東縣滿州鄉響林村福德路64巷3號"
  },
  {
    "dataType": "wifi",
    "category": "其他",
    "name": "屏東縣滿州鄉里德部落-1",
    "lat": 22.02074,
    "lng": 120.85133,
    "address": "947屏東縣滿州鄉山頂路66號"
  },
  {
    "dataType": "wifi",
    "category": "其他",
    "name": "屏東縣車城鄉射寮社區發展協會",
    "lat": 22.054875,
    "lng": 120.707661,
    "address": "944屏東縣車城鄉射寮村射寮路164號"
  },
  {
    "dataType": "wifi",
    "category": "其他",
    "name": "屏東縣車城鄉埔墘社區發展協會",
    "lat": 22.055737,
    "lng": 120.709591,
    "address": "944屏東縣車城鄉埔墘村埔墘路32之3號"
  },
  {
    "dataType": "wifi",
    "category": "其他",
    "name": "屏東縣車城鄉新街社區發展協會",
    "lat": 22.058741,
    "lng": 120.712502,
    "address": "944屏東縣車城鄉新街村新街路100號"
  },
  {
    "dataType": "wifi",
    "category": "大眾運輸節點",
    "name": "恆春航空站",
    "lat": 22.040037,
    "lng": 120.733458,
    "address": "946屏東縣恆春鎮仁壽里10鄰省北路二段393號"
  },
  {
    "dataType": "wifi",
    "category": "其他",
    "name": "屏東縣車城鄉保力社區發展協會",
    "lat": 22.05711,
    "lng": 120.725338,
    "address": "944屏東縣車城鄉保力村下城路19之3號"
  },
  {
    "dataType": "wifi",
    "category": "其他",
    "name": "車城鄉樂智社區服務據點",
    "lat": 22.060297,
    "lng": 120.716344,
    "address": "944屏東縣車城鄉新街村新街路4號"
  },
  {
    "dataType": "wifi",
    "category": "其他",
    "name": "車城鄉銀髮健身俱樂部",
    "lat": 22.06886,
    "lng": 120.70781,
    "address": "944屏東縣車城鄉福安村福安路2-30號"
  },
  {
    "dataType": "wifi",
    "category": "其他",
    "name": "屏東縣車城鄉興安社區發展協會",
    "lat": 22.072043,
    "lng": 120.711476,
    "address": "944屏東縣車城鄉福安村福興路75號"
  },
  {
    "dataType": "wifi",
    "category": "洽公場所",
    "name": "屏東縣恆春戶政事務所車城辦公室",
    "lat": 22.072817,
    "lng": 120.714268,
    "address": "944屏東縣車城鄉中山路17號"
  },
  {
    "dataType": "wifi",
    "category": "其他",
    "name": "屏東縣車城鄉老人會",
    "lat": 22.072929,
    "lng": 120.713702,
    "address": "944屏東縣車城鄉福興村中山路32之2號"
  },
  {
    "dataType": "wifi",
    "category": "洽公場所",
    "name": "車城郵局",
    "lat": 22.07402,
    "lng": 120.713919,
    "address": "944屏東縣車城鄉中山路54號"
  },
  {
    "dataType": "wifi",
    "category": "其他",
    "name": "屏東縣車城鄉田中社區發展協會",
    "lat": 22.077632,
    "lng": 120.714951,
    "address": "944屏東縣車城鄉田中村田中路15之1號"
  },
  {
    "dataType": "wifi",
    "category": "其他",
    "name": "屏東縣車城鄉統埔社區發展協會",
    "lat": 22.07194,
    "lng": 120.731079,
    "address": "944屏東縣車城鄉統埔村統埔路10號"
  },
  {
    "dataType": "wifi",
    "category": "其他",
    "name": "屏東縣牡丹鄉四林部落",
    "lat": 22.07409,
    "lng": 120.8146,
    "address": "945屏東縣牡丹鄉四林村四林路48號"
  },
  {
    "dataType": "wifi",
    "category": "其他",
    "name": "屏東縣滿州鄉長樂部落",
    "lat": 22.07412,
    "lng": 120.82601,
    "address": "947屏東縣滿州鄉長樂村和平路25之1號"
  },
  {
    "dataType": "wifi",
    "category": "其他",
    "name": "屏東縣牡丹鄉四林部落-2",
    "lat": 22.0762,
    "lng": 120.82028,
    "address": "945屏東縣牡丹鄉四林村四林路6號"
  },
  {
    "dataType": "wifi",
    "category": "其他",
    "name": "屏東縣車城鄉海口社區發展協會",
    "lat": 22.086674,
    "lng": 120.715793,
    "address": "944屏東縣車城鄉海口村海口路58號"
  },
  {
    "dataType": "wifi",
    "category": "旅遊景點",
    "name": "屏東四重溪溫泉公園",
    "lat": 22.094212,
    "lng": 120.746586,
    "address": "944屏東縣車城鄉溫泉路玉泉巷30-10號"
  },
  {
    "dataType": "wifi",
    "category": "其他",
    "name": "屏東縣車城鄉溫泉社區發展協會",
    "lat": 22.095613,
    "lng": 120.750426,
    "address": "944屏東縣車城鄉溫泉村溫泉路245號"
  },
  {
    "dataType": "wifi",
    "category": "旅遊景點",
    "name": "墾丁國家公園管理處南仁山管理站",
    "lat": 22.085064,
    "lng": 120.8354,
    "address": "947屏東縣滿州鄉長樂村八瑤路2-1號"
  },
  {
    "dataType": "wifi",
    "category": "其他",
    "name": "屏東縣牡丹鄉大梅部落",
    "lat": 22.10166,
    "lng": 120.74698,
    "address": "945屏東縣牡丹鄉大梅路29之6"
  },
  {
    "dataType": "wifi",
    "category": "其他",
    "name": "屏東縣滿州鄉分水嶺部落",
    "lat": 22.10214,
    "lng": 120.84026,
    "address": "947屏東縣滿州鄉八瑤路67號"
  },
  {
    "dataType": "wifi",
    "category": "洽公場所",
    "name": "牡丹郵局",
    "lat": 22.125258,
    "lng": 120.773619,
    "address": "945屏東縣牡丹鄉石門村石門路31-3號"
  },
  {
    "dataType": "wifi",
    "category": "洽公場所",
    "name": "屏東縣恆春戶政事務所牡丹辦公室",
    "lat": 22.125795,
    "lng": 120.773302,
    "address": "945屏東縣牡丹鄉石門路32之7號"
  },
  {
    "dataType": "wifi",
    "category": "其他",
    "name": "屏東縣牡丹鄉石門部落",
    "lat": 22.12611,
    "lng": 120.77443,
    "address": "945屏東縣牡丹鄉石門村26號"
  },
  {
    "dataType": "wifi",
    "category": "其他",
    "name": "屏東縣牡丹鄉高士部落2",
    "lat": 22.12193,
    "lng": 120.83756,
    "address": "945屏東縣牡丹鄉高士村高士路67號"
  },
  {
    "dataType": "wifi",
    "category": "其他",
    "name": "屏東縣牡丹鄉高士部落1",
    "lat": 22.12083,
    "lng": 120.84699,
    "address": "945屏東縣牡丹鄉高士佛26號"
  },
  {
    "dataType": "wifi",
    "category": "其他",
    "name": "屏東縣滿州鄉港仔社區發展協會",
    "lat": 22.133287,
    "lng": 120.881911,
    "address": "947屏東縣滿州鄉港仔村港仔路65號"
  },
  {
    "dataType": "wifi",
    "category": "其他",
    "name": "屏東縣牡丹鄉牡丹部落",
    "lat": 22.17532,
    "lng": 120.83734,
    "address": "945屏東縣牡丹鄉牡丹路107之1號"
  },
  {
    "dataType": "wifi",
    "category": "其他",
    "name": "獅子鄉樂智社區服務據點",
    "lat": 22.191909,
    "lng": 120.717751,
    "address": "943屏東縣獅子鄉楓林村一巷6-4號"
  },
  {
    "dataType": "wifi",
    "category": "其他",
    "name": "屏東縣獅子鄉楓林部落",
    "lat": 22.19992,
    "lng": 120.70616,
    "address": "943屏東縣獅子鄉楓林1巷6號之4"
  },
  {
    "dataType": "wifi",
    "category": "大眾運輸節點",
    "name": "蘭嶼航空站",
    "lat": 22.026836,
    "lng": 121.536424,
    "address": "952臺東縣蘭嶼鄉紅頭村漁人151號"
  },
  {
    "dataType": "wifi",
    "category": "其他",
    "name": "臺東縣蘭嶼鄉紅頭部落",
    "lat": 22.02468,
    "lng": 121.55567,
    "address": "952臺東縣蘭嶼鄉紅頭村紅頭78號"
  },
  {
    "dataType": "wifi",
    "category": "洽公場所",
    "name": "蘭嶼郵局",
    "lat": 22.025038,
    "lng": 121.554228,
    "address": "952臺東縣蘭嶼鄉紅頭村37號"
  },
  {
    "dataType": "wifi",
    "category": "其他",
    "name": "臺東縣蘭嶼鄉漁人部落",
    "lat": 22.02735,
    "lng": 121.5442,
    "address": "952臺東縣蘭嶼鄉紅頭村漁人1號之3"
  },
  {
    "dataType": "wifi",
    "category": "其他",
    "name": "臺東縣蘭嶼鄉野銀部落",
    "lat": 22.037703,
    "lng": 121.565985,
    "address": "952臺東縣蘭嶼鄉東清村野銀92號之1"
  },
  {
    "dataType": "wifi",
    "category": "其他",
    "name": "社團法人臺東縣蘭嶼鄉居家關懷協會-蘭嶼鄉-東清",
    "lat": 22.038266,
    "lng": 121.566019,
    "address": "952臺東縣蘭嶼鄉東清村7鄰東清130號"
  },
  {
    "dataType": "wifi",
    "category": "其他",
    "name": "臺東縣蘭嶼鄉椰油部落",
    "lat": 22.050382,
    "lng": 121.512994,
    "address": "952臺東縣蘭嶼鄉椰油村椰油87號"
  },
  {
    "dataType": "wifi",
    "category": "其他",
    "name": "臺東縣蘭嶼鄉開元港",
    "lat": 22.060643,
    "lng": 121.50971,
    "address": "952臺東縣蘭嶼鄉椰油村椰油296號之5"
  },
  {
    "dataType": "wifi",
    "category": "其他",
    "name": "屏東縣琉球鄉天福社區發展協會",
    "lat": 22.328799,
    "lng": 120.359256,
    "address": "929屏東縣琉球鄉天福村中正路3巷"
  },
  {
    "dataType": "wifi",
    "category": "其他",
    "name": "屏東縣東港鎮東和社區環保健康與休閒協會",
    "lat": 22.335,
    "lng": 120.374,
    "address": "928屏東縣東港鎮頂中里博愛街205號"
  },
  {
    "dataType": "wifi",
    "category": "洽公場所",
    "name": "琉球郵局",
    "lat": 22.343406,
    "lng": 120.373643,
    "address": "929屏東縣琉球鄉本福村中山路105號"
  },
  {
    "dataType": "wifi",
    "category": "其他",
    "name": "屏東縣琉球鄉杉福社區發展協會",
    "lat": 22.344645,
    "lng": 120.367484,
    "address": "929屏東縣琉球鄉杉福村復興路1巷1之3號"
  },
  {
    "dataType": "wifi",
    "category": "其他",
    "name": "琉球鄉樂智社區服務據點",
    "lat": 22.348051,
    "lng": 120.385175,
    "address": "929屏東縣琉球鄉漁福村本漁路81巷5號"
  },
  {
    "dataType": "wifi",
    "category": "洽公場所",
    "name": "屏東縣東港戶政事務所琉球辦公室",
    "lat": 22.348547,
    "lng": 120.383477,
    "address": "929屏東縣琉球鄉行政路16號"
  },
  {
    "dataType": "wifi",
    "category": "其他",
    "name": "屏東縣琉球鄉老人會",
    "lat": 22.354122,
    "lng": 120.38157,
    "address": "929屏東縣琉球鄉本福村民生路24之1號"
  },
  {
    "dataType": "wifi",
    "category": "旅遊景點",
    "name": "小琉球遊客中心",
    "lat": 22.354299,
    "lng": 120.381124,
    "address": "929屏東縣琉球鄉民族路20-1號"
  },
  {
    "dataType": "wifi",
    "category": "公立醫院",
    "name": "高雄榮民總醫院屏東分院護理之家",
    "lat": 22.403006,
    "lng": 120.355507,
    "address": "912屏東縣內埔鄉龍潭村昭勝路安平1巷1號"
  },
  {
    "dataType": "wifi",
    "category": "公立醫院",
    "name": "高雄榮民總醫院屏東分院急診室",
    "lat": 22.403006,
    "lng": 120.355507,
    "address": "912屏東縣內埔鄉龍潭村昭勝路安平1巷1號"
  },
  {
    "dataType": "wifi",
    "category": "公立醫院",
    "name": "高雄榮民總醫院屏東分院行政大樓",
    "lat": 22.403006,
    "lng": 120.355507,
    "address": "912屏東縣內埔鄉龍潭村昭勝路安平1巷1號"
  },
  {
    "dataType": "wifi",
    "category": "公立醫院",
    "name": "高雄榮民總醫院屏東分院圖書室",
    "lat": 22.403006,
    "lng": 120.355507,
    "address": "912屏東縣內埔鄉龍潭村昭勝路安平1巷1號"
  },
  {
    "dataType": "wifi",
    "category": "其他",
    "name": "中華民國健康生活管理促進產業協會(中芸站)",
    "lat": 22.483025,
    "lng": 120.396721,
    "address": "832高雄市林園區中芸里中芸路83巷19號"
  },
  {
    "dataType": "wifi",
    "category": "文教館所",
    "name": "高雄市立圖書館林園二館",
    "lat": 22.486587,
    "lng": 120.394835,
    "address": "832高雄市林園區中芸里西溪路56-20號2樓"
  },
  {
    "dataType": "wifi",
    "category": "其他",
    "name": "高雄市林園區西溪社區發展協會",
    "lat": 22.487524,
    "lng": 120.393989,
    "address": "832高雄市林園區西溪里西溪路70號"
  },
  {
    "dataType": "wifi",
    "category": "其他",
    "name": "高雄市林園區港埔社區發展協會",
    "lat": 22.497235,
    "lng": 120.384857,
    "address": "832高雄市林園區港埔里港埔三路129號"
  },
  {
    "dataType": "wifi",
    "category": "其他",
    "name": "屏東縣獅子鄉和平部落",
    "lat": 22.23237,
    "lng": 120.68069,
    "address": "943屏東縣獅子鄉獅子1巷35號"
  },
  {
    "dataType": "wifi",
    "category": "其他",
    "name": "屏東縣枋山鄉成功社區發展協會",
    "lat": 22.249617,
    "lng": 120.658835,
    "address": "941屏東縣枋山鄉枋山村成功路1巷44號"
  },
  {
    "dataType": "wifi",
    "category": "其他",
    "name": "屏東縣枋山鄉枋山社區發展協會",
    "lat": 22.258624,
    "lng": 120.650534,
    "address": "941屏東縣枋山鄉枋山村枋山路7巷6號"
  },
  {
    "dataType": "wifi",
    "category": "洽公場所",
    "name": "屏東縣枋寮戶政事務所枋山辦公室",
    "lat": 22.262918,
    "lng": 120.652252,
    "address": "941屏東縣枋山鄉國中路26巷1-1號"
  },
  {
    "dataType": "wifi",
    "category": "大眾運輸節點",
    "name": "臺鐵局枋山站月台候車區",
    "lat": 22.267071,
    "lng": 120.657272,
    "address": "943屏東縣獅子鄉內獅村內獅巷84號"
  },
  {
    "dataType": "wifi",
    "category": "其他",
    "name": "屏東縣獅子鄉內獅部落",
    "lat": 22.30462,
    "lng": 120.6449,
    "address": "943屏東縣獅子鄉內獅村內獅巷60號"
  },
  {
    "dataType": "wifi",
    "category": "大眾運輸節點",
    "name": "基隆市暖暖區源遠路78號",
    "lat": 22.306195,
    "lng": 120.641137,
    "address": "941屏東縣枋山鄉加祿村南和43號"
  },
  {
    "dataType": "wifi",
    "category": "其他",
    "name": "屏東縣獅子鄉南世部落",
    "lat": 22.31127,
    "lng": 120.64943,
    "address": "943屏東縣獅子鄉南世1巷8號"
  },
  {
    "dataType": "wifi",
    "category": "其他",
    "name": "屏東縣枋山鄉嘉和社區發展協會",
    "lat": 22.324138,
    "lng": 120.629762,
    "address": "941屏東縣枋山鄉加祿村嘉和路10號"
  },
  {
    "dataType": "wifi",
    "category": "大眾運輸節點",
    "name": "臺鐵局加祿站候車室",
    "lat": 22.330971,
    "lng": 120.624621,
    "address": "941屏東縣枋山鄉加祿村會社路53號"
  },
  {
    "dataType": "wifi",
    "category": "洽公場所",
    "name": "臺灣土地銀行枋寮分行",
    "lat": 22.364311,
    "lng": 120.597912,
    "address": "940屏東縣枋寮鄉隆山村隆山路111號"
  },
  {
    "dataType": "wifi",
    "category": "洽公場所",
    "name": "屏東縣枋寮地政事務所",
    "lat": 22.365169,
    "lng": 120.593594,
    "address": "940屏東縣枋寮鄉德興路32號"
  },
  {
    "dataType": "wifi",
    "category": "洽公場所",
    "name": "枋寮郵局",
    "lat": 22.366405,
    "lng": 120.59508,
    "address": "940屏東縣枋寮鄉中山路194號"
  },
  {
    "dataType": "wifi",
    "category": "洽公場所",
    "name": "屏東縣枋寮戶政事務所",
    "lat": 22.367561,
    "lng": 120.59121,
    "address": "940屏東縣枋寮鄉德興路183號"
  },
  {
    "dataType": "wifi",
    "category": "大眾運輸節點",
    "name": "臺鐵局枋寮站候車室",
    "lat": 22.368046,
    "lng": 120.595196,
    "address": "940屏東縣枋寮鄉儲運路18號"
  },
  {
    "dataType": "wifi",
    "category": "其他",
    "name": "屏東縣枋寮鄉體育會",
    "lat": 22.363052,
    "lng": 120.600038,
    "address": "940屏東縣枋寮鄉隆山村隆興路218巷7號"
  },
  {
    "dataType": "wifi",
    "category": "其他",
    "name": "屏東縣春日鄉春日部落",
    "lat": 22.37012,
    "lng": 120.62505,
    "address": "942屏東縣春日鄉春日路174號"
  },
  {
    "dataType": "wifi",
    "category": "洽公場所",
    "name": "春日郵局",
    "lat": 22.370284,
    "lng": 120.624126,
    "address": "942屏東縣春日鄉春日路13號"
  },
  {
    "dataType": "wifi",
    "category": "洽公場所",
    "name": "屏東縣枋寮戶政事務所春日辦公室",
    "lat": 22.371007,
    "lng": 120.627468,
    "address": "942屏東縣春日鄉春日路29號"
  },
  {
    "dataType": "wifi",
    "category": "洽公場所",
    "name": "春日鄉公所",
    "lat": 22.371167,
    "lng": 120.629133,
    "address": "942屏東縣春日鄉春日路322號"
  },
  {
    "dataType": "wifi",
    "category": "其他",
    "name": "屏東縣枋寮鄉大庄社區發展協會",
    "lat": 22.392195,
    "lng": 120.55569,
    "address": "940屏東縣枋寮鄉大庄村德聖路47號"
  },
  {
    "dataType": "wifi",
    "category": "其他",
    "name": "屏東縣枋寮鄉新龍社區發展協會",
    "lat": 22.382896,
    "lng": 120.573718,
    "address": "940屏東縣枋寮鄉新龍村義民路200之2號"
  },
  {
    "dataType": "wifi",
    "category": "其他",
    "name": "屏東縣枋寮鄉人和社區發展協會",
    "lat": 22.384945,
    "lng": 120.598282,
    "address": "940屏東縣枋寮鄉人和村中華路178巷18號"
  },
  {
    "dataType": "wifi",
    "category": "洽公場所",
    "name": "枋寮水底寮郵局",
    "lat": 22.385088,
    "lng": 120.595185,
    "address": "940屏東縣枋寮鄉中山路二段258號"
  },
  {
    "dataType": "wifi",
    "category": "其他",
    "name": "屏東縣枋寮鄉地利社區發展協會",
    "lat": 22.387319,
    "lng": 120.595694,
    "address": "940屏東縣枋寮鄉地利村自強路46號"
  },
  {
    "dataType": "wifi",
    "category": "其他",
    "name": "屏東縣枋寮鄉愛鄉協進會",
    "lat": 22.392466,
    "lng": 120.598381,
    "address": "940屏東縣枋寮鄉天時村公正路26巷28號"
  },
  {
    "dataType": "wifi",
    "category": "其他",
    "name": "IGYM枋寮銀髮健身俱樂部",
    "lat": 22.38725,
    "lng": 120.60258,
    "address": "940屏東縣枋寮鄉建興路36號"
  },
  {
    "dataType": "wifi",
    "category": "其他",
    "name": "屏東縣佳冬鄉塭豐社區發展協會",
    "lat": 22.412296,
    "lng": 120.521762,
    "address": "931屏東縣佳冬鄉塭豐村塭田路206號"
  },
  {
    "dataType": "wifi",
    "category": "其他",
    "name": "屏東縣佳冬鄉幸福關懷協會",
    "lat": 22.408929,
    "lng": 120.558228,
    "address": "931屏東縣佳冬鄉賴家村大平路18號"
  },
  {
    "dataType": "wifi",
    "category": "大眾運輸節點",
    "name": "臺鐵局佳冬站候車室",
    "lat": 22.414053,
    "lng": 120.547714,
    "address": "931屏東縣佳冬鄉六根村復興路21號"
  },
  {
    "dataType": "wifi",
    "category": "洽公場所",
    "name": "佳冬郵局",
    "lat": 22.414342,
    "lng": 120.552084,
    "address": "931屏東縣佳冬鄉佳冬村佳和路86號"
  },
  {
    "dataType": "wifi",
    "category": "洽公場所",
    "name": "屏東縣枋寮戶政事務所佳冬辦公室",
    "lat": 22.414764,
    "lng": 120.54951,
    "address": "931屏東縣佳冬鄉佳和路89號"
  },
  {
    "dataType": "wifi",
    "category": "洽公場所",
    "name": "華南商業銀行佳冬分行",
    "lat": 22.416107,
    "lng": 120.549674,
    "address": "931屏東縣佳冬鄉佳昌路155號"
  },
  {
    "dataType": "wifi",
    "category": "其他",
    "name": "屏東縣枋寮鄉東海社區發展協會",
    "lat": 22.402674,
    "lng": 120.578401,
    "address": "940屏東縣枋寮鄉東海村東海路434巷40號"
  },
  {
    "dataType": "wifi",
    "category": "洽公場所",
    "name": "屏南工業區服務中心",
    "lat": 22.411928,
    "lng": 120.577208,
    "address": "940屏東縣枋寮鄉東海村屏南路36號"
  },
  {
    "dataType": "wifi",
    "category": "其他",
    "name": "屏東縣枋寮鄉太源社區發展協會",
    "lat": 22.405342,
    "lng": 120.593148,
    "address": "940屏東縣枋寮鄉太源村太源路49之2號"
  },
  {
    "dataType": "wifi",
    "category": "其他",
    "name": "屏東縣枋寮鄉新開社區發展協會",
    "lat": 22.407641,
    "lng": 120.617859,
    "address": "940屏東縣枋寮鄉新開村新開一路43號"
  },
  {
    "dataType": "wifi",
    "category": "旅遊景點",
    "name": "交通部觀光局大鵬灣國家風景區濱灣公園候船室",
    "lat": 22.437049,
    "lng": 120.476936,
    "address": "928屏東縣東港鎮大鵬灣環灣道路五段50號"
  },
  {
    "dataType": "wifi",
    "category": "大眾運輸節點",
    "name": "臺鐵局林邊站第1月台6車位置",
    "lat": 22.431341,
    "lng": 120.513094,
    "address": "927屏東縣林邊鄉仁和村仁愛路33號"
  },
  {
    "dataType": "wifi",
    "category": "大眾運輸節點",
    "name": "臺鐵局林邊站第2月台8車位置",
    "lat": 22.431341,
    "lng": 120.513094,
    "address": "927屏東縣林邊鄉仁和村仁愛路33號"
  },
  {
    "dataType": "wifi",
    "category": "大眾運輸節點",
    "name": "臺鐵局林邊站內辦公室",
    "lat": 22.43155,
    "lng": 120.515806,
    "address": "927屏東縣林邊鄉仁和村仁愛路33號"
  },
  {
    "dataType": "wifi",
    "category": "洽公場所",
    "name": "屏東縣東港戶政事務所林邊辦公室",
    "lat": 22.431554,
    "lng": 120.50996,
    "address": "927屏東縣林邊鄉和平路51號"
  },
  {
    "dataType": "wifi",
    "category": "洽公場所",
    "name": "林邊郵局",
    "lat": 22.433653,
    "lng": 120.51625,
    "address": "927屏東縣林邊鄉中林村中山路116號"
  },
  {
    "dataType": "wifi",
    "category": "其他",
    "name": "屏東縣林邊鄉仁和關懷協進會",
    "lat": 22.433731,
    "lng": 120.512698,
    "address": "927屏東縣林邊鄉仁和村和平路41號"
  },
  {
    "dataType": "wifi",
    "category": "其他",
    "name": "屏東縣林邊鄉永樂社區發展協會",
    "lat": 22.435803,
    "lng": 120.516259,
    "address": "927屏東縣林邊鄉永樂村榮農路8號"
  },
  {
    "dataType": "wifi",
    "category": "其他",
    "name": "大愛護理之家(林邊鄉樂智社區服務據點)",
    "lat": 22.437665,
    "lng": 120.518973,
    "address": "927屏東縣林邊鄉永樂村中林路269號"
  },
  {
    "dataType": "wifi",
    "category": "洽公場所",
    "name": "屏東縣林邊鄉立圖書館",
    "lat": 22.439351,
    "lng": 120.518212,
    "address": "927屏東縣林邊鄉永樂村美華路197之63號"
  },
  {
    "dataType": "wifi",
    "category": "其他",
    "name": "屏東縣佳冬鄉燄溫社區發展協會",
    "lat": 22.4204,
    "lng": 120.524924,
    "address": "931屏東縣佳冬鄉燄溫村炯興路2之5號"
  },
  {
    "dataType": "wifi",
    "category": "其他",
    "name": "屏東縣佳冬鄉羌園社區發展協會",
    "lat": 22.429778,
    "lng": 120.529247,
    "address": "931屏東縣佳冬鄉羌園村內管路25號(福園宮)"
  },
  {
    "dataType": "wifi",
    "category": "其他",
    "name": "屏東縣佳冬鄉萬建社區發展協會",
    "lat": 22.423488,
    "lng": 120.563144,
    "address": "931屏東縣佳冬鄉萬建村忠義街207號"
  },
  {
    "dataType": "wifi",
    "category": "其他",
    "name": "屏東縣春日鄉七佳部落",
    "lat": 22.42803,
    "lng": 120.62761,
    "address": "942屏東縣春日鄉自強1路18號"
  },
  {
    "dataType": "wifi",
    "category": "其他",
    "name": "全齡春日鄉樂智據點",
    "lat": 22.428335,
    "lng": 120.629113,
    "address": "942屏東縣春日鄉歸崇村玉山路165號"
  },
  {
    "dataType": "wifi",
    "category": "其他",
    "name": "屏東縣春日鄉力里部落",
    "lat": 22.43062,
    "lng": 120.64722,
    "address": "942屏東縣春日鄉圓山路3號"
  },
  {
    "dataType": "wifi",
    "category": "其他",
    "name": "屏東縣來義鄉高見部落",
    "lat": 22.436959,
    "lng": 120.640528,
    "address": "922屏東縣來義鄉南和路117之1"
  },
  {
    "dataType": "wifi",
    "category": "其他",
    "name": "社團法人屏東縣東港鎮大潭老人福利協會",
    "lat": 22.455406,
    "lng": 120.494733,
    "address": "928屏東縣東港鎮大潭里大潭路103之8號"
  },
  {
    "dataType": "wifi",
    "category": "其他",
    "name": "屏東縣林邊鄉鎮安社區發展協會",
    "lat": 22.455061,
    "lng": 120.503676,
    "address": "927屏東縣林邊鄉鎮安村中正路1之14號"
  },
  {
    "dataType": "wifi",
    "category": "其他",
    "name": "屏東縣佳冬鄉大同社區發展協會",
    "lat": 22.450808,
    "lng": 120.537645,
    "address": "931屏東縣佳冬鄉大同村武丁路33號"
  },
  {
    "dataType": "wifi",
    "category": "其他",
    "name": "屏東縣林邊鄉復興社區發展協會",
    "lat": 22.455941,
    "lng": 120.52281,
    "address": "927屏東縣林邊鄉竹林村下庄65號"
  },
  {
    "dataType": "wifi",
    "category": "其他",
    "name": "財團法人台灣基督長老教會屏東中會竹仔腳教會",
    "lat": 22.458077,
    "lng": 120.527576,
    "address": "927屏東縣林邊鄉竹林村13鄰中興路2之2號"
  },
  {
    "dataType": "wifi",
    "category": "其他",
    "name": "屏東縣佳冬鄉豐隆社區發展協會",
    "lat": 22.448628,
    "lng": 120.559413,
    "address": "931屏東縣佳冬鄉豐隆村西昌路16號"
  },
  {
    "dataType": "wifi",
    "category": "其他",
    "name": "屏東縣佳冬鄉昌隆社區發展協會",
    "lat": 22.44692,
    "lng": 120.56197,
    "address": "931屏東縣佳冬鄉昌隆村中正路5號（神農宮）"
  },
  {
    "dataType": "wifi",
    "category": "其他",
    "name": "大愛護理之家(佳冬鄉樂智社區服務據點)",
    "lat": 22.447721,
    "lng": 120.560844,
    "address": "931屏東縣佳冬鄉玉光村中正路34-15號"
  },
  {
    "dataType": "wifi",
    "category": "其他",
    "name": "屏東縣新園鄉共和社區發展協會",
    "lat": 22.474988,
    "lng": 120.437153,
    "address": "932屏東縣新園鄉共和村義仁路5號"
  },
  {
    "dataType": "wifi",
    "category": "其他",
    "name": "屏東縣東港鎮大鵬灣觀光發展社區聯合協會",
    "lat": 22.461774,
    "lng": 120.442561,
    "address": "928屏東縣東港鎮鎮海里鎮海路42之5號"
  },
  {
    "dataType": "wifi",
    "category": "洽公場所",
    "name": "自來水公司東港營運所",
    "lat": 22.463821,
    "lng": 120.455178,
    "address": "928屏東縣東港鎮共和街107-2號"
  },
  {
    "dataType": "wifi",
    "category": "其他",
    "name": "屏東縣東港鎮社區營造關懷協會",
    "lat": 22.464491,
    "lng": 120.442452,
    "address": "928屏東縣東港鎮豐漁里豐漁街34之2號"
  },
  {
    "dataType": "wifi",
    "category": "大眾運輸節點",
    "name": "東港轉運站",
    "lat": 22.464626,
    "lng": 120.457684,
    "address": "928屏東縣東港鎮船頭路3號"
  },
  {
    "dataType": "wifi",
    "category": "其他",
    "name": "財團法人台灣基督長老教會屏東中會東港教會",
    "lat": 22.465403,
    "lng": 120.447872,
    "address": "928屏東縣東港鎮福德里延平路187號"
  },
  {
    "dataType": "wifi",
    "category": "洽公場所",
    "name": "第一商業銀行(東港分行)",
    "lat": 22.466603,
    "lng": 120.449114,
    "address": "928屏東縣東港鎮朝陽街23號"
  },
  {
    "dataType": "wifi",
    "category": "洽公場所",
    "name": "財政部南區國稅局東港稽徵所",
    "lat": 22.466662,
    "lng": 120.446121,
    "address": "928屏東縣東港鎮新生二路16號2樓"
  },
  {
    "dataType": "wifi",
    "category": "洽公場所",
    "name": "屏東縣東港鎮公所",
    "lat": 22.46672,
    "lng": 120.454398,
    "address": "928屏東縣東港鎮中山路2-100號"
  },
  {
    "dataType": "wifi",
    "category": "洽公場所",
    "name": "臺灣土地銀行東港分行",
    "lat": 22.46729,
    "lng": 120.45342,
    "address": "928屏東縣東港鎮光復路二段27號1~4樓"
  },
  {
    "dataType": "wifi",
    "category": "洽公場所",
    "name": "屏東縣東港戶政事務所",
    "lat": 22.467593,
    "lng": 120.44303,
    "address": "928屏東縣東港鎮新生三路175號"
  },
  {
    "dataType": "wifi",
    "category": "其他",
    "name": "屏東縣東港區漁會",
    "lat": 22.467644,
    "lng": 120.44282,
    "address": "928屏東縣東港鎮新生三路175號"
  },
  {
    "dataType": "wifi",
    "category": "其他",
    "name": "屏東縣東港區漁會魚市場",
    "lat": 22.467644,
    "lng": 120.44282,
    "address": "928屏東縣東港鎮新生三路175號"
  },
  {
    "dataType": "wifi",
    "category": "其他",
    "name": "屏東縣東港區漁會直銷中心",
    "lat": 22.467644,
    "lng": 120.44282,
    "address": "928屏東縣東港鎮新生三路175號"
  },
  {
    "dataType": "wifi",
    "category": "大眾運輸節點",
    "name": "屏東東港候船室",
    "lat": 22.468301,
    "lng": 120.44469,
    "address": "928屏東縣東港鎮朝隆路1號"
  },
  {
    "dataType": "wifi",
    "category": "洽公場所",
    "name": "屏東縣東港地政事務所",
    "lat": 22.468658,
    "lng": 120.450779,
    "address": "928屏東縣東港鎮中正路181號"
  },
  {
    "dataType": "wifi",
    "category": "洽公場所",
    "name": "東港中正路郵局",
    "lat": 22.468897,
    "lng": 120.450953,
    "address": "928屏東縣東港鎮頂新里中正路183號"
  },
  {
    "dataType": "wifi",
    "category": "其他",
    "name": "屏東縣南州鄉溪北社區發展協會",
    "lat": 22.469,
    "lng": 120.449,
    "address": "926屏東縣南州鄉溪北村仁里路93號"
  },
  {
    "dataType": "wifi",
    "category": "洽公場所",
    "name": "東港郵局",
    "lat": 22.469815,
    "lng": 120.458098,
    "address": "928屏東縣東港鎮光復路一段293號"
  },
  {
    "dataType": "wifi",
    "category": "洽公場所",
    "name": "中央健康保險署-高屏業務組東港聯絡辦公室",
    "lat": 22.474349,
    "lng": 120.459172,
    "address": "928屏東縣東港鎮中正路一段210號"
  },
  {
    "dataType": "wifi",
    "category": "其他",
    "name": "屏東縣新園鄉鹽埔婦女健康協會",
    "lat": 22.47885,
    "lng": 120.440352,
    "address": "932屏東縣新園鄉鹽埔村鹽龍路180之9號"
  },
  {
    "dataType": "wifi",
    "category": "其他",
    "name": "社團法人屏東縣海口人社區經營協會",
    "lat": 22.476829,
    "lng": 120.465495,
    "address": "928屏東縣東港鎮興東里興東二街63號"
  },
  {
    "dataType": "wifi",
    "category": "其他",
    "name": "屏東縣東港鎮下廍社區發展協會",
    "lat": 22.464472,
    "lng": 120.492993,
    "address": "928屏東縣東港鎮下部里建安一街345號"
  },
  {
    "dataType": "wifi",
    "category": "其他",
    "name": "屏東縣南州鄉萬華社區發展協會",
    "lat": 22.465494,
    "lng": 120.504293,
    "address": "926屏東縣南州鄉萬華村萬華路6巷4號"
  },
  {
    "dataType": "wifi",
    "category": "其他",
    "name": "屏東縣新埤鄉新埤社區發展協會",
    "lat": 22.46697,
    "lng": 120.551222,
    "address": "925屏東縣新埤鄉新埤村新華路76號"
  },
  {
    "dataType": "wifi",
    "category": "洽公場所",
    "name": "新埤郵局",
    "lat": 22.468468,
    "lng": 120.550768,
    "address": "925屏東縣新埤鄉新埤村新華路123號"
  },
  {
    "dataType": "wifi",
    "category": "其他",
    "name": "新埤失智社區服務據點",
    "lat": 22.469479,
    "lng": 120.549747,
    "address": "925屏東縣新埤鄉新埤村復興街13號"
  },
  {
    "dataType": "wifi",
    "category": "其他",
    "name": "屏東縣新埤鄉建功社區發展協會",
    "lat": 22.477511,
    "lng": 120.562467,
    "address": "925屏東縣新埤鄉建功村建功路30號"
  },
  {
    "dataType": "wifi",
    "category": "其他",
    "name": "屏東縣新埤鄉獅頭社區發展協會",
    "lat": 22.465112,
    "lng": 120.602717,
    "address": "925屏東縣新埤鄉箕湖村進化路122號"
  },
  {
    "dataType": "wifi",
    "category": "其他",
    "name": "屏東縣新埤鄉餉潭社區發展協會",
    "lat": 22.47613,
    "lng": 120.611127,
    "address": "925屏東縣新埤鄉餉潭村龍潭路137之1號"
  },
  {
    "dataType": "wifi",
    "category": "其他",
    "name": "屏東縣來義鄉望嘉部落",
    "lat": 22.46373,
    "lng": 120.62139,
    "address": "922屏東縣來義鄉望嘉村118號"
  },
  {
    "dataType": "wifi",
    "category": "洽公場所",
    "name": "林園工業區服務中心",
    "lat": 22.49813,
    "lng": 120.410863,
    "address": "832高雄市林園區溪州村石化二路10號1樓"
  },
  {
    "dataType": "wifi",
    "category": "洽公場所",
    "name": "中油公司石化事業部行政中心1樓會客區",
    "lat": 22.498383,
    "lng": 120.407495,
    "address": "832高雄市林園區五福里石化二路3號1樓"
  },
  {
    "dataType": "wifi",
    "category": "洽公場所",
    "name": "高雄臨海林園大發工業區聯合污水處理廠-林園廠",
    "lat": 22.499856,
    "lng": 120.404387,
    "address": "832高雄市林園區沿海路一段1-8號"
  },
  {
    "dataType": "wifi",
    "category": "洽公場所",
    "name": "新園烏龍郵局",
    "lat": 22.486211,
    "lng": 120.45861,
    "address": "932屏東縣新園鄉中洲村南興路106號"
  },
  {
    "dataType": "wifi",
    "category": "其他",
    "name": "屏東縣東港鎮海坪關懷促進協會",
    "lat": 22.488583,
    "lng": 120.469298,
    "address": "928屏東縣東港鎮興農里興農路4之12號"
  },
  {
    "dataType": "wifi",
    "category": "其他",
    "name": "屏東縣新園鄉烏龍社區發展協會",
    "lat": 22.491094,
    "lng": 120.460539,
    "address": "932屏東縣新園鄉烏龍村龍頭路64之55號"
  },
  {
    "dataType": "wifi",
    "category": "其他",
    "name": "屏東縣東港鎮興和社區發展協會",
    "lat": 22.487926,
    "lng": 120.484354,
    "address": "928屏東縣東港鎮興和里興和路205號"
  },
  {
    "dataType": "wifi",
    "category": "洽公場所",
    "name": "潮州南進路郵局",
    "lat": 22.493837,
    "lng": 120.492215,
    "address": "924屏東縣崁頂鄉潮州鎮長興路1-13、1-15號"
  },
  {
    "dataType": "wifi",
    "category": "其他",
    "name": "屏東縣南州鄉七塊社區發展協會",
    "lat": 22.482579,
    "lng": 120.501877,
    "address": "926屏東縣南州鄉七塊村信義路39號"
  },
  {
    "dataType": "wifi",
    "category": "其他",
    "name": "屏東縣南州鄉米崙社區發展協會",
    "lat": 22.484037,
    "lng": 120.518546,
    "address": "926屏東縣南州鄉米崙村中興路86號"
  },
  {
    "dataType": "wifi",
    "category": "其他",
    "name": "屏東縣南州鄉溪南社區發展協會",
    "lat": 22.487894,
    "lng": 120.507951,
    "address": "926屏東縣南州鄉溪南村人和路3巷17號"
  },
  {
    "dataType": "wifi",
    "category": "文教館所",
    "name": "屏東縣南州鄉立圖書館",
    "lat": 22.488579,
    "lng": 120.507985,
    "address": "926屏東縣南州鄉溪南村人和路3巷15號"
  },
  {
    "dataType": "wifi",
    "category": "其他",
    "name": "屏東縣南州鄉溪洲社區發展協會",
    "lat": 22.488599,
    "lng": 120.50534,
    "address": "926屏東縣南州鄉溪洲村人和路170號"
  },
  {
    "dataType": "wifi",
    "category": "其他",
    "name": "屏東縣伯特利全人心靈關懷協會",
    "lat": 22.489299,
    "lng": 120.505778,
    "address": "926屏東縣南州鄉溪洲村三民路184號"
  },
  {
    "dataType": "wifi",
    "category": "洽公場所",
    "name": "南州郵局",
    "lat": 22.48977,
    "lng": 120.511453,
    "address": "926屏東縣南州鄉仁里村三民路9號"
  },
  {
    "dataType": "wifi",
    "category": "其他",
    "name": "松柏樂復易南州樂智學堂",
    "lat": 22.489987,
    "lng": 120.509886,
    "address": "926屏東縣南州鄉仁里村三民路37號2樓"
  },
  {
    "dataType": "wifi",
    "category": "洽公場所",
    "name": "屏東縣東港戶政事務所南州辦公室",
    "lat": 22.490528,
    "lng": 120.50611,
    "address": "926屏東縣南州鄉仁愛路5號"
  },
  {
    "dataType": "wifi",
    "category": "大眾運輸節點",
    "name": "臺鐵局南州站候車室",
    "lat": 22.492095,
    "lng": 120.511798,
    "address": "926屏東縣南州鄉仁里村仁里路86號"
  },
  {
    "dataType": "wifi",
    "category": "大眾運輸節點",
    "name": "臺鐵局南州站第1月台樓梯口",
    "lat": 22.492339,
    "lng": 120.508006,
    "address": "926屏東縣南州鄉仁里村仁里路86號"
  },
  {
    "dataType": "wifi",
    "category": "其他",
    "name": "屏東縣南州鄉仁里社區發展協會",
    "lat": 22.495,
    "lng": 120.511,
    "address": "926屏東縣南州鄉仁里村仁愛路6號"
  },
  {
    "dataType": "wifi",
    "category": "其他",
    "name": "屏東縣崁頂鄉南望安社區發展協會",
    "lat": 22.495284,
    "lng": 120.509355,
    "address": "924屏東縣崁頂鄉園寮村南州路85號"
  },
  {
    "dataType": "wifi",
    "category": "洽公場所",
    "name": "中油公司屏東縣南州鄉南州交流道站",
    "lat": 22.491585,
    "lng": 120.538932,
    "address": "926屏東縣南州鄉壽元村大同路107號"
  },
  {
    "dataType": "wifi",
    "category": "其他",
    "name": "屏東縣新埤鄉打鐵社區發展協會",
    "lat": 22.494122,
    "lng": 120.543809,
    "address": "925屏東縣新埤鄉打鐵村東興路136之1號"
  },
  {
    "dataType": "wifi",
    "category": "其他",
    "name": "屏東縣新埤鄉萬安社區發展協會",
    "lat": 22.4997,
    "lng": 120.5712,
    "address": "925屏東縣新埤鄉萬隆村萬安路25之1號"
  },
  {
    "dataType": "wifi",
    "category": "其他",
    "name": "屏東縣來義鄉文樂部落",
    "lat": 22.49328,
    "lng": 120.62438,
    "address": "922屏東縣來義鄉文樂村2鄰新樂14號"
  },
  {
    "dataType": "wifi",
    "category": "洽公場所",
    "name": "屏東縣枋寮戶政事務所獅子辦公室",
    "lat": 22.20165,
    "lng": 120.705133,
    "address": "943屏東縣獅子鄉楓林二巷25號"
  },
  {
    "dataType": "wifi",
    "category": "其他",
    "name": "屏東縣獅子鄉新路部落",
    "lat": 22.20604,
    "lng": 120.72358,
    "address": "943屏東縣獅子鄉丹路4巷15號"
  },
  {
    "dataType": "wifi",
    "category": "其他",
    "name": "屏東縣獅子鄉上丹路部落",
    "lat": 22.202632,
    "lng": 120.751573,
    "address": "943屏東縣獅子鄉丹路一巷1號"
  },
  {
    "dataType": "wifi",
    "category": "其他",
    "name": "屏東縣獅子鄉下丹路部落",
    "lat": 22.20326,
    "lng": 120.74794,
    "address": "943屏東縣獅子鄉巴士巷35之2號"
  },
  {
    "dataType": "wifi",
    "category": "旅遊景點",
    "name": "雙流森林遊樂區",
    "lat": 22.218298,
    "lng": 120.796115,
    "address": "943屏東縣獅子鄉丹路村二巷23號"
  },
  {
    "dataType": "wifi",
    "category": "其他",
    "name": "屏東縣獅子鄉內文部落",
    "lat": 22.217693,
    "lng": 120.850789,
    "address": "943屏東縣獅子鄉內文1巷29號"
  },
  {
    "dataType": "wifi",
    "category": "其他",
    "name": "屏東縣獅子鄉雙流部落",
    "lat": 22.22169,
    "lng": 120.79547,
    "address": "943屏東縣獅子鄉草埔6巷1號之2"
  },
  {
    "dataType": "wifi",
    "category": "其他",
    "name": "屏東縣獅子鄉橋西部落",
    "lat": 22.234892,
    "lng": 120.802981,
    "address": "943屏東縣獅子鄉草埔7巷5號1"
  },
  {
    "dataType": "wifi",
    "category": "其他",
    "name": "臺東縣愛樂服全人關懷服務協會-達仁鄉-森永",
    "lat": 22.279901,
    "lng": 120.864494,
    "address": "966臺東縣達仁鄉森永村3鄰森永31號"
  },
  {
    "dataType": "wifi",
    "category": "其他",
    "name": "社團法人臺東縣南迴健康促進關懷服務協會-達仁鄉-安朔",
    "lat": 22.293152,
    "lng": 120.866185,
    "address": "966臺東縣達仁鄉安朔村2鄰安朔22號"
  },
  {
    "dataType": "wifi",
    "category": "其他",
    "name": "臺東縣達仁鄉安朔部落1",
    "lat": 22.29431,
    "lng": 120.86743,
    "address": "966臺東縣達仁鄉安朔村安朔103號"
  },
  {
    "dataType": "wifi",
    "category": "其他",
    "name": "臺東縣達仁鄉安朔部落2",
    "lat": 22.29464,
    "lng": 120.88467,
    "address": "966臺東縣達仁鄉安朔村復興路95號"
  },
  {
    "dataType": "wifi",
    "category": "洽公場所",
    "name": "達仁郵局",
    "lat": 22.294816,
    "lng": 120.882773,
    "address": "966臺東縣達仁鄉安朔村復興路130號"
  },
  {
    "dataType": "wifi",
    "category": "其他",
    "name": "社團法人臺東縣弱勢者關懷協會-大武鄉-南興",
    "lat": 22.308722,
    "lng": 120.886131,
    "address": "965臺東縣大武鄉南興村9鄰達興152之1號"
  },
  {
    "dataType": "wifi",
    "category": "其他",
    "name": "台東縣大武鄉魯加卡斯部落",
    "lat": 22.30974,
    "lng": 120.88732,
    "address": "965臺東縣大武鄉南興村達興171號"
  },
  {
    "dataType": "wifi",
    "category": "其他",
    "name": "台東縣大武鄉加羅板部落",
    "lat": 22.35994,
    "lng": 120.87942,
    "address": "965臺東縣大武鄉大武村加羅板12號-3"
  },
  {
    "dataType": "wifi",
    "category": "其他",
    "name": "財團法人臺東縣私立天主教聖十字架瑪利德蘭社會福利基金會-大武鄉-尚武",
    "lat": 22.34037,
    "lng": 120.890727,
    "address": "965臺東縣大武鄉尚武村政通路33號"
  },
  {
    "dataType": "wifi",
    "category": "洽公場所",
    "name": "中油公司台東縣大武鄉大武站",
    "lat": 22.341747,
    "lng": 120.894912,
    "address": "965臺東縣大武鄉尚武村尚武路8號"
  },
  {
    "dataType": "wifi",
    "category": "洽公場所",
    "name": "大武郵局",
    "lat": 22.357052,
    "lng": 120.904423,
    "address": "965臺東縣大武鄉大武村大武街60號"
  },
  {
    "dataType": "wifi",
    "category": "其他",
    "name": "財團法人臺東縣私立天主教聖十字架瑪利德蘭社會福利基金會-大武鄉-大鳥",
    "lat": 22.367321,
    "lng": 120.901093,
    "address": "965臺東縣大武鄉大鳥村大鳥59號"
  },
  {
    "dataType": "wifi",
    "category": "其他",
    "name": "台東縣達仁鄉新化部落",
    "lat": 22.38144,
    "lng": 120.8581,
    "address": "966臺東縣達仁鄉新化村新化54號"
  },
  {
    "dataType": "wifi",
    "category": "大眾運輸節點",
    "name": "臺鐵局大武站候車室",
    "lat": 22.410063,
    "lng": 120.901564,
    "address": "965臺東縣大武鄉大鳥村和平部落33號"
  },
  {
    "dataType": "wifi",
    "category": "其他",
    "name": "社團法人臺東縣南迴健康促進關懷服務協會-達仁鄉-土坂",
    "lat": 22.454358,
    "lng": 120.88597,
    "address": "966臺東縣達仁鄉土板村4鄰土板58號"
  },
  {
    "dataType": "wifi",
    "category": "其他",
    "name": "臺東縣達仁鄉土坂部落",
    "lat": 22.45475,
    "lng": 120.8874,
    "address": "966臺東縣達仁鄉土坂村土坂48號"
  },
  {
    "dataType": "wifi",
    "category": "大眾運輸節點",
    "name": "臺鐵局瀧溪站候車室",
    "lat": 22.460896,
    "lng": 120.941814,
    "address": "963臺東縣太麻里鄉多良村大溪37-1號"
  },
  {
    "dataType": "wifi",
    "category": "其他",
    "name": "高雄市林園區龔厝社區發展協會",
    "lat": 22.509126,
    "lng": 120.37833,
    "address": "832高雄市林園區龔厝里龔厝路72巷10號"
  },
  {
    "dataType": "wifi",
    "category": "其他",
    "name": "社團法人高雄市林園區文賢社區發展協會",
    "lat": 22.502668,
    "lng": 120.393254,
    "address": "832高雄市林園區林園里林園北路179號"
  },
  {
    "dataType": "wifi",
    "category": "其他",
    "name": "高雄市林園區頂厝社區發展協會",
    "lat": 22.503725,
    "lng": 120.380246,
    "address": "832高雄市林園區頂厝里頂厝路133巷38號"
  },
  {
    "dataType": "wifi",
    "category": "洽公場所",
    "name": "林園福興郵局",
    "lat": 22.504961,
    "lng": 120.394708,
    "address": "832高雄市林園區福興街104號"
  },
  {
    "dataType": "wifi",
    "category": "其他",
    "name": "高雄市林園區東林社區發展協會",
    "lat": 22.505996,
    "lng": 120.395484,
    "address": "832高雄市林園區東林里林園北路179號"
  },
  {
    "dataType": "wifi",
    "category": "洽公場所",
    "name": "林園郵局",
    "lat": 22.506119,
    "lng": 120.396861,
    "address": "832高雄市林園區鳳林路一段176號"
  },
  {
    "dataType": "wifi",
    "category": "其他",
    "name": "高雄市林園區林園社區發展協會",
    "lat": 22.508065,
    "lng": 120.394584,
    "address": "832高雄市林園區林園里林園北路185號"
  },
  {
    "dataType": "wifi",
    "category": "文教館所",
    "name": "高雄市立圖書館林園分館",
    "lat": 22.508724,
    "lng": 120.394747,
    "address": "832高雄市林園區林園北路236號"
  },
  {
    "dataType": "wifi",
    "category": "洽公場所",
    "name": "第一商業銀行(林園分行)",
    "lat": 22.512571,
    "lng": 120.394861,
    "address": "832高雄市林園區林園北路459號"
  },
  {
    "dataType": "wifi",
    "category": "洽公場所",
    "name": "高雄市林園區公所",
    "lat": 22.513084,
    "lng": 120.39497,
    "address": "832高雄市林園區王公路1號"
  },
  {
    "dataType": "wifi",
    "category": "洽公場所",
    "name": "高雄市林園區戶政事務所",
    "lat": 22.5131,
    "lng": 120.39,
    "address": "832高雄市林園區王公里王公路1號"
  },
  {
    "dataType": "wifi",
    "category": "洽公場所",
    "name": "內政部警政署高雄港務警察總隊第六貨櫃中心中隊",
    "lat": 22.534979,
    "lng": 120.32671,
    "address": "812高雄市小港區鳳森里6鄰南星路1951號"
  },
  {
    "dataType": "wifi",
    "category": "洽公場所",
    "name": "高雄大林蒲郵局",
    "lat": 22.526417,
    "lng": 120.346577,
    "address": "812高雄市小港區鳳林路82號"
  },
  {
    "dataType": "wifi",
    "category": "其他",
    "name": "社團法人高雄市老人暨身心障礙者關懷協會",
    "lat": 22.528,
    "lng": 120.347,
    "address": "812高雄市小港區港墘里港中街38號"
  },
  {
    "dataType": "wifi",
    "category": "洽公場所",
    "name": "高雄臨海林園大發工業區聯合污水處理廠-臨海廠",
    "lat": 22.528862,
    "lng": 120.343364,
    "address": "812高雄市小港區大林浦鳳北路4號1樓"
  },
  {
    "dataType": "wifi",
    "category": "洽公場所",
    "name": "中油公司大林廠行政大樓總機櫃檯",
    "lat": 22.529422,
    "lng": 120.347353,
    "address": "812高雄市小港區沿海四路50號"
  },
  {
    "dataType": "wifi",
    "category": "洽公場所",
    "name": "高雄中林子郵局",
    "lat": 22.529087,
    "lng": 120.365878,
    "address": "812高雄市小港區中智街1號"
  },
  {
    "dataType": "wifi",
    "category": "其他",
    "name": "高雄市林園區潭頭社區發展協會",
    "lat": 22.52311,
    "lng": 120.397233,
    "address": "832高雄市林園區潭頭里潭頭路129號"
  },
  {
    "dataType": "wifi",
    "category": "旅遊景點",
    "name": "紅毛港文化園區輪渡站",
    "lat": 22.551126,
    "lng": 120.317373,
    "address": "812高雄市小港區紅毛港段81之8"
  },
  {
    "dataType": "wifi",
    "category": "洽公場所",
    "name": "財政部高雄關旗津分關",
    "lat": 22.559548,
    "lng": 120.308983,
    "address": "805高雄市旗津區旗津一路14號"
  },
  {
    "dataType": "wifi",
    "category": "洽公場所",
    "name": "內政部警政署高雄港務警察總隊中興中隊",
    "lat": 22.559811,
    "lng": 120.308718,
    "address": "805高雄市旗津區旗津一路16號"
  },
  {
    "dataType": "wifi",
    "category": "洽公場所",
    "name": "高雄臺船郵局",
    "lat": 22.552346,
    "lng": 120.345619,
    "address": "812高雄市小港區中鋼路3號"
  },
  {
    "dataType": "wifi",
    "category": "洽公場所",
    "name": "高雄中鋼郵局",
    "lat": 22.55819,
    "lng": 120.35335,
    "address": "812高雄市小港區中鋼路1號"
  },
  {
    "dataType": "wifi",
    "category": "洽公場所",
    "name": "兆豐國際商銀中鋼簡易分行",
    "lat": 22.558245,
    "lng": 120.353355,
    "address": "812高雄市小港區中鋼路1號"
  },
  {
    "dataType": "wifi",
    "category": "洽公場所",
    "name": "高雄市政府環境保護局南區資源回收廠",
    "lat": 22.550888,
    "lng": 120.376124,
    "address": "812高雄市小港區北林路6號"
  },
  {
    "dataType": "wifi",
    "category": "洽公場所",
    "name": "內政部警政署高雄港務警察總隊機動中隊",
    "lat": 22.574856,
    "lng": 120.299107,
    "address": "805高雄市旗津區中洲二路中洲巷76號"
  },
  {
    "dataType": "wifi",
    "category": "洽公場所",
    "name": "高雄中洲郵局",
    "lat": 22.576288,
    "lng": 120.295725,
    "address": "805高雄市旗津區旗津二路243號"
  },
  {
    "dataType": "wifi",
    "category": "洽公場所",
    "name": "高雄港務分公司維護管理處隧道管理中心",
    "lat": 22.56556,
    "lng": 120.316821,
    "address": "806高雄市前鎮區漁港南三路2號"
  },
  {
    "dataType": "wifi",
    "category": "洽公場所",
    "name": "財政部高雄關業務二組",
    "lat": 22.566409,
    "lng": 120.316523,
    "address": "806高雄市前鎮區漁港南二路10號"
  },
  {
    "dataType": "wifi",
    "category": "其他",
    "name": "高雄區漁會魚市場_卸魚裝櫃區(柱15)",
    "lat": 22.570145,
    "lng": 120.315939,
    "address": "806高雄市前鎮區漁港中一路3號"
  },
  {
    "dataType": "wifi",
    "category": "洽公場所",
    "name": "高雄漁業署",
    "lat": 22.57113,
    "lng": 120.310775,
    "address": "806高雄市前鎮區漁港北一路1號"
  },
  {
    "dataType": "wifi",
    "category": "洽公場所",
    "name": "漁業署本部_一樓穿堂/警衛室",
    "lat": 22.571209,
    "lng": 120.311073,
    "address": "806高雄市前鎮區漁港北一路1號"
  },
  {
    "dataType": "wifi",
    "category": "洽公場所",
    "name": "兆豐國際商銀漁港簡易分行",
    "lat": 22.57162,
    "lng": 120.317105,
    "address": "806高雄市前鎮區漁港東二路3號107室"
  },
  {
    "dataType": "wifi",
    "category": "洽公場所",
    "name": "內政部警政署高雄港務警察總隊六十三號碼頭中隊",
    "lat": 22.573463,
    "lng": 120.311036,
    "address": "806高雄市前鎮區漁港北三路1號"
  },
  {
    "dataType": "wifi",
    "category": "洽公場所",
    "name": "經濟部加工出口區管理處高雄分處臨廣辦公室1樓洽公區",
    "lat": 22.576212,
    "lng": 120.31673,
    "address": "806高雄市前鎮區新生路248-34號"
  },
  {
    "dataType": "wifi",
    "category": "洽公場所",
    "name": "財政部關務署高雄關小港分關",
    "lat": 22.560123,
    "lng": 120.334539,
    "address": "812高雄市小港區東亞南路36號1樓"
  },
  {
    "dataType": "wifi",
    "category": "洽公場所",
    "name": "台灣糖業股份有限公司砂糖事業部",
    "lat": 22.563132,
    "lng": 120.339078,
    "address": "812高雄市小港區小港路133號"
  },
  {
    "dataType": "wifi",
    "category": "洽公場所",
    "name": "高雄港務警察總隊-大仁中隊",
    "lat": 22.563999,
    "lng": 120.330869,
    "address": "812高雄市小港區東亞南路2-22號"
  },
  {
    "dataType": "wifi",
    "category": "洽公場所",
    "name": "小港郵局",
    "lat": 22.564197,
    "lng": 120.336869,
    "address": "812高雄市小港區小港一街1號"
  },
  {
    "dataType": "wifi",
    "category": "洽公場所",
    "name": "財政部高雄國稅局小港稽徵所",
    "lat": 22.56523,
    "lng": 120.338019,
    "address": "812高雄市小港區小港路158號6樓"
  },
  {
    "dataType": "wifi",
    "category": "洽公場所",
    "name": "高雄市小港區公所",
    "lat": 22.565235,
    "lng": 120.33808,
    "address": "812高雄市小港區小港路158號3樓"
  },
  {
    "dataType": "wifi",
    "category": "洽公場所",
    "name": "高雄市稅捐稽徵處小港分處",
    "lat": 22.565292,
    "lng": 120.338015,
    "address": "812高雄市小港區小港路158號5樓"
  },
  {
    "dataType": "wifi",
    "category": "洽公場所",
    "name": "高雄市小港區戶政事務所",
    "lat": 22.565374,
    "lng": 120.337962,
    "address": "812高雄市小港區小港路158號2樓"
  },
  {
    "dataType": "wifi",
    "category": "洽公場所",
    "name": "高雄金福路郵局",
    "lat": 22.568209,
    "lng": 120.323516,
    "address": "806高雄市前鎮區金福路20號"
  },
  {
    "dataType": "wifi",
    "category": "其他",
    "name": "高雄市草衙朝陽長青會",
    "lat": 22.574,
    "lng": 120.322,
    "address": "806高雄市前鎮區草衙里后安路152號二樓"
  },
  {
    "dataType": "wifi",
    "category": "大眾運輸節點",
    "name": "高雄市小港區小港轉運站",
    "lat": 22.564928,
    "lng": 120.353841,
    "address": "812高雄市小港區沿海一路(捷運小港站1號出口前)"
  },
  {
    "dataType": "wifi",
    "category": "文教館所",
    "name": "社會教育館(右側公話)",
    "lat": 22.565303,
    "lng": 120.359307,
    "address": "812高雄市小港區學府路115號"
  },
  {
    "dataType": "wifi",
    "category": "洽公場所",
    "name": "華南商業銀行小港分行",
    "lat": 22.565487,
    "lng": 120.349297,
    "address": "812高雄市小港區二苓路180號"
  },
  {
    "dataType": "wifi",
    "category": "洽公場所",
    "name": "台電公司小港服務所大廳",
    "lat": 22.565966,
    "lng": 120.342237,
    "address": "812高雄市小港區小港路118號6樓"
  },
  {
    "dataType": "wifi",
    "category": "洽公場所",
    "name": "高雄市政府警察局小港分局",
    "lat": 22.56603,
    "lng": 120.34498,
    "address": "812高雄市小港區小港路20號"
  },
  {
    "dataType": "wifi",
    "category": "旅遊景點",
    "name": "高雄市立空中大學-小港區旅遊資訊服務中心",
    "lat": 22.566335,
    "lng": 120.345783,
    "address": "812高雄市小港區大業北路436號"
  },
  {
    "dataType": "wifi",
    "category": "洽公場所",
    "name": "高雄臨海工業區服務中心",
    "lat": 22.56659,
    "lng": 120.345063,
    "address": "812高雄市小港區大業北路37號1樓"
  },
  {
    "dataType": "wifi",
    "category": "洽公場所",
    "name": "高雄臨海工業區服務中心2樓",
    "lat": 22.56659,
    "lng": 120.345063,
    "address": "812高雄市小港區大業北路37號2樓"
  },
  {
    "dataType": "wifi",
    "category": "洽公場所",
    "name": "高雄臨海工業區服務中心3樓",
    "lat": 22.56659,
    "lng": 120.345063,
    "address": "812高雄市小港區大業北路37號3樓"
  },
  {
    "dataType": "wifi",
    "category": "文教館所",
    "name": "高雄市立社會教育館",
    "lat": 22.567018,
    "lng": 120.359344,
    "address": "812高雄市小港區學府路115號"
  },
  {
    "dataType": "wifi",
    "category": "洽公場所",
    "name": "第一商業銀行(小港分行)",
    "lat": 22.567715,
    "lng": 120.350962,
    "address": "812高雄市小港區沿海一路182號"
  },
  {
    "dataType": "wifi",
    "category": "洽公場所",
    "name": "中油公司高雄市服務中心",
    "lat": 22.569241,
    "lng": 120.347885,
    "address": "812高雄市小港區中山四路31號"
  },
  {
    "dataType": "wifi",
    "category": "洽公場所",
    "name": "高雄二苓郵局",
    "lat": 22.569247,
    "lng": 120.347754,
    "address": "812高雄市小港區中山四路7、9、11號"
  },
  {
    "dataType": "wifi",
    "category": "洽公場所",
    "name": "臺灣銀行小港分行",
    "lat": 22.570083,
    "lng": 120.357968,
    "address": "812高雄市小港區宏平路410號"
  },
  {
    "dataType": "wifi",
    "category": "洽公場所",
    "name": "臺灣土地銀行小港分行",
    "lat": 22.570104,
    "lng": 120.359741,
    "address": "812高雄市小港區宏平路336號"
  },
  {
    "dataType": "wifi",
    "category": "洽公場所",
    "name": "高雄國際航空站國內航廈2樓",
    "lat": 22.570937,
    "lng": 120.345236,
    "address": "812高雄市小港區中山四路2號"
  },
  {
    "dataType": "wifi",
    "category": "大眾運輸節點",
    "name": "高雄國際航空站(動植物入境檢疫櫃檯)",
    "lat": 22.571764,
    "lng": 120.340242,
    "address": "806高雄市前鎮區中山四路2號"
  },
  {
    "dataType": "wifi",
    "category": "洽公場所",
    "name": "衛生福利部食品藥物管理署高雄港口民眾等候區",
    "lat": 22.57253,
    "lng": 120.34853,
    "address": "812高雄市小港區飛機路630號4樓"
  },
  {
    "dataType": "wifi",
    "category": "洽公場所",
    "name": "兆豐國際商銀高雄國際機場分行",
    "lat": 22.573557,
    "lng": 120.345054,
    "address": "812高雄市小港區中山四路2號(新國際航廈)"
  },
  {
    "dataType": "wifi",
    "category": "文教館所",
    "name": "高雄市立圖書館小港分館",
    "lat": 22.560638,
    "lng": 120.370631,
    "address": "812高雄市小港區博學路365號"
  },
  {
    "dataType": "wifi",
    "category": "其他",
    "name": "高雄市楠梓區宏榮社區發展協會",
    "lat": 22.565,
    "lng": 120.361,
    "address": "811高雄市楠梓區宏榮里宏毅二路南十二巷2號"
  },
  {
    "dataType": "wifi",
    "category": "其他",
    "name": "社團法人高雄市傳愛社區關懷協會",
    "lat": 22.5652,
    "lng": 120.3613,
    "address": "812高雄市小港區二苓里學府路111號一樓"
  },
  {
    "dataType": "wifi",
    "category": "其他",
    "name": "高雄市小港區山明水秀社區發展協會",
    "lat": 22.566,
    "lng": 120.361,
    "address": "812高雄市小港區山明里宏光街438之1號"
  },
  {
    "dataType": "wifi",
    "category": "洽公場所",
    "name": "高雄宏平郵局",
    "lat": 22.57012,
    "lng": 120.360497,
    "address": "812高雄市小港區宏平路322號"
  },
  {
    "dataType": "wifi",
    "category": "其他",
    "name": "高雄市合作快樂志工協會",
    "lat": 22.573,
    "lng": 120.366,
    "address": "812高雄市小港區合作里孔祥街150號"
  },
  {
    "dataType": "wifi",
    "category": "其他",
    "name": "高雄市和平大使協會",
    "lat": 22.574,
    "lng": 120.374,
    "address": "807高雄市三民區精華里博愛一路27號八樓"
  },
  {
    "dataType": "wifi",
    "category": "洽公場所",
    "name": "高雄高松郵局",
    "lat": 22.574452,
    "lng": 120.371378,
    "address": "812高雄市小港區高鳳路33-3、4號"
  },
  {
    "dataType": "wifi",
    "category": "洽公場所",
    "name": "高雄市旗津區公所",
    "lat": 22.59018,
    "lng": 120.28437,
    "address": "805高雄市旗津區旗津三路2號"
  },
  {
    "dataType": "wifi",
    "category": "文教館所",
    "name": "旗津戰爭與和平紀念公園主題館",
    "lat": 22.591486,
    "lng": 120.282861,
    "address": "805高雄市旗津區旗津二路701號"
  },
  {
    "dataType": "wifi",
    "category": "洽公場所",
    "name": "中油公司石化事業部前鎮所1樓會客區",
    "lat": 22.584137,
    "lng": 120.309091,
    "address": "806高雄市前鎮區新生路11號1樓"
  },
  {
    "dataType": "wifi",
    "category": "洽公場所",
    "name": "高雄市前鎮區衛生所",
    "lat": 22.586237,
    "lng": 120.318682,
    "address": "806高雄市前鎮區康定路149號"
  },
  {
    "dataType": "wifi",
    "category": "洽公場所",
    "name": "高雄市前鎮區公所",
    "lat": 22.586535,
    "lng": 120.318317,
    "address": "806高雄市前鎮區康定路151號2樓"
  },
  {
    "dataType": "wifi",
    "category": "洽公場所",
    "name": "高雄市前鎮區戶政事務所",
    "lat": 22.586551,
    "lng": 120.318425,
    "address": "806高雄市前鎮區康定路151號"
  },
  {
    "dataType": "wifi",
    "category": "洽公場所",
    "name": "高雄市稅捐稽徵處前鎮分處",
    "lat": 22.586609,
    "lng": 120.318349,
    "address": "806高雄市前鎮區康定路151號4樓"
  },
  {
    "dataType": "wifi",
    "category": "洽公場所",
    "name": "高雄市政府社會局前鎮社會福利中心",
    "lat": 22.586764,
    "lng": 120.319058,
    "address": "806高雄市前鎮區康定路115號"
  },
  {
    "dataType": "wifi",
    "category": "洽公場所",
    "name": "高雄市政府地政局前鎮地政事務所2樓",
    "lat": 22.587129,
    "lng": 120.318551,
    "address": "806高雄市前鎮區鎮中路158號"
  },
  {
    "dataType": "wifi",
    "category": "洽公場所",
    "name": "高雄市政府地政局前鎮地政事務所",
    "lat": 22.587169,
    "lng": 120.319133,
    "address": "806高雄市前鎮區鎮中路158號"
  },
  {
    "dataType": "wifi",
    "category": "洽公場所",
    "name": "前鎮郵局",
    "lat": 22.588895,
    "lng": 120.306318,
    "address": "806高雄市前鎮區前鎮街92號"
  },
  {
    "dataType": "wifi",
    "category": "洽公場所",
    "name": "臺灣銀行前鎮分行",
    "lat": 22.591201,
    "lng": 120.305195,
    "address": "806高雄市前鎮區擴建路1-3號"
  },
  {
    "dataType": "wifi",
    "category": "其他",
    "name": "高雄市前鎮區草衙佛公社區發展協會",
    "lat": 22.593,
    "lng": 120.316,
    "address": "806高雄市前鎮區草衙里后安路152號三樓"
  },
  {
    "dataType": "wifi",
    "category": "洽公場所",
    "name": "勞動部勞動力發展署高屏澎東分署活動中心3樓創客小棧",
    "lat": 22.59344,
    "lng": 120.30845,
    "address": "806高雄市前鎮區凱旋四路105號"
  },
  {
    "dataType": "wifi",
    "category": "洽公場所",
    "name": "勞動部勞動力發展署高屏澎東分署洽公服務櫃台",
    "lat": 22.593632,
    "lng": 120.308601,
    "address": "806高雄市前鎮區凱旋四路105號"
  },
  {
    "dataType": "wifi",
    "category": "洽公場所",
    "name": "勞動部勞動力發展署高屏澎東分署學員宿舍交誼廳",
    "lat": 22.593632,
    "lng": 120.308601,
    "address": "806高雄市前鎮區凱旋四路105號"
  },
  {
    "dataType": "wifi",
    "category": "洽公場所",
    "name": "勞動部勞動力發展署高屏澎東分署視聽大樓B101會議室",
    "lat": 22.593632,
    "lng": 120.308601,
    "address": "806高雄市前鎮區凱旋四路105號"
  },
  {
    "dataType": "wifi",
    "category": "洽公場所",
    "name": "勞動部勞動力發展署高屏澎東分署活動中心一樓C101會議室",
    "lat": 22.593632,
    "lng": 120.308601,
    "address": "806高雄市前鎮區凱旋四路105號"
  },
  {
    "dataType": "wifi",
    "category": "其他",
    "name": "勞動部勞動力發展署高屏澎東分署行政大樓A303會議室",
    "lat": 22.593639,
    "lng": 120.308611,
    "address": "806高雄市前鎮區凱旋四路105號"
  },
  {
    "dataType": "wifi",
    "category": "洽公場所",
    "name": "中油公司高雄直銷中心",
    "lat": 22.593947,
    "lng": 120.303998,
    "address": "806高雄市前鎮區成功二路15號"
  },
  {
    "dataType": "wifi",
    "category": "洽公場所",
    "name": "高雄市政府社會局無障礙之家",
    "lat": 22.594059,
    "lng": 120.315382,
    "address": "806高雄市前鎮區翠亨北路392號"
  },
  {
    "dataType": "wifi",
    "category": "其他",
    "name": "高雄成功物流園區",
    "lat": 22.597993,
    "lng": 120.304998,
    "address": "806高雄市前鎮區成功二路4號"
  },
  {
    "dataType": "wifi",
    "category": "洽公場所",
    "name": "兆豐國際商銀成功簡易分行",
    "lat": 22.599502,
    "lng": 120.302627,
    "address": "806高雄市前鎮區成功二路88號"
  },
  {
    "dataType": "wifi",
    "category": "其他",
    "name": "高雄市前鎮區新亞灣社區發展協會",
    "lat": 22.58,
    "lng": 120.327,
    "address": "806高雄市前鎮區忠誠里中華五路969巷12號"
  },
  {
    "dataType": "wifi",
    "category": "大眾運輸節點",
    "name": "高雄國際航空站",
    "lat": 22.580367,
    "lng": 120.330231,
    "address": "806高雄市前鎮區中山四路二號"
  },
  {
    "dataType": "wifi",
    "category": "文教館所",
    "name": "高雄市立圖書館草衙分館",
    "lat": 22.583609,
    "lng": 120.321924,
    "address": "831高雄市前鎮區新衙路17號"
  },
  {
    "dataType": "wifi",
    "category": "洽公場所",
    "name": "高雄草衙郵局",
    "lat": 22.583617,
    "lng": 120.322546,
    "address": "806高雄市前鎮區草衙一路78、80號"
  },
  {
    "dataType": "wifi",
    "category": "洽公場所",
    "name": "iTaiwan-高雄市政府勞工局1F",
    "lat": 22.5879,
    "lng": 120.32107,
    "address": "806高雄市前鎮區鎮中路6號1樓"
  },
  {
    "dataType": "wifi",
    "category": "洽公場所",
    "name": "iTaiwan-高雄市政府勞工局2F",
    "lat": 22.5879,
    "lng": 120.32107,
    "address": "806高雄市前鎮區鎮中路6號2樓"
  },
  {
    "dataType": "wifi",
    "category": "洽公場所",
    "name": "iTaiwan-高雄市政府勞工局3F",
    "lat": 22.5879,
    "lng": 120.32107,
    "address": "806高雄市前鎮區鎮中路6號3樓"
  },
  {
    "dataType": "wifi",
    "category": "洽公場所",
    "name": "iTaiwan-高雄市政府勞工局4F",
    "lat": 22.5879,
    "lng": 120.32107,
    "address": "806高雄市前鎮區鎮中路6號4樓"
  },
  {
    "dataType": "wifi",
    "category": "洽公場所",
    "name": "iTaiwan-高雄市政府勞工局5F",
    "lat": 22.5879,
    "lng": 120.32107,
    "address": "806高雄市前鎮區鎮中路6號5樓"
  },
  {
    "dataType": "wifi",
    "category": "洽公場所",
    "name": "iTaiwan-高雄市政府勞工局6F",
    "lat": 22.5879,
    "lng": 120.32107,
    "address": "806高雄市前鎮區鎮中路6號6樓"
  },
  {
    "dataType": "wifi",
    "category": "洽公場所",
    "name": "iTaiwan-高雄市政府勞工局7F",
    "lat": 22.5879,
    "lng": 120.32107,
    "address": "806高雄市前鎮區鎮中路6號7樓"
  },
  {
    "dataType": "wifi",
    "category": "文教館所",
    "name": "高雄市立圖書館鳳二分館",
    "lat": 22.589457,
    "lng": 120.327281,
    "address": "830高雄市鳳山區福興里自強一路119巷75號"
  },
  {
    "dataType": "wifi",
    "category": "其他",
    "name": "社團法人高雄市安和社會福利發展協會(中崙站)",
    "lat": 22.591,
    "lng": 120.326,
    "address": "830高雄市鳳山區中崙里中崙路7號"
  },
  {
    "dataType": "wifi",
    "category": "其他",
    "name": "社團法人高雄市善護關愛協會(五福站)",
    "lat": 22.591,
    "lng": 120.329,
    "address": "830高雄市鳳山區五福里五甲三路115號二樓"
  },
  {
    "dataType": "wifi",
    "category": "洽公場所",
    "name": "標準檢驗局高雄分局計量業務民眾洽公區",
    "lat": 22.591715,
    "lng": 120.331819,
    "address": "830高雄市鳳山區天興街125號"
  },
  {
    "dataType": "wifi",
    "category": "洽公場所",
    "name": "鳳山五甲郵局",
    "lat": 22.592409,
    "lng": 120.32731,
    "address": "830高雄市鳳山區五甲三路45號"
  },
  {
    "dataType": "wifi",
    "category": "其他",
    "name": "高雄市鳳山福興社區營造協會",
    "lat": 22.594,
    "lng": 120.328,
    "address": "830高雄市鳳山區鎮南里五甲二路722號"
  },
  {
    "dataType": "wifi",
    "category": "其他",
    "name": "社團法人高雄市愛智家園社區關懷協會",
    "lat": 22.594,
    "lng": 120.329,
    "address": "830高雄市鳳山區鎮北里北文街82巷1號"
  },
  {
    "dataType": "wifi",
    "category": "洽公場所",
    "name": "華南商業銀行五甲分行",
    "lat": 22.595984,
    "lng": 120.331256,
    "address": "830高雄市鳳山區五甲二路642號"
  },
  {
    "dataType": "wifi",
    "category": "其他",
    "name": "杏和醫院_門診大樓檢驗檢查區",
    "lat": 22.597745,
    "lng": 120.335635,
    "address": "830高雄市鳳山區五甲二路389號1樓"
  },
  {
    "dataType": "wifi",
    "category": "其他",
    "name": "中華民國健康生活管理促進產業協會",
    "lat": 22.598,
    "lng": 120.327,
    "address": "830高雄市鳳山區過埤里過智街35號"
  },
  {
    "dataType": "wifi",
    "category": "洽公場所",
    "name": "高雄市鳳山戶政事務所(第二辦公處)",
    "lat": 22.598599,
    "lng": 120.334883,
    "address": "830高雄市鳳山區五甲二路472號4樓"
  },
  {
    "dataType": "wifi",
    "category": "其他",
    "name": "高雄市小港區桂林中厝里聯合活動中心",
    "lat": 22.5821,
    "lng": 120.35174,
    "address": "812高雄市小港區桂陽路332號"
  },
  {
    "dataType": "wifi",
    "category": "洽公場所",
    "name": "華南商業銀行高雄桂林分行",
    "lat": 22.582433,
    "lng": 120.357456,
    "address": "812高雄市小港區桂陽路44號"
  },
  {
    "dataType": "wifi",
    "category": "洽公場所",
    "name": "高雄桂林郵局",
    "lat": 22.583315,
    "lng": 120.358029,
    "address": "812高雄市小港區桂華街130號"
  },
  {
    "dataType": "wifi",
    "category": "文教館所",
    "name": "高雄市立圖書館中崙分館",
    "lat": 22.597008,
    "lng": 120.354054,
    "address": "830高雄市鳳山區中崙五路1號"
  },
  {
    "dataType": "wifi",
    "category": "其他",
    "name": "中華無限愛關懷協會",
    "lat": 22.599,
    "lng": 120.353,
    "address": "830高雄市鳳山區三民里三民路12號"
  },
  {
    "dataType": "wifi",
    "category": "其他",
    "name": "中華民國健康生活管理促進產業協會(六苓站)",
    "lat": 22.582,
    "lng": 120.366,
    "address": "812高雄市小港區六苓里學府路100巷1號"
  },
  {
    "dataType": "wifi",
    "category": "其他",
    "name": "高雄市燕巢區尖山社區發展協會",
    "lat": 22.582,
    "lng": 120.366,
    "address": "824高雄市燕巢區尖山里紅山巷91號"
  },
  {
    "dataType": "wifi",
    "category": "洽公場所",
    "name": "鳳山過埤郵局",
    "lat": 22.590312,
    "lng": 120.364516,
    "address": "830高雄市鳳山區過埤路114號"
  },
  {
    "dataType": "wifi",
    "category": "其他",
    "name": "社團法人高雄市親職教育關懷照護協會",
    "lat": 22.595,
    "lng": 120.361,
    "address": "830高雄市鳳山區正義里南江街185號"
  },
  {
    "dataType": "wifi",
    "category": "洽公場所",
    "name": "高雄市政府地政局大寮地政事務所",
    "lat": 22.593013,
    "lng": 120.397625,
    "address": "831高雄市大寮區內坑里仁勇路69號"
  },
  {
    "dataType": "wifi",
    "category": "其他",
    "name": "社團法人高雄市源生慈善會(內坑站)",
    "lat": 22.594615,
    "lng": 120.39017,
    "address": "831高雄市大寮區內坑里內坑路105號"
  },
  {
    "dataType": "wifi",
    "category": "旅遊景點",
    "name": "高雄市政府觀光局旗津貝殼館",
    "lat": 22.602165,
    "lng": 120.273879,
    "address": "805高雄市旗津區旗津三路990號2樓"
  },
  {
    "dataType": "wifi",
    "category": "旅遊景點",
    "name": "旗津沙灘吧",
    "lat": 22.609889,
    "lng": 120.267517,
    "address": "805高雄市旗津區旗津三路1050號對面"
  },
  {
    "dataType": "wifi",
    "category": "洽公場所",
    "name": "高雄市旗津區戶政事務所",
    "lat": 22.610978,
    "lng": 120.26794,
    "address": "805高雄市旗津區振興里18鄰旗津三路1100號1樓"
  },
  {
    "dataType": "wifi",
    "category": "旅遊景點",
    "name": "旗津海水浴場救生站",
    "lat": 22.611018,
    "lng": 120.267404,
    "address": "805高雄市旗津區廟前路1號"
  },
  {
    "dataType": "wifi",
    "category": "文教館所",
    "name": "高雄市立圖書館旗津分館",
    "lat": 22.612129,
    "lng": 120.270746,
    "address": "805高雄市旗津區中洲三路528號"
  },
  {
    "dataType": "wifi",
    "category": "洽公場所",
    "name": "旗津郵局",
    "lat": 22.612528,
    "lng": 120.269409,
    "address": "805高雄市旗津區中洲三路817號"
  },
  {
    "dataType": "wifi",
    "category": "洽公場所",
    "name": "台電公司旗津服務所大廳",
    "lat": 22.613357,
    "lng": 120.269834,
    "address": "805高雄市旗津區大關路28號"
  },
  {
    "dataType": "wifi",
    "category": "洽公場所",
    "name": "內政部警政署高雄港務警察總隊一港口中隊",
    "lat": 22.613994,
    "lng": 120.269713,
    "address": "805高雄市旗津區海岸路10號"
  },
  {
    "dataType": "wifi",
    "category": "大眾運輸節點",
    "name": "高雄市輪船-旗津站(東側)",
    "lat": 22.614244,
    "lng": 120.269927,
    "address": "805高雄市旗津區海岸路10號1樓"
  },
  {
    "dataType": "wifi",
    "category": "大眾運輸節點",
    "name": "高雄市輪船-旗津站(西側)",
    "lat": 22.614244,
    "lng": 120.269927,
    "address": "805高雄市旗津區海岸路10號1樓"
  },
  {
    "dataType": "wifi",
    "category": "大眾運輸節點",
    "name": "高雄港國際旅運中心",
    "lat": 22.619017,
    "lng": 120.274994,
    "address": "804高雄市鼓山區捷興一街高雄港國際旅運中心"
  },
  {
    "dataType": "wifi",
    "category": "洽公場所",
    "name": "高雄港務分公司維護管理處開標室",
    "lat": 22.619057,
    "lng": 120.279354,
    "address": "804高雄市鼓山區蓬萊二路1號"
  },
  {
    "dataType": "wifi",
    "category": "洽公場所",
    "name": "高雄港務警察總隊",
    "lat": 22.619083,
    "lng": 120.278743,
    "address": "804高雄市鼓山區蓬萊路24號"
  },
  {
    "dataType": "wifi",
    "category": "洽公場所",
    "name": "財政部關務署高雄關局本部1F",
    "lat": 22.6194,
    "lng": 120.275,
    "address": "804高雄市鼓山區捷興一街3號"
  },
  {
    "dataType": "wifi",
    "category": "洽公場所",
    "name": "財政部關務署高雄關局本部2F",
    "lat": 22.6194,
    "lng": 120.275,
    "address": "804高雄市鼓山區捷興一街3號"
  },
  {
    "dataType": "wifi",
    "category": "洽公場所",
    "name": "內政部警政署高雄港務警察總隊三號碼頭中隊",
    "lat": 22.619673,
    "lng": 120.278886,
    "address": "804高雄市鼓山區蓬萊路28號"
  },
  {
    "dataType": "wifi",
    "category": "旅遊景點",
    "name": "鼓山輪渡站",
    "lat": 22.619745,
    "lng": 120.270012,
    "address": "804高雄市鼓山區濱海二路1號"
  },
  {
    "dataType": "wifi",
    "category": "洽公場所",
    "name": "財政部高雄市國稅局前鎮稽徵所高雄加工出口區服務處",
    "lat": 22.600105,
    "lng": 120.290229,
    "address": "806高雄市前鎮區中1路2號"
  },
  {
    "dataType": "wifi",
    "category": "洽公場所",
    "name": "經濟部加工出口區管理處高雄分處第1訓練教室",
    "lat": 22.601064,
    "lng": 120.29233,
    "address": "806高雄市前鎮區高雄加工出口區中一路2號"
  },
  {
    "dataType": "wifi",
    "category": "洽公場所",
    "name": "經濟部加工出口區管理處高雄分處1、2樓洽公區",
    "lat": 22.60128,
    "lng": 120.291924,
    "address": "806高雄市前鎮區高雄加工出口區中一路2號"
  },
  {
    "dataType": "wifi",
    "category": "洽公場所",
    "name": "兆豐國際商銀高加分行",
    "lat": 22.601343,
    "lng": 120.290567,
    "address": "806高雄市前鎮區中四路2號"
  },
  {
    "dataType": "wifi",
    "category": "洽公場所",
    "name": "前鎮科技園區郵局",
    "lat": 22.601362,
    "lng": 120.291241,
    "address": "806高雄市前鎮區中四路1號"
  },
  {
    "dataType": "wifi",
    "category": "洽公場所",
    "name": "臺灣銀行高雄加工出口區分行",
    "lat": 22.601412,
    "lng": 120.29174,
    "address": "806高雄市前鎮區高雄加工出口區中一路1號"
  },
  {
    "dataType": "wifi",
    "category": "洽公場所",
    "name": "內政部警政署高雄港務警察總隊中島中隊",
    "lat": 22.603066,
    "lng": 120.292525,
    "address": "806高雄市前鎮區大華一路34號"
  },
  {
    "dataType": "wifi",
    "category": "洽公場所",
    "name": "高雄軟體科技園區",
    "lat": 22.604572,
    "lng": 120.299617,
    "address": "806高雄市前鎮區復興四路10號3樓-3"
  },
  {
    "dataType": "wifi",
    "category": "洽公場所",
    "name": "高雄軟體園區服務中心_AP1",
    "lat": 22.604712,
    "lng": 120.299676,
    "address": "806高雄市前鎮區復興四路10號3樓-3"
  },
  {
    "dataType": "wifi",
    "category": "洽公場所",
    "name": "臺灣銀行三多分行",
    "lat": 22.610711,
    "lng": 120.29941,
    "address": "802高雄市苓雅區新光路142號"
  },
  {
    "dataType": "wifi",
    "category": "洽公場所",
    "name": "苓雅郵局",
    "lat": 22.614825,
    "lng": 120.297629,
    "address": "802高雄市苓雅區成功一路134號"
  },
  {
    "dataType": "wifi",
    "category": "洽公場所",
    "name": "航政組技術科",
    "lat": 22.616216,
    "lng": 120.284524,
    "address": "804高雄市鼓山區蓬萊路4號2樓"
  },
  {
    "dataType": "wifi",
    "category": "洽公場所",
    "name": "航政組監理科",
    "lat": 22.616216,
    "lng": 120.284524,
    "address": "804高雄市鼓山區蓬萊路4號1樓"
  },
  {
    "dataType": "wifi",
    "category": "洽公場所",
    "name": "高雄港國際旅客服務中心",
    "lat": 22.616378,
    "lng": 120.283427,
    "address": "804高雄市鼓山區蓬萊路9-2號"
  },
  {
    "dataType": "wifi",
    "category": "洽公場所",
    "name": "高雄港務分公司業務處聯合作業室",
    "lat": 22.616883,
    "lng": 120.283841,
    "address": "804高雄市鼓山區蓬萊路10號1樓"
  },
  {
    "dataType": "wifi",
    "category": "洽公場所",
    "name": "高雄港務分公司船舶維管處開標室",
    "lat": 22.616888,
    "lng": 120.283052,
    "address": "804高雄市鼓山區蓬萊路2號10號碼頭2樓"
  },
  {
    "dataType": "wifi",
    "category": "洽公場所",
    "name": "高雄港務分公司港務處繫船科船席調派室",
    "lat": 22.616888,
    "lng": 120.283052,
    "address": "804高雄市鼓山區蓬萊路"
  },
  {
    "dataType": "wifi",
    "category": "其他",
    "name": "社團法人高雄市董娘樂齡照顧關懷協會",
    "lat": 22.617442,
    "lng": 120.299042,
    "address": "802高雄市苓雅區田西里苓雅二路88號"
  },
  {
    "dataType": "wifi",
    "category": "文教館所",
    "name": "高雄市立圖書館苓雅分館",
    "lat": 22.618579,
    "lng": 120.298228,
    "address": "802高雄市苓雅區青年二路101號4-5樓"
  },
  {
    "dataType": "wifi",
    "category": "洽公場所",
    "name": "標準檢驗局高雄分局商檢業務民眾洽公區",
    "lat": 22.618699,
    "lng": 120.293464,
    "address": "802高雄市苓雅區海邊路50號"
  },
  {
    "dataType": "wifi",
    "category": "其他",
    "name": "高雄市基督教女青年會",
    "lat": 22.619828,
    "lng": 120.291254,
    "address": "802高雄市苓雅區博仁里五福三路101號九樓"
  },
  {
    "dataType": "wifi",
    "category": "旅遊景點",
    "name": "駁二藝術中心(P3倉庫)",
    "lat": 22.619976,
    "lng": 120.281651,
    "address": "803高雄市鹽埕區大勇路1號"
  },
  {
    "dataType": "wifi",
    "category": "旅遊景點",
    "name": "駁二藝術中心(C5倉庫前側)",
    "lat": 22.619976,
    "lng": 120.281651,
    "address": "803高雄市鹽埕區大勇路1號"
  },
  {
    "dataType": "wifi",
    "category": "旅遊景點",
    "name": "駁二藝術中心(C5倉庫後側)",
    "lat": 22.619976,
    "lng": 120.281651,
    "address": "803高雄市鹽埕區大勇路1號"
  },
  {
    "dataType": "wifi",
    "category": "其他",
    "name": "高雄市前鎮區亞洲新灣獅甲社區發展協會",
    "lat": 22.601,
    "lng": 120.304,
    "address": "806高雄市前鎮區忠純里正勤路39號"
  },
  {
    "dataType": "wifi",
    "category": "其他",
    "name": "台灣愛修更新協會",
    "lat": 22.601,
    "lng": 120.306,
    "address": "806高雄市前鎮區西山里一心二路25號地下一層"
  },
  {
    "dataType": "wifi",
    "category": "洽公場所",
    "name": "高雄君毅郵局",
    "lat": 22.601497,
    "lng": 120.306329,
    "address": "806高雄市前鎮區中華五路963號"
  },
  {
    "dataType": "wifi",
    "category": "文教館所",
    "name": "台電公司南部發電廠電力展示館",
    "lat": 22.602339,
    "lng": 120.301098,
    "address": "806高雄市前鎮區成功二路5號"
  },
  {
    "dataType": "wifi",
    "category": "洽公場所",
    "name": "海洋委員會1",
    "lat": 22.605333,
    "lng": 120.300165,
    "address": "806高雄市前鎮區成功二路25號5樓"
  },
  {
    "dataType": "wifi",
    "category": "洽公場所",
    "name": "海洋委員會2",
    "lat": 22.605333,
    "lng": 120.300165,
    "address": "806高雄市前鎮區成功二路25號7樓"
  },
  {
    "dataType": "wifi",
    "category": "其他",
    "name": "高雄市前鎮區明義社區發展協會",
    "lat": 22.607,
    "lng": 120.305,
    "address": "806高雄市前鎮區明義里南衙路1號二樓"
  },
  {
    "dataType": "wifi",
    "category": "文教館所",
    "name": "高雄市政府勞工局勞工教育生活中心獅甲會館3樓",
    "lat": 22.60767,
    "lng": 120.30972,
    "address": "806高雄市前鎮區中山三路132號3樓"
  },
  {
    "dataType": "wifi",
    "category": "文教館所",
    "name": "高雄市政府勞工局勞工教育生活中心獅甲會館",
    "lat": 22.607912,
    "lng": 120.309713,
    "address": "806高雄市前鎮區中山三路132號"
  },
  {
    "dataType": "wifi",
    "category": "洽公場所",
    "name": "自來水公司高雄服務所",
    "lat": 22.60828,
    "lng": 120.30828,
    "address": "806高雄市前鎮區復興三路131號"
  },
  {
    "dataType": "wifi",
    "category": "洽公場所",
    "name": "臺灣土地銀行前鎮分行",
    "lat": 22.608707,
    "lng": 120.315905,
    "address": "806高雄市前鎮區一心一路241號"
  },
  {
    "dataType": "wifi",
    "category": "洽公場所",
    "name": "高雄西甲郵局",
    "lat": 22.609664,
    "lng": 120.309958,
    "address": "806高雄市前鎮區復興三路94號"
  },
  {
    "dataType": "wifi",
    "category": "公立醫院",
    "name": "國軍高雄總醫院附設高雄門診中心一般診間等候處",
    "lat": 22.61001,
    "lng": 120.316815,
    "address": "806高雄市前鎮區光華二路51號"
  },
  {
    "dataType": "wifi",
    "category": "文教館所",
    "name": "高雄市立圖書館總館",
    "lat": 22.610043,
    "lng": 120.301854,
    "address": "806高雄市前鎮區新光路61號"
  },
  {
    "dataType": "wifi",
    "category": "文教館所",
    "name": "高雄市立圖書館(廣場天花板)",
    "lat": 22.610244,
    "lng": 120.301761,
    "address": "806高雄市前鎮區新光路61號"
  },
  {
    "dataType": "wifi",
    "category": "洽公場所",
    "name": "華南商業銀行前鎮分行",
    "lat": 22.610881,
    "lng": 120.311408,
    "address": "806高雄市前鎮區一心二路33號"
  },
  {
    "dataType": "wifi",
    "category": "其他",
    "name": "高雄市前鎮區路中廟社區發展協會",
    "lat": 22.611,
    "lng": 120.312,
    "address": "806高雄市前鎮區竹西里廣東三街73號三樓"
  },
  {
    "dataType": "wifi",
    "category": "其他",
    "name": "高雄市前鎮區興邦社區發展協會",
    "lat": 22.611,
    "lng": 120.315,
    "address": "806高雄市前鎮區興邦里鎮邦街63號"
  },
  {
    "dataType": "wifi",
    "category": "洽公場所",
    "name": "第一商業銀行(前鎮分行)",
    "lat": 22.614839,
    "lng": 120.307592,
    "address": "806高雄市前鎮區三多三路191號"
  },
  {
    "dataType": "wifi",
    "category": "洽公場所",
    "name": "華南商業銀行南高雄分行",
    "lat": 22.61565,
    "lng": 120.30982,
    "address": "806高雄市前鎮區三多三路153號"
  },
  {
    "dataType": "wifi",
    "category": "洽公場所",
    "name": "高雄廣澤郵局",
    "lat": 22.615773,
    "lng": 120.310643,
    "address": "806高雄市前鎮區三多三路139號"
  },
  {
    "dataType": "wifi",
    "category": "洽公場所",
    "name": "臺灣土地銀行苓雅分行",
    "lat": 22.616712,
    "lng": 120.309445,
    "address": "802高雄市苓雅區忠孝二路18號"
  },
  {
    "dataType": "wifi",
    "category": "洽公場所",
    "name": "兆豐國際商銀苓雅分行",
    "lat": 22.616824,
    "lng": 120.302272,
    "address": "802高雄市苓雅區四維四路8號"
  },
  {
    "dataType": "wifi",
    "category": "洽公場所",
    "name": "第一商業銀行(高雄分行)",
    "lat": 22.618463,
    "lng": 120.314313,
    "address": "802高雄市苓雅區民權一路28號"
  },
  {
    "dataType": "wifi",
    "category": "其他",
    "name": "高雄市苓雅區人和社區發展協會",
    "lat": 22.61856,
    "lng": 120.301278,
    "address": "802高雄市苓雅區人和里仁義街131巷4號"
  },
  {
    "dataType": "wifi",
    "category": "洽公場所",
    "name": "華南商業銀行苓雅分行",
    "lat": 22.619597,
    "lng": 120.30216,
    "address": "802高雄市苓雅區中山二路489號"
  },
  {
    "dataType": "wifi",
    "category": "其他",
    "name": "高雄市社區關懷協會",
    "lat": 22.619812,
    "lng": 120.313879,
    "address": "802高雄市苓雅區普天里民權一路38號"
  },
  {
    "dataType": "wifi",
    "category": "洽公場所",
    "name": "臺灣土地銀行五甲分行",
    "lat": 22.600726,
    "lng": 120.3393,
    "address": "830高雄市鳳山區五甲二路256號"
  },
  {
    "dataType": "wifi",
    "category": "其他",
    "name": "財團法人天主教社會慈善福利基金會",
    "lat": 22.601,
    "lng": 120.331,
    "address": "806高雄市前鎮區瑞文里瑞孝街33號"
  },
  {
    "dataType": "wifi",
    "category": "其他",
    "name": "台灣寬霖關懷協會(國隆站)",
    "lat": 22.602,
    "lng": 120.335,
    "address": "830高雄市鳳山區國隆里國興街17號"
  },
  {
    "dataType": "wifi",
    "category": "洽公場所",
    "name": "第一商業銀行(五甲分行)",
    "lat": 22.602208,
    "lng": 120.333204,
    "address": "830高雄市鳳山區保泰路322號"
  },
  {
    "dataType": "wifi",
    "category": "文教館所",
    "name": "高雄市立圖書館前鎮分館",
    "lat": 22.602492,
    "lng": 120.333005,
    "address": "806高雄市前鎮區保泰路303號4-5樓"
  },
  {
    "dataType": "wifi",
    "category": "洽公場所",
    "name": "華南商業銀行籬仔內分行",
    "lat": 22.603275,
    "lng": 120.324411,
    "address": "806高雄市前鎮區班超路132號"
  },
  {
    "dataType": "wifi",
    "category": "洽公場所",
    "name": "高雄籬仔內郵局",
    "lat": 22.605428,
    "lng": 120.328818,
    "address": "806高雄市前鎮區瑞隆路482號"
  },
  {
    "dataType": "wifi",
    "category": "其他",
    "name": "高雄市崗山仔關懷協會",
    "lat": 22.607,
    "lng": 120.333,
    "address": "806高雄市前鎮區瑞平里崗山南街396號"
  },
  {
    "dataType": "wifi",
    "category": "其他",
    "name": "社團法人高雄市親職教育關懷照護協會(新甲站)",
    "lat": 22.608,
    "lng": 120.339,
    "address": "830高雄市鳳山區新甲里新康街21號"
  },
  {
    "dataType": "wifi",
    "category": "其他",
    "name": "高雄市基督教關懷老人協會",
    "lat": 22.609,
    "lng": 120.32,
    "address": "806高雄市前鎮區平等里同安路42號"
  },
  {
    "dataType": "wifi",
    "category": "洽公場所",
    "name": "高雄崗山仔郵局",
    "lat": 22.609118,
    "lng": 120.335102,
    "address": "806高雄市前鎮區瑞北路39號"
  },
  {
    "dataType": "wifi",
    "category": "洽公場所",
    "name": "高雄英德街郵局",
    "lat": 22.613957,
    "lng": 120.321465,
    "address": "806高雄市前鎮區英德街149號"
  },
  {
    "dataType": "wifi",
    "category": "洽公場所",
    "name": "財政部高雄國稅局前鎮稽徵所",
    "lat": 22.614,
    "lng": 120.321204,
    "address": "806高雄市前鎮區英德街151號"
  },
  {
    "dataType": "wifi",
    "category": "洽公場所",
    "name": "公路總局高雄區監理所",
    "lat": 22.615307,
    "lng": 120.33604,
    "address": "830高雄市鳳山區武營路361號1樓"
  },
  {
    "dataType": "wifi",
    "category": "洽公場所",
    "name": "高雄市政府交通局交通事件裁決中心鳳山辦公室",
    "lat": 22.615536,
    "lng": 120.335988,
    "address": "830高雄市鳳山區武營路361號1樓"
  },
  {
    "dataType": "wifi",
    "category": "其他",
    "name": "中華民國健康生活管理促進產業協會(新武站)",
    "lat": 22.616,
    "lng": 120.338,
    "address": "830高雄市鳳山區新武里武營路106巷42之1號"
  },
  {
    "dataType": "wifi",
    "category": "洽公場所",
    "name": "高雄林華郵局",
    "lat": 22.619087,
    "lng": 120.320843,
    "address": "802高雄市苓雅區三多二路249號"
  },
  {
    "dataType": "wifi",
    "category": "洽公場所",
    "name": "臺灣銀行五甲分行",
    "lat": 22.601972,
    "lng": 120.340978,
    "address": "830高雄市鳳山區五甲二路168號"
  },
  {
    "dataType": "wifi",
    "category": "洽公場所",
    "name": "鳳山一甲郵局",
    "lat": 22.602061,
    "lng": 120.341808,
    "address": "830高雄市鳳山區五甲二路87、89、91號"
  },
  {
    "dataType": "wifi",
    "category": "洽公場所",
    "name": "鳳山中崙郵局",
    "lat": 22.602226,
    "lng": 120.351117,
    "address": "830高雄市鳳山區中崙路576號"
  },
  {
    "dataType": "wifi",
    "category": "其他",
    "name": "社團法人台灣全人關懷照護服務協會",
    "lat": 22.603,
    "lng": 120.34,
    "address": "830高雄市鳳山區文衡里八德路329號"
  },
  {
    "dataType": "wifi",
    "category": "其他",
    "name": "社團法人高雄市關懷台灣協會",
    "lat": 22.605,
    "lng": 120.349,
    "address": "830高雄市鳳山區中崙里中崙四路5號"
  },
  {
    "dataType": "wifi",
    "category": "洽公場所",
    "name": "鳳山新甲郵局",
    "lat": 22.607586,
    "lng": 120.341857,
    "address": "830高雄市鳳山區大明路39、41號"
  },
  {
    "dataType": "wifi",
    "category": "其他",
    "name": "台灣寬霖關懷協會(海光站)",
    "lat": 22.612,
    "lng": 120.347,
    "address": "830高雄市鳳山區海光里勝國街67號"
  },
  {
    "dataType": "wifi",
    "category": "其他",
    "name": "高雄市鳳山區幸福海洋社區發展協會",
    "lat": 22.616,
    "lng": 120.349,
    "address": "830高雄市鳳山區海洋里南福街152巷15號"
  },
  {
    "dataType": "wifi",
    "category": "洽公場所",
    "name": "鳳山新富郵局",
    "lat": 22.616274,
    "lng": 120.348663,
    "address": "830高雄市鳳山區新富路391號"
  },
  {
    "dataType": "wifi",
    "category": "其他",
    "name": "高雄市心故鄉社區營造協會",
    "lat": 22.619,
    "lng": 120.347,
    "address": "830高雄市鳳山區國富里國富路31號"
  },
  {
    "dataType": "wifi",
    "category": "其他",
    "name": "高雄市甲仙區甲仙社區發展協會",
    "lat": 22.619,
    "lng": 120.347,
    "address": "847高雄市甲仙區和安里中山路56號"
  },
  {
    "dataType": "wifi",
    "category": "洽公場所",
    "name": "司法院(高雄地方法院-鳳山辦公大樓)",
    "lat": 22.61992,
    "lng": 120.348714,
    "address": "830高雄市鳳山區國泰路二段96號"
  },
  {
    "dataType": "wifi",
    "category": "其他",
    "name": "社團法人高雄市活泉愛鄰社區服務協會",
    "lat": 22.6108,
    "lng": 120.362,
    "address": "830高雄市鳳山區誠義里誠東街1號"
  },
  {
    "dataType": "wifi",
    "category": "其他",
    "name": "高雄市鳳山區瑞竹社區發展協會",
    "lat": 22.615,
    "lng": 120.36,
    "address": "830高雄市鳳山區瑞興里光遠路120巷16號"
  },
  {
    "dataType": "wifi",
    "category": "旅遊景點",
    "name": "黃埔借問站",
    "lat": 22.617965,
    "lng": 120.364189,
    "address": "830高雄市鳳山區西五巷47號"
  },
  {
    "dataType": "wifi",
    "category": "其他",
    "name": "社團法人高雄市文教協會",
    "lat": 22.600592,
    "lng": 120.397972,
    "address": "831高雄市大寮區會社里鳳林三路315之22號三樓"
  },
  {
    "dataType": "wifi",
    "category": "洽公場所",
    "name": "高雄市稅捐稽徵處大寮分處",
    "lat": 22.602178,
    "lng": 120.397419,
    "address": "831高雄市大寮區鳳林三路336號"
  },
  {
    "dataType": "wifi",
    "category": "洽公場所",
    "name": "高雄市大寮區戶政事務所",
    "lat": 22.602405,
    "lng": 120.397115,
    "address": "831高雄市大寮區鳳林三路375號"
  },
  {
    "dataType": "wifi",
    "category": "文教館所",
    "name": "高雄市立圖書館大寮分館",
    "lat": 22.604206,
    "lng": 120.393387,
    "address": "831高雄市大寮區永芳里進學路133號"
  },
  {
    "dataType": "wifi",
    "category": "洽公場所",
    "name": "高雄市大寮區公所民政課",
    "lat": 22.60543,
    "lng": 120.395442,
    "address": "831高雄市大寮區永芳里鳳林三路492號"
  },
  {
    "dataType": "wifi",
    "category": "洽公場所",
    "name": "高雄市大寮區公所農業課",
    "lat": 22.60543,
    "lng": 120.395442,
    "address": "831高雄市大寮區永芳里鳳林三路492號"
  },
  {
    "dataType": "wifi",
    "category": "洽公場所",
    "name": "高雄市大寮區公所",
    "lat": 22.60585,
    "lng": 120.395544,
    "address": "831高雄市大寮區鳳林三路492號"
  },
  {
    "dataType": "wifi",
    "category": "洽公場所",
    "name": "大寮郵局",
    "lat": 22.606637,
    "lng": 120.395495,
    "address": "831高雄市大寮區永芳村鳳林三路530號"
  },
  {
    "dataType": "wifi",
    "category": "洽公場所",
    "name": "大寮中興郵局",
    "lat": 22.614674,
    "lng": 120.388115,
    "address": "831高雄市大寮區鳳林四路34、36、38號"
  },
  {
    "dataType": "wifi",
    "category": "其他",
    "name": "高雄市大寮區中興社區發展協會",
    "lat": 22.61766,
    "lng": 120.387552,
    "address": "831高雄市大寮區中興里中興文化路2巷2號"
  },
  {
    "dataType": "wifi",
    "category": "洽公場所",
    "name": "臺灣土地銀行大發分行",
    "lat": 22.619261,
    "lng": 120.383465,
    "address": "831高雄市大寮區鳳林四路272號1~4樓"
  },
  {
    "dataType": "wifi",
    "category": "洽公場所",
    "name": "交通部航港局南部航務中心第二辦公廳",
    "lat": 22.620003,
    "lng": 120.278943,
    "address": "804高雄市鼓山區蓬萊路30號"
  },
  {
    "dataType": "wifi",
    "category": "旅遊景點",
    "name": "駁二藝術中心(B4倉庫北側)",
    "lat": 22.620272,
    "lng": 120.278336,
    "address": "804高雄市鼓山區蓬萊路99號"
  },
  {
    "dataType": "wifi",
    "category": "旅遊景點",
    "name": "駁二藝術中心(港輪候客處)",
    "lat": 22.620272,
    "lng": 120.278336,
    "address": "804高雄市鼓山區蓬萊路99號"
  },
  {
    "dataType": "wifi",
    "category": "洽公場所",
    "name": "鼓山郵局",
    "lat": 22.621788,
    "lng": 120.273867,
    "address": "804高雄市鼓山區臨海二路17號"
  },
  {
    "dataType": "wifi",
    "category": "旅遊景點",
    "name": "舊打狗驛故事館",
    "lat": 22.621844,
    "lng": 120.276617,
    "address": "804高雄市鼓山區鼓山一路32號"
  },
  {
    "dataType": "wifi",
    "category": "其他",
    "name": "社團法人高雄市源生慈善會(登山站)",
    "lat": 22.623,
    "lng": 120.27,
    "address": "804高雄市鼓山區登山里鼓山一路42之1號"
  },
  {
    "dataType": "wifi",
    "category": "洽公場所",
    "name": "高雄港務分公司第一辦公廳",
    "lat": 22.623079,
    "lng": 120.27523,
    "address": "804高雄市鼓山區臨海二路62號1樓"
  },
  {
    "dataType": "wifi",
    "category": "文教館所",
    "name": "高雄市立圖書館南鼓山分館",
    "lat": 22.623305,
    "lng": 120.273052,
    "address": "804高雄市鼓山區延平街87-13號"
  },
  {
    "dataType": "wifi",
    "category": "洽公場所",
    "name": "高雄市鼓山區衛生所",
    "lat": 22.623534,
    "lng": 120.274055,
    "address": "804高雄市鼓山區登山街16號"
  },
  {
    "dataType": "wifi",
    "category": "其他",
    "name": "慈濟新強社區關懷據點",
    "lat": 22.625,
    "lng": 120.279,
    "address": "830高雄市鳳山區新強路387巷20號"
  },
  {
    "dataType": "wifi",
    "category": "文教館所",
    "name": "打狗鐵道故事館",
    "lat": 22.625234,
    "lng": 120.27734,
    "address": "804高雄市鼓山區鼓山一路32路"
  },
  {
    "dataType": "wifi",
    "category": "旅遊景點",
    "name": "壽山情人觀景台",
    "lat": 22.625488,
    "lng": 120.273999,
    "address": "804高雄市鼓山區忠義路30號"
  },
  {
    "dataType": "wifi",
    "category": "洽公場所",
    "name": "內政部國家公園署國家自然公園管理處",
    "lat": 22.626149,
    "lng": 120.272778,
    "address": "804高雄市鼓山區萬壽路301號"
  },
  {
    "dataType": "wifi",
    "category": "洽公場所",
    "name": "內政部國家公園署國家自然公園管理處遊客中心",
    "lat": 22.626149,
    "lng": 120.272778,
    "address": "804高雄市鼓山區萬壽路301號"
  },
  {
    "dataType": "wifi",
    "category": "洽公場所",
    "name": "內政部國家公園署國家自然公園管理處保育研究中心",
    "lat": 22.626149,
    "lng": 120.272778,
    "address": "804高雄市鼓山區萬壽路301號"
  },
  {
    "dataType": "wifi",
    "category": "洽公場所",
    "name": "中山大學郵局",
    "lat": 22.626361,
    "lng": 120.265923,
    "address": "804高雄市鼓山區蓮海路70號"
  },
  {
    "dataType": "wifi",
    "category": "其他",
    "name": "高雄市政府工務局違章建築處理大隊",
    "lat": 22.62672,
    "lng": 120.277301,
    "address": "804高雄市鼓山區鼓山一路53巷111號"
  },
  {
    "dataType": "wifi",
    "category": "洽公場所",
    "name": "鳳山就業服務站",
    "lat": 22.626927,
    "lng": 120.277435,
    "address": "830高雄市鳳山區中山西路235號"
  },
  {
    "dataType": "wifi",
    "category": "洽公場所",
    "name": "高雄市動物保護教育園區",
    "lat": 22.635125,
    "lng": 120.275166,
    "address": "804高雄市鼓山區萬壽路350號"
  },
  {
    "dataType": "wifi",
    "category": "旅遊景點",
    "name": "高雄市壽山動物園活動廣場",
    "lat": 22.635897,
    "lng": 120.27611,
    "address": "804高雄市鼓山區萬壽路350號"
  },
  {
    "dataType": "wifi",
    "category": "洽公場所",
    "name": "臺灣中小企業銀行高雄分行",
    "lat": 22.62132,
    "lng": 120.296141,
    "address": "801高雄市前金區五福三路79號"
  },
  {
    "dataType": "wifi",
    "category": "洽公場所",
    "name": "第一商業銀行(苓雅分行)",
    "lat": 22.621574,
    "lng": 120.297013,
    "address": "801高雄市前金區五福三路61號"
  },
  {
    "dataType": "wifi",
    "category": "洽公場所",
    "name": "臺灣土地銀行中山分行",
    "lat": 22.62179,
    "lng": 120.29633,
    "address": "801高雄市前金區五福三路82號"
  },
  {
    "dataType": "wifi",
    "category": "文教館所",
    "name": "高雄市電影館",
    "lat": 22.622355,
    "lng": 120.288845,
    "address": "803高雄市鹽埕區河西路10號"
  },
  {
    "dataType": "wifi",
    "category": "洽公場所",
    "name": "高雄市政府交通局停管中心3樓",
    "lat": 22.62252,
    "lng": 120.291235,
    "address": "800高雄市新興區中正三路25號3樓"
  },
  {
    "dataType": "wifi",
    "category": "旅遊景點",
    "name": "城市光廊(公車站東)",
    "lat": 22.622563,
    "lng": 120.299647,
    "address": "801高雄市前金區五福三路21號前公車城市光廊站"
  },
  {
    "dataType": "wifi",
    "category": "洽公場所",
    "name": "勞動部勞動力發展署高屏澎東分署青年職涯發展中心",
    "lat": 22.622646,
    "lng": 120.299644,
    "address": "801高雄市前金區五福三路21號8樓"
  },
  {
    "dataType": "wifi",
    "category": "洽公場所",
    "name": "鹽埕郵局",
    "lat": 22.62308,
    "lng": 120.28431,
    "address": "803高雄市鹽埕區五福四路133號"
  },
  {
    "dataType": "wifi",
    "category": "旅遊景點",
    "name": "高雄市政府觀光局愛河旅遊服務中心",
    "lat": 22.623598,
    "lng": 120.290339,
    "address": "801高雄市新興區河東路與民生二路交叉口的鰲燈1樓"
  },
  {
    "dataType": "wifi",
    "category": "洽公場所",
    "name": "國軍退除役官兵輔導委員會高雄市榮民服務處一樓大廳",
    "lat": 22.623735,
    "lng": 120.296041,
    "address": "801高雄市前金區自強二路52號"
  },
  {
    "dataType": "wifi",
    "category": "洽公場所",
    "name": "華南商業銀行高雄分行",
    "lat": 22.623855,
    "lng": 120.283728,
    "address": "803高雄市鹽埕區五福四路178號"
  },
  {
    "dataType": "wifi",
    "category": "洽公場所",
    "name": "高雄市鹽埕區戶政事務所",
    "lat": 22.624707,
    "lng": 120.286689,
    "address": "803高雄市鹽埕區大仁路6號7樓"
  },
  {
    "dataType": "wifi",
    "category": "洽公場所",
    "name": "高雄市稅捐稽徵處鹽埕分處",
    "lat": 22.624717,
    "lng": 120.286707,
    "address": "803高雄市鹽埕區大仁路6號4樓"
  },
  {
    "dataType": "wifi",
    "category": "洽公場所",
    "name": "財政部高雄國稅局鹽埕稽徵所",
    "lat": 22.624729,
    "lng": 120.286654,
    "address": "803高雄市鹽埕區大仁路6號6樓"
  },
  {
    "dataType": "wifi",
    "category": "洽公場所",
    "name": "高雄市鹽埕區公所",
    "lat": 22.625162,
    "lng": 120.286775,
    "address": "803高雄市鹽埕區大仁路6號8樓"
  },
  {
    "dataType": "wifi",
    "category": "洽公場所",
    "name": "第一商業銀行(鹽埕分行)",
    "lat": 22.625829,
    "lng": 120.283803,
    "address": "803高雄市鹽埕區大仁路115號"
  },
  {
    "dataType": "wifi",
    "category": "洽公場所",
    "name": "高雄市鹽埕地政事務所",
    "lat": 22.625935,
    "lng": 120.281668,
    "address": "803高雄市鹽埕區新樂街214號5樓"
  },
  {
    "dataType": "wifi",
    "category": "洽公場所",
    "name": "高雄市數位內容創意中心展覽空間",
    "lat": 22.626021,
    "lng": 120.281743,
    "address": "803高雄市鹽埕區七賢三路123號3樓"
  },
  {
    "dataType": "wifi",
    "category": "洽公場所",
    "name": "臺灣高雄地方法院檢察署1樓偵查庭區",
    "lat": 22.626025,
    "lng": 120.289689,
    "address": "801高雄市前金區河東路188號"
  },
  {
    "dataType": "wifi",
    "category": "洽公場所",
    "name": "臺灣土地銀行高雄分行",
    "lat": 22.626203,
    "lng": 120.284902,
    "address": "803高雄市鹽埕區大勇路131號"
  },
  {
    "dataType": "wifi",
    "category": "洽公場所",
    "name": "高雄社東郵局",
    "lat": 22.62632,
    "lng": 120.295173,
    "address": "801高雄市前金區自強二路104-1號"
  },
  {
    "dataType": "wifi",
    "category": "洽公場所",
    "name": "司法院(高雄地方法院-高雄簡易庭)-1",
    "lat": 22.626329,
    "lng": 120.289632,
    "address": "801高雄市前金區河東路188號1樓"
  },
  {
    "dataType": "wifi",
    "category": "洽公場所",
    "name": "司法院(高雄地方法院-高雄簡易庭)-2",
    "lat": 22.626329,
    "lng": 120.289632,
    "address": "801高雄市前金區河東路188號2樓"
  },
  {
    "dataType": "wifi",
    "category": "洽公場所",
    "name": "高雄市數位內容創意中心右後方走廊",
    "lat": 22.626388,
    "lng": 120.28199,
    "address": "803高雄市鹽埕區七賢三路123號3樓"
  },
  {
    "dataType": "wifi",
    "category": "其他",
    "name": "社團法人高雄市佛臨濟助會",
    "lat": 22.626659,
    "lng": 120.281842,
    "address": "803高雄市鹽埕區教仁里大仁路179號四樓"
  },
  {
    "dataType": "wifi",
    "category": "洽公場所",
    "name": "高雄市政府社會局鹽埕社會福利中心",
    "lat": 22.626715,
    "lng": 120.281874,
    "address": "803高雄市鹽埕區大仁路179號4樓"
  },
  {
    "dataType": "wifi",
    "category": "文教館所",
    "name": "高雄市立圖書館鹽埕分館",
    "lat": 22.626749,
    "lng": 120.281925,
    "address": "803高雄市鹽埕區大仁路179號5-6樓"
  },
  {
    "dataType": "wifi",
    "category": "洽公場所",
    "name": "高雄地方法院郵局",
    "lat": 22.626945,
    "lng": 120.290587,
    "address": "801高雄市前金區市中一路171號"
  },
  {
    "dataType": "wifi",
    "category": "文教館所",
    "name": "高雄市勞工博物館1F",
    "lat": 22.62713,
    "lng": 120.28988,
    "address": "801高雄市前金區中正四路261號1F"
  },
  {
    "dataType": "wifi",
    "category": "文教館所",
    "name": "高雄市勞工博物館3F",
    "lat": 22.62713,
    "lng": 120.28988,
    "address": "801高雄市前金區中正四路261號3F"
  },
  {
    "dataType": "wifi",
    "category": "文教館所",
    "name": "高雄市勞工博物館4F",
    "lat": 22.62713,
    "lng": 120.28988,
    "address": "801高雄市前金區中正四路261號4F"
  },
  {
    "dataType": "wifi",
    "category": "文教館所",
    "name": "高雄市勞工博物館6F",
    "lat": 22.62713,
    "lng": 120.28988,
    "address": "801高雄市前金區中正四路261號6F"
  },
  {
    "dataType": "wifi",
    "category": "文教館所",
    "name": "高雄市立歷史博物館",
    "lat": 22.627202,
    "lng": 120.286925,
    "address": "803高雄市鹽埕區中正四路272號"
  },
  {
    "dataType": "wifi",
    "category": "文教館所",
    "name": "高雄市立圖書館文學館",
    "lat": 22.627242,
    "lng": 120.298233,
    "address": "801高雄市前金區民生二路39號"
  },
  {
    "dataType": "wifi",
    "category": "洽公場所",
    "name": "中央健康保險署-高屏業務組1樓聯合服務中心",
    "lat": 22.627283,
    "lng": 120.290077,
    "address": "801高雄市前金區中正四路259號1樓"
  },
  {
    "dataType": "wifi",
    "category": "洽公場所",
    "name": "上海商銀前金分行",
    "lat": 22.627342,
    "lng": 120.292716,
    "address": "801高雄市前金區成功一路420號"
  },
  {
    "dataType": "wifi",
    "category": "洽公場所",
    "name": "兆豐國際商銀港都分行",
    "lat": 22.627472,
    "lng": 120.290927,
    "address": "801高雄市前金區中正四路253號"
  },
  {
    "dataType": "wifi",
    "category": "洽公場所",
    "name": "兆豐國際商銀港都分行4樓",
    "lat": 22.627472,
    "lng": 120.290927,
    "address": "801高雄市前金區中正四路253號4樓"
  },
  {
    "dataType": "wifi",
    "category": "洽公場所",
    "name": "高雄市前金區公所",
    "lat": 22.627559,
    "lng": 120.294285,
    "address": "801高雄市前金區自強二路169號3樓"
  },
  {
    "dataType": "wifi",
    "category": "洽公場所",
    "name": "臺灣銀行高雄分行",
    "lat": 22.627585,
    "lng": 120.289604,
    "address": "801高雄市前金區中正四路264號"
  },
  {
    "dataType": "wifi",
    "category": "文教館所",
    "name": "高雄市音樂館(北側門)",
    "lat": 22.627635,
    "lng": 120.286833,
    "address": "803高雄市鹽埕區河西路99號"
  },
  {
    "dataType": "wifi",
    "category": "公立醫院",
    "name": "高雄市立中醫醫院",
    "lat": 22.627658,
    "lng": 120.29701,
    "address": "801高雄市前金區中華三路68號1-4樓部份樓層-新盛街入口"
  },
  {
    "dataType": "wifi",
    "category": "洽公場所",
    "name": "高雄市政府警察局",
    "lat": 22.627856,
    "lng": 120.290712,
    "address": "801高雄市前金區中正四路260號"
  },
  {
    "dataType": "wifi",
    "category": "洽公場所",
    "name": "高雄市前金區戶政事務所",
    "lat": 22.627955,
    "lng": 120.294306,
    "address": "801高雄市前金區自強二路169號1樓"
  },
  {
    "dataType": "wifi",
    "category": "洽公場所",
    "name": "觀光局旅遊服務中心高雄服務處",
    "lat": 22.628014,
    "lng": 120.292718,
    "address": "801高雄市前金區中正四路235號5樓-1"
  },
  {
    "dataType": "wifi",
    "category": "洽公場所",
    "name": "兆豐國際商銀高雄分行",
    "lat": 22.628049,
    "lng": 120.292673,
    "address": "801高雄市前金區中正四路235號"
  },
  {
    "dataType": "wifi",
    "category": "其他",
    "name": "財團法人弘道老人福利基金會(林投站)",
    "lat": 22.629,
    "lng": 120.296,
    "address": "801高雄市前金區林投里大同二路54號之11"
  },
  {
    "dataType": "wifi",
    "category": "洽公場所",
    "name": "外交部領事事務局南部辦事處(2樓大廳)",
    "lat": 22.6291,
    "lng": 120.291962,
    "address": "801高雄市前金區成功一路436號2樓"
  },
  {
    "dataType": "wifi",
    "category": "洽公場所",
    "name": "經濟部南區聯合服務中心9樓民眾洽公櫃台",
    "lat": 22.6291,
    "lng": 120.291962,
    "address": "807高雄市前金區成功一路436號9樓"
  },
  {
    "dataType": "wifi",
    "category": "洽公場所",
    "name": "智慧財產局高雄服務處",
    "lat": 22.629185,
    "lng": 120.291922,
    "address": "801高雄市前金區成功一路436號8樓"
  },
  {
    "dataType": "wifi",
    "category": "洽公場所",
    "name": "高雄府北郵局",
    "lat": 22.629584,
    "lng": 120.284374,
    "address": "803高雄市鹽埕區七賢二路470號"
  },
  {
    "dataType": "wifi",
    "category": "洽公場所",
    "name": "國防部憲兵指揮部高雄憲兵隊會客室",
    "lat": 22.62975,
    "lng": 120.29234,
    "address": "801高雄市前金區六合二路217號"
  },
  {
    "dataType": "wifi",
    "category": "洽公場所",
    "name": "經濟部國際貿易局高雄辦事處廠商服務區",
    "lat": 22.629803,
    "lng": 120.298197,
    "address": "801高雄市前金區中正四路103號2樓"
  },
  {
    "dataType": "wifi",
    "category": "洽公場所",
    "name": "前金郵局",
    "lat": 22.63154,
    "lng": 120.296345,
    "address": "801高雄市前金區六合二路147號"
  },
  {
    "dataType": "wifi",
    "category": "洽公場所",
    "name": "台電公司高雄區處服務中心營業廳",
    "lat": 22.632193,
    "lng": 120.281931,
    "address": "804高雄市鼓山區鼓山二路39號"
  },
  {
    "dataType": "wifi",
    "category": "洽公場所",
    "name": "華南商業銀行高雄三民分行",
    "lat": 22.633481,
    "lng": 120.295916,
    "address": "801高雄市前金區七賢二路189號"
  },
  {
    "dataType": "wifi",
    "category": "其他",
    "name": "高雄市三民區幸福千歲社區發展協會",
    "lat": 22.635335,
    "lng": 120.290602,
    "address": "807高雄市三民區千歲里三民街222號六樓"
  },
  {
    "dataType": "wifi",
    "category": "洽公場所",
    "name": "高雄三塊厝郵局",
    "lat": 22.635601,
    "lng": 120.293638,
    "address": "807高雄市三民區中華三路270號"
  },
  {
    "dataType": "wifi",
    "category": "洽公場所",
    "name": "第一商業銀行(三民分行)",
    "lat": 22.636487,
    "lng": 120.293105,
    "address": "807高雄市三民區中華三路291號"
  },
  {
    "dataType": "wifi",
    "category": "洽公場所",
    "name": "高雄市鼓山區公所",
    "lat": 22.636788,
    "lng": 120.281054,
    "address": "804高雄市鼓山區鼓山二路166號2樓"
  },
  {
    "dataType": "wifi",
    "category": "洽公場所",
    "name": "財政部高雄國稅局鼓山稽徵所",
    "lat": 22.636808,
    "lng": 120.281061,
    "address": "804高雄市鼓山區鼓山二路166號6樓"
  },
  {
    "dataType": "wifi",
    "category": "洽公場所",
    "name": "高雄市鼓山區戶政事務所",
    "lat": 22.637263,
    "lng": 120.281024,
    "address": "804高雄市鼓山區鼓山二路166號1樓"
  },
  {
    "dataType": "wifi",
    "category": "洽公場所",
    "name": "高雄鼓岩郵局",
    "lat": 22.63728,
    "lng": 120.280835,
    "address": "804高雄市鼓山區鼓山二路166-12、13號"
  },
  {
    "dataType": "wifi",
    "category": "其他",
    "name": "中華民國健康生活管理促進產業協會(鳳北站)",
    "lat": 22.638103,
    "lng": 120.2945,
    "address": "807高雄市三民區鳳北里三鳳中街68巷10號"
  },
  {
    "dataType": "wifi",
    "category": "洽公場所",
    "name": "高雄中都郵局",
    "lat": 22.638473,
    "lng": 120.288445,
    "address": "807高雄市三民區力行路89、91號"
  },
  {
    "dataType": "wifi",
    "category": "大眾運輸節點",
    "name": "臺鐵局三塊厝站穿堂層（地下1樓）",
    "lat": 22.639363,
    "lng": 120.29406,
    "address": "807高雄市三民區德北里6鄰康平街1號"
  },
  {
    "dataType": "wifi",
    "category": "大眾運輸節點",
    "name": "臺鐵局三塊厝站第1月台5車位置",
    "lat": 22.639363,
    "lng": 120.29406,
    "address": "807高雄市三民區德北里6鄰康平街1號"
  },
  {
    "dataType": "wifi",
    "category": "大眾運輸節點",
    "name": "臺鐵局三塊厝站第2月台8車位置",
    "lat": 22.639363,
    "lng": 120.29406,
    "address": "807高雄市三民區德北里6鄰康平街1號"
  },
  {
    "dataType": "wifi",
    "category": "大眾運輸節點",
    "name": "臺鐵局鼓山站第2月台8車位置",
    "lat": 22.639914,
    "lng": 120.281336,
    "address": "804高雄市鼓山區鐵路街20巷6號"
  },
  {
    "dataType": "wifi",
    "category": "洽公場所",
    "name": "高雄市府郵局",
    "lat": 22.620307,
    "lng": 120.312091,
    "address": "802高雄市苓雅區四維三路2號"
  },
  {
    "dataType": "wifi",
    "category": "洽公場所",
    "name": "臺灣銀行苓雅分行",
    "lat": 22.620547,
    "lng": 120.30437,
    "address": "802高雄市苓雅區青年一路261號"
  },
  {
    "dataType": "wifi",
    "category": "洽公場所",
    "name": "高雄市政府",
    "lat": 22.620958,
    "lng": 120.311792,
    "address": "802高雄市苓雅區四維三路2號"
  },
  {
    "dataType": "wifi",
    "category": "洽公場所",
    "name": "財政部高雄國稅局苓雅稽徵所",
    "lat": 22.621771,
    "lng": 120.312154,
    "address": "802高雄市苓雅區民權一路85號8樓"
  },
  {
    "dataType": "wifi",
    "category": "洽公場所",
    "name": "高雄市苓雅區戶政事務所所本部",
    "lat": 22.621778,
    "lng": 120.312229,
    "address": "802高雄市苓雅區民權一路85號2樓"
  },
  {
    "dataType": "wifi",
    "category": "洽公場所",
    "name": "高雄市苓雅區公所",
    "lat": 22.62185,
    "lng": 120.312197,
    "address": "802高雄市苓雅區民權一路85號"
  },
  {
    "dataType": "wifi",
    "category": "洽公場所",
    "name": "高雄新田郵局",
    "lat": 22.622207,
    "lng": 120.303833,
    "address": "800高雄市新興區新田路133號"
  },
  {
    "dataType": "wifi",
    "category": "洽公場所",
    "name": "華南商業銀行光華分行",
    "lat": 22.622248,
    "lng": 120.316448,
    "address": "802高雄市苓雅區光華一路148-19號"
  },
  {
    "dataType": "wifi",
    "category": "其他",
    "name": "高雄市新興區新正氣社區發展協會",
    "lat": 22.622796,
    "lng": 120.307179,
    "address": "800高雄市新興區正氣里忠孝一路32號"
  },
  {
    "dataType": "wifi",
    "category": "洽公場所",
    "name": "高雄文化中心郵局",
    "lat": 22.622842,
    "lng": 120.316225,
    "address": "802高雄市苓雅區光華一路148-30號"
  },
  {
    "dataType": "wifi",
    "category": "洽公場所",
    "name": "中油公司高雄市新興區林森二路站",
    "lat": 22.623071,
    "lng": 120.305714,
    "address": "800高雄市新興區新田路82號"
  },
  {
    "dataType": "wifi",
    "category": "旅遊景點",
    "name": "城市光廊(公車站西)",
    "lat": 22.623365,
    "lng": 120.30093,
    "address": "801高雄市前金區中山二路與五福三路公車站"
  },
  {
    "dataType": "wifi",
    "category": "洽公場所",
    "name": "財政部高雄國稅局",
    "lat": 22.623734,
    "lng": 120.317451,
    "address": "802高雄市苓雅區廣州一街148號"
  },
  {
    "dataType": "wifi",
    "category": "洽公場所",
    "name": "內政部營建署南區工程處1樓大廳",
    "lat": 22.624753,
    "lng": 120.305095,
    "address": "800高雄市新興區五福二路200號"
  },
  {
    "dataType": "wifi",
    "category": "其他",
    "name": "內政部營建署南區工程處3F(會議室)",
    "lat": 22.624753,
    "lng": 120.305095,
    "address": "800高雄市新興區五福二路200號"
  },
  {
    "dataType": "wifi",
    "category": "其他",
    "name": "內政部營建署南區工程處7F(會議室)",
    "lat": 22.624753,
    "lng": 120.305095,
    "address": "800高雄市新興區五福二路200號"
  },
  {
    "dataType": "wifi",
    "category": "洽公場所",
    "name": "內政部營建署城鄉發展分署南區規劃隊",
    "lat": 22.624762,
    "lng": 120.305083,
    "address": "800高雄市新興區五福二路200號5樓"
  },
  {
    "dataType": "wifi",
    "category": "洽公場所",
    "name": "高雄青年郵局",
    "lat": 22.624956,
    "lng": 120.308353,
    "address": "800高雄市新興區復興二路171號"
  },
  {
    "dataType": "wifi",
    "category": "洽公場所",
    "name": "兆豐國際商銀五福分行",
    "lat": 22.625695,
    "lng": 120.308332,
    "address": "800高雄市新興區五福二路82號"
  },
  {
    "dataType": "wifi",
    "category": "文教館所",
    "name": "高雄市政府文化局",
    "lat": 22.625771,
    "lng": 120.318322,
    "address": "802高雄市苓雅區五福一路67號"
  },
  {
    "dataType": "wifi",
    "category": "其他",
    "name": "財團法人台灣基督徒環球佈道團",
    "lat": 22.625798,
    "lng": 120.30798,
    "address": "800高雄市新興區永寧里復興二路189號"
  },
  {
    "dataType": "wifi",
    "category": "文教館所",
    "name": "高雄市文化中心(五福一路門口公話)",
    "lat": 22.625808,
    "lng": 120.318142,
    "address": "802高雄市苓雅區五福一路67號"
  },
  {
    "dataType": "wifi",
    "category": "文教館所",
    "name": "高雄市文化中心(至德堂公話)",
    "lat": 22.625808,
    "lng": 120.318142,
    "address": "802高雄市苓雅區五福一路67號"
  },
  {
    "dataType": "wifi",
    "category": "文教館所",
    "name": "高雄市文化中心(前廳公話)",
    "lat": 22.625808,
    "lng": 120.318142,
    "address": "802高雄市苓雅區五福一路67號"
  },
  {
    "dataType": "wifi",
    "category": "文教館所",
    "name": "高雄市文化中心(至真三館)",
    "lat": 22.625808,
    "lng": 120.318142,
    "address": "802高雄市苓雅區五福一路67號"
  },
  {
    "dataType": "wifi",
    "category": "文教館所",
    "name": "高雄市文化中心(警衛室公話)",
    "lat": 22.625808,
    "lng": 120.318142,
    "address": "802高雄市苓雅區五福一路67號"
  },
  {
    "dataType": "wifi",
    "category": "文教館所",
    "name": "高雄市文化中心(圖書館公話)",
    "lat": 22.625808,
    "lng": 120.318142,
    "address": "802高雄市苓雅區五福一路67號"
  },