[
  {
    "name": "交通部觀光局茂林國家風景區瑪家旅遊服務中心",
    "lat": 22.690045,
    "lng": 120.636254,
    "address": "903屏東縣瑪家鄉涼山村1鄰涼山14-20號"
  },
  {
    "name": "屏東縣瑪家鄉涼山部落",
    "lat": 22.69015,
    "lng": 120.63674,
    "address": "903屏東縣瑪家鄉涼山村22之2"
  },
  {
    "name": "瑪家郵局",
    "lat": 22.6902534,
    "lng": 120.6367038,
    "address": "903屏東縣瑪家鄉涼山巷22之1號"
  },
  {
    "name": "屏東縣三地門鄉大社部落",
    "lat": 22.69418,
    "lng": 120.63909,
    "address": "901屏東縣三地門鄉和平路二段25巷13號"
  },
  {
    "name": "屏東縣內埔鄉隘寮社區發展協會",
    "lat": 22.69675,
    "lng": 120.62975,
    "address": "912屏東縣內埔鄉隘寮村清涼路一段451號"
  }
]
