[
  {
    "dataType": "wifi",
    "category": "其他",
    "name": "屏東縣竹田鄉築愛發展協會",
    "lat": 22.586112,
    "lng": 120.544946,
    "address": "911屏東縣竹田鄉竹田村中正路112號"
  },
  {
    "dataType": "wifi",
    "category": "洽公場所",
    "name": "竹田郵局",
    "lat": 22.586762,
    "lng": 120.54306,
    "address": "911屏東縣竹田鄉竹田村中山路28號"
  },
  {
    "dataType": "wifi",
    "category": "其他",
    "name": "竹田頓物驛",
    "lat": 22.587231,
    "lng": 120.540115,
    "address": "911屏東縣竹田鄉豐明路31號"
  },
  {
    "dataType": "wifi",
    "category": "其他",
    "name": "屏東縣屏東平原鄉土文化協會",
    "lat": 22.595532,
    "lng": 120.557146,
    "address": "912屏東縣內埔鄉美和村海平路2之1號"
  },
  {
    "dataType": "wifi",
    "category": "其他",
    "name": "屏東縣竹田鄉二崙社區發展協會",
    "lat": 22.595588,
    "lng": 120.551954,
    "address": "911屏東縣竹田鄉二崙村信實路16號"
  }
]
