[
  {
    "name": "高雄市鳳山區第二戶政事務所",
    "lat": 22.598599,
    "lng": 120.334883,
    "address": "830高雄市鳳山區五甲二路472號4樓"
  },
  {
    "name": "高雄市前鎮區戶政事務所",
    "lat": 22.586551,
    "lng": 120.318425,
    "address": "806高雄市前鎮區康定路151號"
  },
  {
    "name": "高雄國際航空站",
    "lat": 22.580367,
    "lng": 120.330231,
    "address": "806高雄市前鎮區中山四路二號"
  },
  {
    "name": "高雄草衙郵局",
    "lat": 22.583617,
    "lng": 120.322546,
    "address": "806高雄市前鎮區草衙一路78、80號"
  },
  {
    "name": "高雄崗山仔郵局",
    "lat": 22.609118,
    "lng": 120.335102,
    "address": "806高雄市前鎮區瑞北路39號"
  },
  {
    "name": "高雄籬仔內郵局",
    "lat": 22.605428,
    "lng": 120.328818,
    "address": "806高雄市前鎮區瑞隆路482號"
  },
  {
    "name": "鳳山一甲郵局",
    "lat": 22.602061,
    "lng": 120.341808,
    "address": "830高雄市鳳山區五甲二路87、89、91號"
  },
  {
    "name": "鳳山五甲郵局",
    "lat": 22.592409,
    "lng": 120.32731,
    "address": "830高雄市鳳山區五甲三路45號"
  },
  {
    "name": "鳳山新甲郵局",
    "lat": 22.607586,
    "lng": 120.341857,
    "address": "830高雄市鳳山區大明路39、41號"
  }
]