[
  {
    "name": "高雄市大社區戶政事務所",
    "lat": 22.729759,
    "lng": 120.346777,
    "address": "815高雄市大社區三民路332號"
  },
  {
    "name": "高雄市仁武區戶政事務所",
    "lat": 22.701455,
    "lng": 120.348299,
    "address": "814高雄市仁武區中正路94號4樓"
  },
  {
    "name": "自來水公司楠梓服務所",
    "lat": 22.730508,
    "lng": 120.346871,
    "address": "815高雄市大社區自強街5號"
  },
  {
    "name": "大社郵局",
    "lat": 22.731177,
    "lng": 120.347095,
    "address": "815高雄市大社區自強街9號"
  },
  {
    "name": "仁武郵局",
    "lat": 22.701683,
    "lng": 120.348569,
    "address": "814高雄市仁武區仁武村中正路115號"
  }
]