[
  {
    "name": "高雄市苓雅區戶政事務所第二辦公處",
    "lat": 22.622637,
    "lng": 120.330417,
    "address": "802高雄市苓雅區三多一路166號"
  },
  {
    "name": "標準檢驗局高雄分局計量業務民眾洽公區",
    "lat": 22.637585,
    "lng": 120.321952,
    "address": "802高雄市苓雅區憲政路242巷3號"
  },
  {
    "name": "標準檢驗局高雄分局商檢業務民眾洽公區",
    "lat": 22.637585,
    "lng": 120.321952,
    "address": "802高雄市苓雅區海邊路50號"
  },
  {
    "name": "公路總局高雄區監理所",
    "lat": 22.615307,
    "lng": 120.33604,
    "address": "830高雄市鳳山區武營路361號1樓"
  },
  {
    "name": "公路總局高雄市區監理所苓雅監理站",
    "lat": 22.637422,
    "lng": 120.32057,
    "address": "802高雄市苓雅區安康路22號"
  },
  {
    "name": "高雄五塊厝郵局",
    "lat": 22.622264,
    "lng": 120.330421,
    "address": "802高雄市苓雅區三多一路237號"
  },
  {
    "name": "高雄文化中心郵局",
    "lat": 22.622842,
    "lng": 120.316225,
    "address": "802高雄市苓雅區光華一路148-30號"
  },
  {
    "name": "高雄正言郵局",
    "lat": 22.629859,
    "lng": 120.326762,
    "address": "802高雄市苓雅區中正一路322、324號"
  },
  {
    "name": "高雄民壯郵局",
    "lat": 22.638907,
    "lng": 120.340729,
    "address": "807高雄市三民區民壯路16、18、20、22號"
  },
  {
    "name": "高雄林華郵局",
    "lat": 22.619087,
    "lng": 120.320843,
    "address": "802高雄市苓雅區三多二路249號"
  },
  {
    "name": "高雄武廟郵局",
    "lat": 22.630599,
    "lng": 120.32986,
    "address": "802高雄市苓雅區武廟路83號"
  },
  {
    "name": "高雄英德街郵局",
    "lat": 22.613957,
    "lng": 120.321465,
    "address": "806高雄市前鎮區英德街149號"
  },
  {
    "name": "高雄師大郵局",
    "lat": 22.625638,
    "lng": 120.320034,
    "address": "802高雄市苓雅區和平一路116號"
  },
  {
    "name": "高雄順昌郵局",
    "lat": 22.633889,
    "lng": 120.314262,
    "address": "800高雄市新興區七賢一路104、106號"
  }
]