[
  {
    "name": "南投縣政府警察局南投分局南投派出所",
    "lat": 23.910262,
    "lng": 120.68327,
    "address": "540南投縣南投市彰南路2段109號"
  },
  {
    "name": "中油公司南投縣南投市南投三和站",
    "lat": 23.906699,
    "lng": 120.690651,
    "address": "540南投縣南投市三和里中興路549號"
  },
  {
    "name": "高速公路局南投服務區客席區與服務台",
    "lat": 23.9001581,
    "lng": 120.71088,
    "address": "540南投縣南投市南鄉路250巷142弄6號"
  },
  {
    "name": "南投三和郵局",
    "lat": 23.904367,
    "lng": 120.688465,
    "address": "540南投縣南投市三和二路30號"
  },
  {
    "name": "南投三興郵局",
    "lat": 23.9008441,
    "lng": 120.684257,
    "address": "540南投縣南投市三興里南崗一路34號"
  },
  {
    "name": "南投中山街郵局",
    "lat": 23.910518,
    "lng": 120.683924,
    "address": "540南投縣南投市三民里中山街259號"
  },
  {
    "name": "南投民族路郵局",
    "lat": 23.910151,
    "lng": 120.691715,
    "address": "540南投縣南投市民族路91、93號"
  }
]