[
  {
    "name": "南投縣政府警察局竹山分局",
    "lat": 23.75702,
    "lng": 120.682813,
    "address": "557南投縣竹山鎮集山路三段968號"
  },
  {
    "name": "南崗(兼竹山)工業區服務中心-竹山",
    "lat": 23.768222,
    "lng": 120.704792,
    "address": "557南投縣竹山鎮延平一路5號1樓"
  },
  {
    "name": "自來水公司竹山營運所",
    "lat": 23.760108,
    "lng": 120.682875,
    "address": "557南投縣竹山鎮大明路356號"
  },
  {
    "name": "竹山延和郵局",
    "lat": 23.760153,
    "lng": 120.690649,
    "address": "557南投縣竹山鎮集山路三段589、591號"
  },
  {
    "name": "竹山東埔蚋郵局",
    "lat": 23.765007,
    "lng": 120.704607,
    "address": "557南投縣竹山鎮集山路三段99號"
  },
  {
    "name": "竹山郵局",
    "lat": 23.756857,
    "lng": 120.682149,
    "address": "557南投縣竹山鎮前山路一段2號"
  }
]