[
  {
    "name": "水利署第十河川局1樓服務台",
    "lat": 24.9948631,
    "lng": 121.4525889,
    "address": "220新北市板橋區四川路2段橋頭1號"
  },
  {
    "name": "台電公司北南區處服務中心營業廳",
    "lat": 25.000746,
    "lng": 121.458923,
    "address": "220新北市板橋區四川路1段287號"
  },
  {
    "name": "自來水公司土城服務所",
    "lat": 24.986965,
    "lng": 121.452131,
    "address": "236新北市土城區學享街63號"
  },
  {
    "name": "高鐵局檔案閱覽室",
    "lat": 24.9998322,
    "lng": 121.4775923,
    "address": "235新北市中和區民安街170號1樓"
  },
  {
    "name": "土城平和郵局",
    "lat": 24.988997,
    "lng": 121.46965,
    "address": "236新北市土城區金城路3段185號"
  },
  {
    "name": "土城青雲郵局",
    "lat": 24.984495,
    "lng": 121.458658,
    "address": "236新北市土城區青雲路138號"
  },
  {
    "name": "土城清水郵局",
    "lat": 24.980958,
    "lng": 121.458943,
    "address": "236新北市土城區青雲路228、230號"
  },
  {
    "name": "土城學府郵局",
    "lat": 24.985202,
    "lng": 121.448793,
    "address": "236新北市土城區明德路2段58號"
  },
  {
    "name": "中和國光街郵局",
    "lat": 25.001185,
    "lng": 121.468588,
    "address": "235新北市中和區國光街159號一樓"
  },
  {
    "name": "板橋八甲郵局",
    "lat": 24.993992,
    "lng": 121.451255,
    "address": "220新北市板橋區四川路2段123號一樓"
  },
  {
    "name": "板橋後埔郵局",
    "lat": 25.002919,
    "lng": 121.464309,
    "address": "220新北市板橋區實踐路128號"
  },
  {
    "name": "板橋國慶郵局",
    "lat": 24.995872,
    "lng": 121.460986,
    "address": "220新北市板橋區國慶路132號"
  }
]