[
  {
    "name": "新北市五股戶政事務所_A",
    "lat": 25.0830706,
    "lng": 121.4376993,
    "address": "248新北市五股區中興路4段70號1樓"
  },
  {
    "name": "國道公路警察局",
    "lat": 25.067602,
    "lng": 121.422336,
    "address": "243新北市泰山區黎明里半山雅70之2號"
  },
  {
    "name": "五股中興路郵局",
    "lat": 25.083433,
    "lng": 121.438384,
    "address": "248新北市五股區中興路四段48巷15號"
  },
  {
    "name": "五股登林路郵局",
    "lat": 25.069468,
    "lng": 121.4299,
    "address": "248新北市五股區登林路76之10號"
  },
  {
    "name": "五股德音郵局",
    "lat": 25.068405,
    "lng": 121.435137,
    "address": "248新北市五股區成泰路一段77號"
  }
]