[
  {
    "name": "中油公司台北市北投區中央北路站",
    "lat": 25.127079,
    "lng": 121.4663,
    "address": "112臺北市北投區中央北路四段584號"
  },
  {
    "name": "八里龍形郵局",
    "lat": 25.131166,
    "lng": 121.450549,
    "address": "249新北市八里區龍形二街7號"
  },
  {
    "name": "北投一德郵局",
    "lat": 25.127843,
    "lng": 121.467951,
    "address": "112臺北市北投區中央北路四段529號"
  },
  {
    "name": "淡水竹圍郵局",
    "lat": 25.138803,
    "lng": 121.4599,
    "address": "251新北市淡水區民權路75號"
  },
  {
    "name": "淡水紅樹林郵局",
    "lat": 25.154912,
    "lng": 121.459673,
    "address": "251新北市淡水區中正東路二段61號"
  }
]