[
  {
    "name": "台電公司內湖服務所大廳",
    "lat": 25.080323,
    "lng": 121.563191,
    "address": "114臺北市內湖區堤頂大道2段405號"
  },
  {
    "name": "內湖北勢湖郵局",
    "lat": 25.084606,
    "lng": 121.561343,
    "address": "114臺北市內湖區內湖路一段91巷2之1號"
  },
  {
    "name": "內湖西湖郵局",
    "lat": 25.082207,
    "lng": 121.568275,
    "address": "114臺北市內湖區內湖路一段331號"
  },
  {
    "name": "台北大直郵局",
    "lat": 25.079086,
    "lng": 121.545623,
    "address": "104臺北市中山區北安路518巷14弄18、20號"
  },
  {
    "name": "台北北安郵局",
    "lat": 25.082658,
    "lng": 121.549846,
    "address": "104臺北市中山區北安路630巷10號"
  },
  {
    "name": "台北樂群二路郵局",
    "lat": 25.0799399,
    "lng": 121.558227,
    "address": "104臺北市中山區樂群二路147號"
  },
  {
    "name": "東吳大學郵局",
    "lat": 25.094305,
    "lng": 121.546597,
    "address": "111臺北市士林區臨溪路70號"
  }
]