[
  {
    "name": "宜蘭市戶政事務所",
    "lat": 24.749326,
    "lng": 121.752977,
    "address": "260宜蘭縣宜蘭市中華路146號2樓"
  },
  {
    "name": "員山鄉戶政事務所",
    "lat": 24.745077,
    "lng": 121.726831,
    "address": "264宜蘭縣員山鄉員山路一段207號2樓"
  },
  {
    "name": "水利署第一河川局1樓服務台",
    "lat": 24.75097,
    "lng": 121.752109,
    "address": "260宜蘭縣宜蘭市民權新路4號"
  },
  {
    "name": "自來水公司宜蘭北區服務所",
    "lat": 24.749124,
    "lng": 121.752818,
    "address": "260宜蘭縣宜蘭市復興路一段5號"
  },
  {
    "name": "宜蘭大學郵局",
    "lat": 24.746344,
    "lng": 121.748836,
    "address": "260宜蘭縣宜蘭市神農路一段1號經德樓1樓"
  },
  {
    "name": "宜蘭西後街郵局",
    "lat": 24.755589,
    "lng": 121.751317,
    "address": "260宜蘭縣宜蘭市西後街2-1號"
  },
  {
    "name": "宜蘭金六結郵局",
    "lat": 24.751561,
    "lng": 121.739132,
    "address": "260宜蘭縣宜蘭市復興路三段100號"
  },
  {
    "name": "宜蘭渭水路郵局",
    "lat": 24.753396,
    "lng": 121.752429,
    "address": "260宜蘭縣宜蘭市中山路2段275號"
  }
]