[
  {
    "name": "新北市板橋戶政事務所溪崑工作站",
    "lat": 24.9887269,
    "lng": 121.430444,
    "address": "220新北市板橋區溪北路111號4樓"
  },
  {
    "name": "新北市樹林戶政事務所1F_A",
    "lat": 24.9966434,
    "lng": 121.4189495,
    "address": "238新北市樹林區保安街1段285號1樓"
  },
  {
    "name": "自來水公司樹林服務所",
    "lat": 25.001724,
    "lng": 121.418107,
    "address": "238新北市樹林區武林街6-1號"
  },
  {
    "name": "樹林工業區服務中心",
    "lat": 25.001724,
    "lng": 121.418107,
    "address": "238新北市樹林區武林街6號1樓"
  },
  {
    "name": "臺鐵局樹林站爭鮮柱旁",
    "lat": 24.991504,
    "lng": 121.42446,
    "address": "238新北市樹林區鎮前街112號"
  },
  {
    "name": "臺鐵局樹林站地2月台海側6車位置",
    "lat": 24.991504,
    "lng": 121.42446,
    "address": "238新北市樹林區鎮前街112號"
  },
  {
    "name": "土城貨饒郵局",
    "lat": 24.984987,
    "lng": 121.444577,
    "address": "236新北市土城區中央路一段240號"
  },
  {
    "name": "土城郵局",
    "lat": 24.976651,
    "lng": 121.441752,
    "address": "236新北市土城區員福里中央路二段160號"
  },
  {
    "name": "板橋浮洲郵局",
    "lat": 24.99846,
    "lng": 121.441881,
    "address": "220新北市板橋區大觀路二段313號"
  },
  {
    "name": "板橋溪崑郵局",
    "lat": 24.986173,
    "lng": 121.429584,
    "address": "220新北市板橋區金門街278號"
  },
  {
    "name": "樹林育英街郵局",
    "lat": 24.989281,
    "lng": 121.421578,
    "address": "238新北市樹林區育英街36號"
  },
  {
    "name": "樹林樹新路郵局",
    "lat": 25.000696,
    "lng": 121.431064,
    "address": "238新北市樹林區樹新路229號"
  },
  {
    "name": "樹林鎮前街郵局",
    "lat": 24.99238,
    "lng": 121.425854,
    "address": "238新北市樹林區鎮前街25號"
  }
]