[
  {
    "name": "內政部警政署警察廣播電臺臺東分臺",
    "lat": 22.756059,
    "lng": 121.151174,
    "address": "950臺東縣臺東市中山路289號"
  },
  {
    "name": "台電公司台東區處服務中心營業廳",
    "lat": 22.750063,
    "lng": 121.154718,
    "address": "950臺東縣臺東市正氣路38號"
  },
  {
    "name": "自來水公司台東營運所",
    "lat": 22.749553,
    "lng": 121.15582,
    "address": "950臺東縣臺東市臨海路1段48號"
  },
  {
    "name": "水利署第八河川局1樓服務台",
    "lat": 22.753249,
    "lng": 121.158385,
    "address": "950臺東縣臺東市寶桑路24號"
  },
  {
    "name": "標準檢驗局花蓮分局台東辦事處",
    "lat": 22.761738,
    "lng": 121.155832,
    "address": "950臺東縣臺東市強國街258號"
  },
  {
    "name": "台東大同路郵局",
    "lat": 22.752596,
    "lng": 121.154054,
    "address": "950臺東縣臺東市大同路126號"
  },
  {
    "name": "台東中山路郵局",
    "lat": 22.753107,
    "lng": 121.148434,
    "address": "950臺東縣臺東市中山路382號"
  },
  {
    "name": "台東馬蘭郵局",
    "lat": 22.761482,
    "lng": 121.144271,
    "address": "950臺東縣臺東市鄭州街3號一樓"
  },
  {
    "name": "台東博愛路郵局",
    "lat": 22.759888,
    "lng": 121.151291,
    "address": "950臺東縣臺東市博愛路135號"
  }
]