[
  {
    "name": "新竹市香山戶政事務所",
    "lat": 24.79778,
    "lng": 120.94265,
    "address": "300新竹市香山區牛埔路430號1F"
  },
  {
    "name": "交通部公路總局第一區養護工程處新竹工務段",
    "lat": 24.795501,
    "lng": 120.955439,
    "address": "300新竹市香山區崧嶺路40號"
  },
  {
    "name": "新竹文雅郵局",
    "lat": 24.811517,
    "lng": 120.956692,
    "address": "300新竹市北區竹光路218號"
  },
  {
    "name": "新竹牛埔郵局",
    "lat": 24.794573,
    "lng": 120.941915,
    "address": "300新竹市香山區牛埔南路42號"
  },
  {
    "name": "新竹南勢郵局",
    "lat": 24.804859,
    "lng": 120.949455,
    "address": "300新竹市北區南勢里延平路一段373號"
  }
]