[
  {
    "name": "新莊龍鳳郵局",
    "lat": 25.023041,
    "lng": 121.4134,
    "address": "242新北市新莊區中正路740-2號"
  },
  {
    "name": "樹林三多郵局",
    "lat": 25.016323,
    "lng": 121.404752,
    "address": "238新北市樹林區三福街70巷1號"
  },
  {
    "name": "樹林迴龍郵局",
    "lat": 25.017946,
    "lng": 121.409136,
    "address": "238新北市樹林區三多里中正路708號"
  },
  {
    "name": "龜山長庚大學郵局",
    "lat": 25.0334036,
    "lng": 121.3875201,
    "address": "333桃園市龜山區文化一路259號"
  },
  {
    "name": "龜山迴龍郵局",
    "lat": 25.01679,
    "lng": 121.400589,
    "address": "333桃園市龜山區萬壽路一段374、376號"
  }
]