[
  {
    "name": "平鎮區戶政事務所民眾洽公區",
    "lat": 24.946083,
    "lng": 121.218553,
    "address": "324桃園市平鎮區德育路242號"
  },
  {
    "name": "桃園市中壢區戶政事務所",
    "lat": 24.963086,
    "lng": 121.22999,
    "address": "320桃園市中壢區溪洲街298號"
  },
  {
    "name": "桃園市政府警察局中壢分局",
    "lat": 24.954006,
    "lng": 121.222297,
    "address": "320桃園市中壢區延平路607號1樓"
  },
  {
    "name": "自來水公司中壢服務所",
    "lat": 24.952805,
    "lng": 121.220809,
    "address": "324桃園市平鎮區延平路一段26號"
  },
  {
    "name": "標準檢驗局新竹分局桃園辦事處商檢/計量業務民眾洽公區",
    "lat": 24.951039,
    "lng": 121.222156,
    "address": "320桃園市中壢區龍岡路一段46號"
  },
  {
    "name": "台電公司中壢服務所大廳",
    "lat": 24.957085,
    "lng": 121.223745,
    "address": "320桃園市中壢區延平路499號"
  },
  {
    "name": "公路總局新竹區監理所中壢監理站",
    "lat": 24.959568,
    "lng": 121.224307,
    "address": "320桃園市中壢區延平路394號"
  },
  {
    "name": "中壢志廣郵局",
    "lat": 24.961436,
    "lng": 121.211539,
    "address": "320桃園市中壢區中央西路二段271、273號"
  },
  {
    "name": "中壢東興郵局",
    "lat": 24.947719,
    "lng": 121.226089,
    "address": "320桃園市中壢區龍岡路一段229號"
  },
  {
    "name": "中壢建國路郵局",
    "lat": 24.955491,
    "lng": 121.225018,
    "address": "320桃園市中壢區建國路36號"
  },
  {
    "name": "中壢興國郵局",
    "lat": 24.962637,
    "lng": 121.219302,
    "address": "320桃園市中壢區興國里元化路二段126號"
  },
  {
    "name": "中壢環北郵局",
    "lat": 24.966203,
    "lng": 121.226262,
    "address": "320桃園市中壢區環北路413號"
  },
  {
    "name": "平鎮郵局",
    "lat": 24.945478,
    "lng": 121.209548,
    "address": "324桃園市平鎮區延平路二段221號"
  },
  {
    "name": "平鎮廣明郵局",
    "lat": 24.953852,
    "lng": 121.213457,
    "address": "324桃園市平鎮區廣明路71、73號1樓"
  }
]