[
  {
    "name": "安平派出所",
    "lat": 24.9998,
    "lng": 121.5112,
    "address": "235新北市中和區中安街175號"
  },
  {
    "name": "台電公司新店服務所大廳",
    "lat": 24.975176,
    "lng": 121.524665,
    "address": "231新北市新店區北新路二段129號"
  },
  {
    "name": "水利署新店辦公區",
    "lat": 24.98361,
    "lng": 121.51805,
    "address": "231新北市新店區安和路三段76號"
  },
  {
    "name": "交通部公路總局第一區養護工程處中和工務段",
    "lat": 24.983238,
    "lng": 121.517842,
    "address": "231新北市新店區安和路三段75號"
  },
  {
    "name": "中和秀山郵局",
    "lat": 24.993137,
    "lng": 121.522625,
    "address": "235新北市中和區自立路147號"
  },
  {
    "name": "中和宜安郵局",
    "lat": 24.997663,
    "lng": 121.51042,
    "address": "235新北市中和區宜安路99號"
  },
  {
    "name": "中和南勢角郵局",
    "lat": 24.988091,
    "lng": 121.513155,
    "address": "235新北市中和區景新街442號"
  },
  {
    "name": "永和中正路郵局",
    "lat": 24.9972737,
    "lng": 121.5152673,
    "address": "234新北市永和區中正路91號"
  },
  {
    "name": "永和秀朗郵局",
    "lat": 25.0027279,
    "lng": 121.526062,
    "address": "234新北市永和區永亨路178號"
  },
  {
    "name": "新店中央郵局",
    "lat": 24.972724,
    "lng": 121.529327,
    "address": "231新北市新店區中央路232號"
  },
  {
    "name": "新店中正郵局",
    "lat": 24.973358,
    "lng": 121.538877,
    "address": "231新北市新店區中正路253號"
  },
  {
    "name": "新店水尾郵局",
    "lat": 24.982898,
    "lng": 121.533499,
    "address": "231新北市新店區中正路493之5號"
  },
  {
    "name": "新店永安郵局",
    "lat": 24.982617,
    "lng": 121.517818,
    "address": "231新北市新店區安和路三段57號"
  },
  {
    "name": "新店復興郵局",
    "lat": 24.986894,
    "lng": 121.539178,
    "address": "231新北市新店區忠孝里1鄰復興路30號"
  }
]