[
  {
    "name": "民雄(兼頭橋)工業區服務中心",
    "lat": 23.5202506,
    "lng": 120.4581118,
    "address": "621嘉義縣民雄鄉福樂村中正路68號1樓"
  },
  {
    "name": "公路總局嘉義區監理所嘉義市監理站",
    "lat": 23.50077,
    "lng": 120.452311,
    "address": "600嘉義市東區保建街89號"
  },
  {
    "name": "交通部公路總局嘉義區監理所嘉義市監理站-考驗大樓",
    "lat": 23.500399,
    "lng": 120.45354,
    "address": "600嘉義市東區保健街89號"
  },
  {
    "name": "民雄頭橋郵局",
    "lat": 23.519888,
    "lng": 120.436068,
    "address": "621嘉義縣民雄鄉頭橋工業區工業一路2號"
  },
  {
    "name": "民雄雙福郵局",
    "lat": 23.523487,
    "lng": 120.447439,
    "address": "621嘉義縣民雄鄉福樂村中山路7號"
  },
  {
    "name": "嘉義後湖郵局",
    "lat": 23.501086,
    "lng": 120.455124,
    "address": "600嘉義市東區保健街30-5號"
  }
]