[
  {
    "name": "台電公司北北區處服務中心營業廳",
    "lat": 25.090558,
    "lng": 121.52771,
    "address": "111臺北市士林區中山北路5段380號"
  },
  {
    "name": "標準檢驗局計量業務民眾洽公區",
    "lat": 25.093866,
    "lng": 121.514298,
    "address": "111臺北市士林區承德路五段78號"
  },
  {
    "name": "士林監理站",
    "lat": 25.09345,
    "lng": 121.514604,
    "address": "111臺北市士林區承德路五段80號3樓"
  },
  {
    "name": "士林中正路郵局",
    "lat": 25.093335,
    "lng": 121.519746,
    "address": "111臺北市士林區中正路420號"
  },
  {
    "name": "士林社子郵局",
    "lat": 25.082432,
    "lng": 121.510451,
    "address": "111臺北市士林區延平北路五段150號"
  },
  {
    "name": "士林後港郵局",
    "lat": 25.08752,
    "lng": 121.517855,
    "address": "111臺北市士林區福港街149巷2號"
  },
  {
    "name": "士林郵局",
    "lat": 25.0892725,
    "lng": 121.5268896,
    "address": "111臺北市士林區文林路162號"
  },
  {
    "name": "士林劍潭郵局",
    "lat": 25.081736,
    "lng": 121.523909,
    "address": "111臺北市士林區基河路14號"
  },
  {
    "name": "台北大同郵局",
    "lat": 25.065848,
    "lng": 121.518601,
    "address": "103臺北市大同區承德路三段83號"
  },
  {
    "name": "台北大龍峒郵局",
    "lat": 25.07604,
    "lng": 121.513639,
    "address": "103臺北市大同區重慶北路三段338號"
  },
  {
    "name": "台北圓山郵局",
    "lat": 25.064958,
    "lng": 121.525839,
    "address": "104臺北市中山區林森北路573號"
  }
]