[
  {
    "name": "桃園市蘆竹區戶政事務所",
    "lat": 25.063967,
    "lng": 121.281059,
    "address": "338桃園市蘆竹區長安路二段236號四樓"
  },
  {
    "name": "桃園市政府警察局蘆竹分局",
    "lat": 25.04736,
    "lng": 121.293341,
    "address": "338桃園市蘆竹區南崁路175巷10-2號"
  },
  {
    "name": "蘆竹光明郵局",
    "lat": 25.038619,
    "lng": 121.293507,
    "address": "338桃園市蘆竹區南福街187、189號"
  },
  {
    "name": "蘆竹郵局",
    "lat": 25.054726,
    "lng": 121.290858,
    "address": "338桃園市蘆竹區南山路1段105號"
  },
  {
    "name": "蘆竹錦興郵局",
    "lat": 25.053206,
    "lng": 121.286315,
    "address": "338桃園市蘆竹區南崁路一段190號"
  }
]