[
  {
    "name": "台電公司豐原分處服務中心營業廳",
    "lat": 24.249942,
    "lng": 120.707893,
    "address": "420臺中市豐原區中正路599號"
  },
  {
    "name": "神岡岸裡郵局",
    "lat": 24.248616,
    "lng": 120.697934,
    "address": "429臺中市神岡區岸裡村中山路49號"
  },
  {
    "name": "神岡社口郵局",
    "lat": 24.247116,
    "lng": 120.681902,
    "address": "429臺中市神岡區社口村中山路611號"
  },
  {
    "name": "神岡豐洲郵局",
    "lat": 24.260835,
    "lng": 120.706285,
    "address": "429臺中市神岡區豐洲路359號"
  },
  {
    "name": "豐原中山路郵局",
    "lat": 24.239804,
    "lng": 120.710915,
    "address": "420臺中市豐原區田心里大明路12號"
  }
]