[
  {
    "name": "臺中市北區戶政事務所",
    "lat": 24.165873,
    "lng": 120.682272,
    "address": "404臺中市北區永興街299號"
  },
  {
    "name": "自來水公司台中服務所",
    "lat": 24.15016,
    "lng": 120.688441,
    "address": "404臺中市北區雙十路2段2號"
  },
  {
    "name": "自來水公司總管理處",
    "lat": 24.150843,
    "lng": 120.688156,
    "address": "404臺中市北區雙十路二段2-1號"
  },
  {
    "name": "公路總局臺中區監理所臺中市監理站",
    "lat": 24.161669,
    "lng": 120.692211,
    "address": "404臺中市北區北屯路77號"
  },
  {
    "name": "臺鐵局太原站候車室",
    "lat": 24.16792,
    "lng": 120.700769,
    "address": "406臺中市北屯區東光路838號"
  },
  {
    "name": "台中力行路郵局",
    "lat": 24.151107,
    "lng": 120.695716,
    "address": "401臺中市東區力行路52巷5號"
  },
  {
    "name": "台中大坑口郵局",
    "lat": 24.170076,
    "lng": 120.699645,
    "address": "406臺中市北屯區東山路一段38-1號"
  },
  {
    "name": "台中文心路郵局",
    "lat": 24.171638,
    "lng": 120.688419,
    "address": "406臺中市北屯區文心路四段752號"
  },
  {
    "name": "台中北屯郵局",
    "lat": 24.1628835,
    "lng": 120.6909484,
    "address": "406臺中市北屯區進化北路37-1號"
  },
  {
    "name": "台中育才郵局",
    "lat": 24.151011,
    "lng": 120.684916,
    "address": "404臺中市北區三民路三段140號"
  },
  {
    "name": "台中健行路郵局",
    "lat": 24.159322,
    "lng": 120.686133,
    "address": "404臺中市北區健行路190號"
  },
  {
    "name": "台中進化路郵局",
    "lat": 24.147056,
    "lng": 120.694553,
    "address": "401臺中市東區進化路184、186號"
  },
  {
    "name": "台中雙十路郵局",
    "lat": 24.157109,
    "lng": 120.690357,
    "address": "404臺中市北區雙十路二段119號"
  }
]