[
  {
    "name": "林口工業區服務中心",
    "lat": 25.0574039,
    "lng": 121.374066,
    "address": "333桃園市龜山區文化一路53號2樓"
  },
  {
    "name": "台電公司林口訓練中心行政教學大樓大廳川堂",
    "lat": 25.0608,
    "lng": 121.37915,
    "address": "333桃園市龜山區文明路27號"
  },
  {
    "name": "龜山大崗郵局",
    "lat": 25.057537,
    "lng": 121.360764,
    "address": "333桃園市龜山區大崗村大湖56-1號"
  },
  {
    "name": "龜山文化郵局",
    "lat": 25.057348,
    "lng": 121.369889,
    "address": "333桃園市龜山區文昌一街102號"
  },
  {
    "name": "龜山樂善郵局",
    "lat": 25.061049,
    "lng": 121.368027,
    "address": "333桃園市龜山區復興街5號"
  }
]