[
  {
    "name": "新竹工業區服務中心",
    "lat": 24.872303,
    "lng": 121.010176,
    "address": "303新竹縣湖口鄉鳳山村中華路22號1樓"
  },
  {
    "name": "自來水公司湖口營運所",
    "lat": 24.874913,
    "lng": 121.011969,
    "address": "303新竹縣湖口鄉仁興路3號"
  },
  {
    "name": "高速公路局北區工程處湖口服務區服務台(北上)",
    "lat": 24.858209,
    "lng": 121.013825,
    "address": "303新竹縣湖口鄉鳳山村榮光路158號"
  },
  {
    "name": "高速公路局北區工程處湖口服務區服務台(南下)",
    "lat": 24.858228,
    "lng": 121.008546,
    "address": "303新竹縣湖口鄉鳳山村國強街1巷8號"
  },
  {
    "name": "湖口新工郵局",
    "lat": 24.870831,
    "lng": 121.014611,
    "address": "303新竹縣湖口鄉大勇路6號"
  },
  {
    "name": "新豐山崎郵局",
    "lat": 24.869537,
    "lng": 120.994413,
    "address": "304新竹縣新豐鄉松林村10鄰泰安街26號"
  }
]