[
  {
    "name": "新北市淡水戶政事務所-1",
    "lat": 25.173015,
    "lng": 121.43564,
    "address": "251新北市淡水區中正路227號1樓"
  },
  {
    "name": "自來水公司淡水營運所",
    "lat": 25.170571,
    "lng": 121.446605,
    "address": "251新北市淡水區仁愛街17號"
  },
  {
    "name": "台電公司淡水服務所大廳",
    "lat": 25.173077,
    "lng": 121.436198,
    "address": "251新北市淡水區中正路231號"
  },
  {
    "name": "淡水中興郵局",
    "lat": 25.1688,
    "lng": 121.447677,
    "address": "251新北市淡水區學府路29、31、33號"
  },
  {
    "name": "淡水水碓郵局",
    "lat": 25.176148,
    "lng": 121.443325,
    "address": "251新北市淡水區大忠街9、11號"
  },
  {
    "name": "淡水郵局",
    "lat": 25.171912,
    "lng": 121.437573,
    "address": "251新北市淡水區中正路203號"
  },
  {
    "name": "淡江大學郵局",
    "lat": 25.173615,
    "lng": 121.448507,
    "address": "251新北市淡水區英專路151號"
  }
]