[
  {
    "name": "台電公司屏東區處服務中心營業廳",
    "lat": 22.694808,
    "lng": 120.492602,
    "address": "900屏東縣屏東市忠孝路329號"
  },
  {
    "name": "經濟部加工出口區管理處屏東分處1樓洽公區",
    "lat": 22.676111,
    "lng": 120.494167,
    "address": "900屏東縣屏東市屏加路1號"
  },
  {
    "name": "公路總局高雄區監理所屏東監理站",
    "lat": 22.692868,
    "lng": 120.489073,
    "address": "900屏東縣屏東市忠孝路222號1樓"
  },
  {
    "name": "屏東大埔郵局",
    "lat": 22.670981,
    "lng": 120.482672,
    "address": "900屏東縣屏東市民族路182-2號"
  },
  {
    "name": "屏東中正路郵局",
    "lat": 22.682085,
    "lng": 120.491782,
    "address": "900屏東縣屏東市中正路247號"
  },
  {
    "name": "屏東北平路郵局",
    "lat": 22.67581,
    "lng": 120.488853,
    "address": "900屏東縣屏東市北平路26號"
  },
  {
    "name": "屏東崇蘭郵局",
    "lat": 22.687726,
    "lng": 120.485391,
    "address": "900屏東縣屏東市廣東路990號"
  },
  {
    "name": "屏東勝利路郵局",
    "lat": 22.679277,
    "lng": 120.486011,
    "address": "900屏東縣屏東市勝利路123號"
  }
]