[
  {
    "dataType": "charging",
    "name": "台北螢橋郵局",
    "lat": 25.0246,
    "lng": 121.517365,
    "address": "100臺北市中正區廈門街76號"
  },
  {
    "dataType": "charging",
    "name": "台北青年郵局",
    "lat": 25.024862,
    "lng": 121.508163,
    "address": "108臺北市萬華區國興路34、36、38號"
  },
  {
    "dataType": "charging",
    "name": "經濟部商業司民眾服務大廳",
    "lat": 25.027897,
    "lng": 121.516849,
    "address": "100臺北市中正區福州街15號D棟1樓"
  },
  {
    "dataType": "charging",
    "name": "台北龍口郵局",
    "lat": 25.029124,
    "lng": 121.511537,
    "address": "100臺北市中正區和平西路二段68號"
  },
  {
    "dataType": "charging",
    "name": "台北莒光郵局",
    "lat": 25.031387,
    "lng": 121.501124,
    "address": "108臺北市萬華區莒光路210號"
  },
  {
    "dataType": "charging",
    "name": "中油公司台北直銷中心",
    "lat": 25.031393,
    "lng": 121.507302,
    "address": "100臺北市中正區莒光路2號2樓"
  },
  {
    "dataType": "charging",
    "name": "台北史博館郵局",
    "lat": 25.031454,
    "lng": 121.511227,
    "address": "100臺北市中正區南海路49號"
  },
  {
    "dataType": "charging",
    "name": "郵政博物館",
    "lat": 25.031731,
    "lng": 121.514696,
    "address": "100臺北市中正區重慶南路2段45號"
  },
  {
    "dataType": "charging",
    "name": "台北南海郵局",
    "lat": 25.03182,
    "lng": 121.514701,
    "address": "100臺北市中正區重慶南路二段43號"
  },
  {
    "dataType": "charging",
    "name": "經濟部國際貿易局2樓廠商服務區",
    "lat": 25.033153,
    "lng": 121.514748,
    "address": "100臺北市中正區湖口街1號"
  },
  {
    "dataType": "charging",
    "name": "投審會5樓辦公區",
    "lat": 25.033561,
    "lng": 121.517937,
    "address": "100臺北市中正區羅斯福路1段7號5樓"
  },
  {
    "dataType": "charging",
    "name": "投審會8樓辦公區",
    "lat": 25.033561,
    "lng": 121.517937,
    "address": "100臺北市中正區羅斯福路1段7號8樓"
  },
  {
    "dataType": "charging",
    "name": "台北南門郵局",
    "lat": 25.034924,
    "lng": 121.510324,
    "address": "100臺北市中正區廣州街2號"
  },
  {
    "dataType": "charging",
    "name": "內政部警政署警察廣播電臺服務中心",
    "lat": 25.035884,
    "lng": 121.507635,
    "address": "100台北市廣州街17號1樓"
  },
  {
    "dataType": "charging",
    "name": "內政部警政署警察廣播電臺",
    "lat": 25.036052,
    "lng": 121.507629,
    "address": "100台北市廣州街17號4樓"
  },
  {
    "dataType": "charging",
    "name": "台北龍山郵局",
    "lat": 25.036602,
    "lng": 121.504592,
    "address": "108臺北市萬華區廣州街67號"
  },
  {
    "dataType": "charging",
    "name": "台北老松郵局",
    "lat": 25.038131,
    "lng": 121.504126,
    "address": "108臺北市萬華區桂林路51號"
  },
  {
    "dataType": "charging",
    "name": "國史館郵局",
    "lat": 25.039177,
    "lng": 121.51098,
    "address": "100臺北市中正區博愛路168號之1"
  }
]
