[
  {
    "dataType": "charging",
    "dataSource": "gov-data",
    "name": "智慧局3樓民眾服務台",
    "lat": 25.02171,
    "lng": 121.541468,
    "address": "106臺北市大安區辛亥路2段185號3樓"
  },
  {
    "dataType": "charging",
    "dataSource": "gov-data",
    "name": "台北六張犁郵局",
    "lat": 25.02286,
    "lng": 121.553823,
    "address": "106臺北市大安區和平東路三段208號"
  },
  {
    "dataType": "charging",
    "dataSource": "gov-data",
    "name": "台北成功郵局",
    "lat": 25.026504,
    "lng": 121.545929,
    "address": "106臺北市大安區四維路198巷38弄12號"
  },
  {
    "dataType": "charging",
    "dataSource": "gov-data",
    "name": "台北安和郵局",
    "lat": 25.030832,
    "lng": 121.552611,
    "address": "106臺北市大安區安和路二段61、63號"
  },
  {
    "dataType": "charging",
    "dataSource": "gov-data",
    "name": "台北信維郵局",
    "lat": 25.033128,
    "lng": 121.546239,
    "address": "106臺北市大安區信義路四段74號"
  },
  {
    "dataType": "charging",
    "dataSource": "gov-data",
    "name": "台北三張犁郵局",
    "lat": 25.033232,
    "lng": 121.556387,
    "address": "106臺北市大安區信義路四段337號"
  }
]
