[
  {
    "id": "569dbfad-0fd6-51d3-a35a-17bd22a3c3a7",
    "dataType": "charging",
    "dataSource": "gov-data",
    "name": "台北螢橋郵局",
    "lat": 25.0246,
    "lng": 121.517365,
    "address": "100臺北市中正區廈門街76號"
  },
  {
    "id": "a03e07c3-f900-59bf-a893-8dc6f582863a",
    "dataType": "charging",
    "dataSource": "gov-data",
    "name": "台北青年郵局",
    "lat": 25.024862,
    "lng": 121.508163,
    "address": "108臺北市萬華區國興路34、36、38號"
  },
  {
    "id": "2d423b58-8ade-5587-959e-b3afbb4b8bb7",
    "dataType": "charging",
    "dataSource": "gov-data",
    "name": "經濟部商業司民眾服務大廳",
    "lat": 25.027897,
    "lng": 121.516849,
    "address": "100臺北市中正區福州街15號D棟1樓"
  },
  {
    "id": "bf509b0f-ddca-5565-9179-eafbb480bd16",
    "dataType": "charging",
    "dataSource": "gov-data",
    "name": "台北龍口郵局",
    "lat": 25.029124,
    "lng": 121.511537,
    "address": "100臺北市中正區和平西路二段68號"
  },
  {
    "id": "8cb15f9e-f09c-5936-809e-b68fb1b8a78d",
    "dataType": "charging",
    "dataSource": "gov-data",
    "name": "台北莒光郵局",
    "lat": 25.031387,
    "lng": 121.501124,
    "address": "108臺北市萬華區莒光路210號"
  },
  {
    "id": "6ff03f78-495a-5fe4-816a-aaeefa10be69",
    "dataType": "charging",
    "dataSource": "gov-data",
    "name": "中油公司台北直銷中心",
    "lat": 25.031393,
    "lng": 121.507302,
    "address": "100臺北市中正區莒光路2號2樓"
  },
  {
    "id": "a7a3da31-d328-56fb-b998-fcae5fb35c3d",
    "dataType": "charging",
    "dataSource": "gov-data",
    "name": "台北史博館郵局",
    "lat": 25.031454,
    "lng": 121.511227,
    "address": "100臺北市中正區南海路49號"
  },
  {
    "id": "314d1467-3b63-53d7-80aa-f2aef6f2b4b6",
    "dataType": "charging",
    "dataSource": "gov-data",
    "name": "郵政博物館",
    "lat": 25.031731,
    "lng": 121.514696,
    "address": "100臺北市中正區重慶南路2段45號"
  },
  {
    "id": "406f9d1a-d00d-5aa9-abf7-b4ab077b6cfc",
    "dataType": "charging",
    "dataSource": "gov-data",
    "name": "台北南海郵局",
    "lat": 25.03182,
    "lng": 121.514701,
    "address": "100臺北市中正區重慶南路二段43號"
  },
  {
    "id": "f0a43b7e-d334-5ead-b9ad-1be035515603",
    "dataType": "charging",
    "dataSource": "gov-data",
    "name": "經濟部國際貿易局2樓廠商服務區",
    "lat": 25.033153,
    "lng": 121.514748,
    "address": "100臺北市中正區湖口街1號"
  },
  {
    "id": "cdeba532-e06d-598c-9773-e28c7879bce3",
    "dataType": "charging",
    "dataSource": "gov-data",
    "name": "投審會5樓辦公區",
    "lat": 25.033561,
    "lng": 121.517937,
    "address": "100臺北市中正區羅斯福路1段7號5樓"
  },
  {
    "id": "043d18d0-f312-56e4-a3db-a933f905efc3",
    "dataType": "charging",
    "dataSource": "gov-data",
    "name": "投審會8樓辦公區",
    "lat": 25.033561,
    "lng": 121.517937,
    "address": "100臺北市中正區羅斯福路1段7號8樓"
  },
  {
    "id": "f82deb91-1130-5b41-8d23-6cd118b0c475",
    "dataType": "charging",
    "dataSource": "gov-data",
    "name": "台北南門郵局",
    "lat": 25.034924,
    "lng": 121.510324,
    "address": "100臺北市中正區廣州街2號"
  },
  {
    "id": "c023a888-2b7d-538a-88f4-4132a6111d97",
    "dataType": "charging",
    "dataSource": "gov-data",
    "name": "內政部警政署警察廣播電臺服務中心",
    "lat": 25.035884,
    "lng": 121.507635,
    "address": "100台北市廣州街17號1樓"
  },
  {
    "id": "9fc1c0a0-de3b-5a9d-89a0-6b933f2e9907",
    "dataType": "charging",
    "dataSource": "gov-data",
    "name": "內政部警政署警察廣播電臺",
    "lat": 25.036052,
    "lng": 121.507629,
    "address": "100台北市廣州街17號4樓"
  },
  {
    "id": "be327ee0-d61c-5651-9352-7fd95da476b3",
    "dataType": "charging",
    "dataSource": "gov-data",
    "name": "台北龍山郵局",
    "lat": 25.036602,
    "lng": 121.504592,
    "address": "108臺北市萬華區廣州街67號"
  },
  {
    "id": "6f4c59aa-0927-591e-946a-06aa8525433b",
    "dataType": "charging",
    "dataSource": "gov-data",
    "name": "台北老松郵局",
    "lat": 25.038131,
    "lng": 121.504126,
    "address": "108臺北市萬華區桂林路51號"
  },
  {
    "id": "5e8230a9-2f3d-510d-995a-5a512dc5bf69",
    "dataType": "charging",
    "dataSource": "gov-data",
    "name": "國史館郵局",
    "lat": 25.039177,
    "lng": 121.51098,
    "address": "100臺北市中正區博愛路168號之1"
  }
]
