[
  {
    "dataType": "charging",
    "dataSource": "gov-data",
    "name": "台北中聯郵局",
    "lat": 25.041044,
    "lng": 121.522158,
    "address": "100臺北市中正區徐州路5號地下一樓"
  },
  {
    "dataType": "charging",
    "dataSource": "gov-data",
    "name": "台北正義郵局",
    "lat": 25.041498,
    "lng": 121.538303,
    "address": "106臺北市大安區忠孝東路三段150、152、154號"
  },
  {
    "dataType": "charging",
    "dataSource": "gov-data",
    "name": "台北杭南郵局",
    "lat": 25.042327,
    "lng": 121.526473,
    "address": "100臺北市中正區杭州南路一段23號之3"
  },
  {
    "dataType": "charging",
    "dataSource": "gov-data",
    "name": "標準檢驗局報驗發證業務民眾洽公區",
    "lat": 25.042573,
    "lng": 121.520572,
    "address": "100臺北市中正區濟南路一段4號"
  },
  {
    "dataType": "charging",
    "dataSource": "gov-data",
    "name": "標準檢驗局資料中心閱覽室",
    "lat": 25.042573,
    "lng": 121.520572,
    "address": "100臺北市中正區濟南路一段4號"
  },
  {
    "dataType": "charging",
    "dataSource": "gov-data",
    "name": "台北光華郵局",
    "lat": 25.044838,
    "lng": 121.533164,
    "address": "106臺北市大安區新生北路一段7之2號"
  },
  {
    "dataType": "charging",
    "dataSource": "gov-data",
    "name": "內政部警政署",
    "lat": 25.045,
    "lng": 121.522,
    "address": "100臺北市中正區忠孝東路一段7號"
  },
  {
    "dataType": "charging",
    "dataSource": "gov-data",
    "name": "中油公司台北市中山區中崙站",
    "lat": 25.046359,
    "lng": 121.539601,
    "address": "104臺北市中山區八德路二段214號"
  },
  {
    "dataType": "charging",
    "dataSource": "gov-data",
    "name": "台北長安郵局",
    "lat": 25.048546,
    "lng": 121.534813,
    "address": "104臺北市中山區長安東路二段97號"
  },
  {
    "dataType": "charging",
    "dataSource": "gov-data",
    "name": "台北中山郵局",
    "lat": 25.051482,
    "lng": 121.522115,
    "address": "104臺北市中山區中山北路一段142號"
  },
  {
    "dataType": "charging",
    "dataSource": "gov-data",
    "name": "台北長春路郵局",
    "lat": 25.054956,
    "lng": 121.53056,
    "address": "104臺北市中山區長春路129號之2"
  },
  {
    "dataType": "charging",
    "dataSource": "gov-data",
    "name": "台北建北郵局",
    "lat": 25.055017,
    "lng": 121.537188,
    "address": "104臺北市中山區建國北路二段33號"
  },
  {
    "dataType": "charging",
    "dataSource": "gov-data",
    "name": "台北雙連郵局",
    "lat": 25.059484,
    "lng": 121.522657,
    "address": "104臺北市中山區中山北路二段96號"
  }
]
