[
  {
    "dataType": "charging",
    "name": "桃園福林郵局",
    "lat": 24.981244,
    "lng": 121.30653,
    "address": "330桃園市桃園區介壽路316、316-1號"
  },
  {
    "dataType": "charging",
    "name": "桃園建國郵局",
    "lat": 24.985247,
    "lng": 121.309797,
    "address": "330桃園市桃園區建國路156-8號"
  },
  {
    "dataType": "charging",
    "name": "臺鐵局桃園站候車大廳",
    "lat": 24.989206,
    "lng": 121.313549,
    "address": "330桃園市桃園區中正路1號"
  },
  {
    "dataType": "charging",
    "name": "臺鐵局桃園站第2月台南側",
    "lat": 24.989206,
    "lng": 121.313549,
    "address": "330桃園市桃園區中正路1號"
  },
  {
    "dataType": "charging",
    "name": "台電公司桃園區處服務中心營業廳",
    "lat": 24.989738,
    "lng": 121.304971,
    "address": "330桃園市桃園區復興路352號"
  },
  {
    "dataType": "charging",
    "name": "自來水公司桃園服務所",
    "lat": 24.991983,
    "lng": 121.304544,
    "address": "330桃園市桃園區中山路291號"
  },
  {
    "dataType": "charging",
    "name": "桃園成功路郵局2樓",
    "lat": 24.991986,
    "lng": 121.311336,
    "address": "330桃園市桃園區成功路一段51號2樓"
  },
  {
    "dataType": "charging",
    "name": "桃園府前郵局",
    "lat": 24.992272,
    "lng": 121.300512,
    "address": "330桃園市桃園區縣府路326-330號"
  },
  {
    "dataType": "charging",
    "name": "桃園南門郵局",
    "lat": 24.992386,
    "lng": 121.304833,
    "address": "330桃園市桃園區中山路362號"
  },
  {
    "dataType": "charging",
    "name": "桃園市政府警察局",
    "lat": 24.993346,
    "lng": 121.301897,
    "address": "330桃園市桃園區市府路3號"
  },
  {
    "dataType": "charging",
    "name": "桃園市政府警察局",
    "lat": 24.993346,
    "lng": 121.301897,
    "address": "330桃園市桃園區市府路3號"
  },
  {
    "dataType": "charging",
    "name": "桃園民生路郵局",
    "lat": 24.995151,
    "lng": 121.312797,
    "address": "330桃園市桃園區民生路246-1號"
  }
]
