[
  {
    "name": "土城清水郵局",
    "lat": 24.980958,
    "lng": 121.458943,
    "address": "236新北市土城區青雲路228、230號"
  },
  {
    "name": "土城青雲郵局",
    "lat": 24.984495,
    "lng": 121.458658,
    "address": "236新北市土城區青雲路138號"
  },
  {
    "name": "土城貨饒郵局",
    "lat": 24.984987,
    "lng": 121.444577,
    "address": "236新北市土城區中央路一段240號"
  },
  {
    "name": "土城學府郵局",
    "lat": 24.985202,
    "lng": 121.448793,
    "address": "236新北市土城區明德路2段58號"
  },
  {
    "name": "自來水公司土城服務所",
    "lat": 24.986965,
    "lng": 121.452131,
    "address": "236新北市土城區學享街63號"
  },
  {
    "name": "板橋八甲郵局",
    "lat": 24.993992,
    "lng": 121.451255,
    "address": "220新北市板橋區四川路2段123號一樓"
  },
  {
    "name": "水利署第十河川局1樓服務台",
    "lat": 24.9948631,
    "lng": 121.4525889,
    "address": "220新北市板橋區四川路2段橋頭1號"
  },
  {
    "name": "板橋浮洲郵局",
    "lat": 24.99846,
    "lng": 121.441881,
    "address": "220新北市板橋區大觀路二段313號"
  }
]
