[
  {
    "dataType": "charging",
    "dataSource": "gov-data",
    "name": "板橋三民路郵局",
    "lat": 25.020884,
    "lng": 121.47911,
    "address": "220新北市板橋區三民路一段120號"
  },
  {
    "dataType": "charging",
    "dataSource": "gov-data",
    "name": "板橋文化路郵局",
    "lat": 25.022081,
    "lng": 121.467262,
    "address": "220新北市板橋區文化路一段395號"
  },
  {
    "dataType": "charging",
    "dataSource": "gov-data",
    "name": "板橋莒光郵局",
    "lat": 25.022995,
    "lng": 121.474218,
    "address": "220新北市板橋區莒光路213號"
  },
  {
    "dataType": "charging",
    "dataSource": "gov-data",
    "name": "江翠派出所",
    "lat": 25.0303,
    "lng": 121.4698,
    "address": "220新北市板橋區吳鳳路50巷36號"
  },
  {
    "dataType": "charging",
    "dataSource": "gov-data",
    "name": "板橋江翠郵局",
    "lat": 25.031616,
    "lng": 121.474962,
    "address": "220新北市板橋區仁化街40之1號"
  }
]
