[
  {
    "id": "034063ee-bf07-5b1c-87d8-12eae85e5688",
    "dataType": "charging",
    "dataSource": "gov-data",
    "name": "桃園福林郵局",
    "lat": 24.981244,
    "lng": 121.30653,
    "address": "330桃園市桃園區介壽路316、316-1號"
  },
  {
    "id": "cafeb01d-f7ad-5366-834e-a3442b2c2bdc",
    "dataType": "charging",
    "dataSource": "gov-data",
    "name": "桃園建國郵局",
    "lat": 24.985247,
    "lng": 121.309797,
    "address": "330桃園市桃園區建國路156-8號"
  },
  {
    "id": "b2d2ffe2-9b09-5dea-8288-df5900a295d2",
    "dataType": "charging",
    "dataSource": "gov-data",
    "name": "臺鐵局桃園站候車大廳",
    "lat": 24.989206,
    "lng": 121.313549,
    "address": "330桃園市桃園區中正路1號"
  },
  {
    "id": "cbad017b-c5a3-574a-b90c-6201ef19e6a2",
    "dataType": "charging",
    "dataSource": "gov-data",
    "name": "臺鐵局桃園站第2月台南側",
    "lat": 24.989206,
    "lng": 121.313549,
    "address": "330桃園市桃園區中正路1號"
  },
  {
    "id": "14839552-de31-5771-9ef5-efde4c991d18",
    "dataType": "charging",
    "dataSource": "gov-data",
    "name": "台電公司桃園區處服務中心營業廳",
    "lat": 24.989738,
    "lng": 121.304971,
    "address": "330桃園市桃園區復興路352號"
  },
  {
    "id": "b70d9352-52c5-5523-afb7-cf84904ade2c",
    "dataType": "charging",
    "dataSource": "gov-data",
    "name": "自來水公司桃園服務所",
    "lat": 24.991983,
    "lng": 121.304544,
    "address": "330桃園市桃園區中山路291號"
  },
  {
    "id": "b2756ebf-5029-5158-a302-9de5ab15b647",
    "dataType": "charging",
    "dataSource": "gov-data",
    "name": "桃園成功路郵局2樓",
    "lat": 24.991986,
    "lng": 121.311336,
    "address": "330桃園市桃園區成功路一段51號2樓"
  },
  {
    "id": "ca3b6d15-0242-5732-a093-4d7405b2b593",
    "dataType": "charging",
    "dataSource": "gov-data",
    "name": "桃園府前郵局",
    "lat": 24.992272,
    "lng": 121.300512,
    "address": "330桃園市桃園區縣府路326-330號"
  },
  {
    "id": "2ba0f5ce-6ac1-5746-98f8-51ff875cd25a",
    "dataType": "charging",
    "dataSource": "gov-data",
    "name": "桃園南門郵局",
    "lat": 24.992386,
    "lng": 121.304833,
    "address": "330桃園市桃園區中山路362號"
  },
  {
    "id": "0916e642-3140-534b-8aec-af7a28a810aa",
    "dataType": "charging",
    "dataSource": "gov-data",
    "name": "桃園市政府警察局",
    "lat": 24.993346,
    "lng": 121.301897,
    "address": "330桃園市桃園區市府路3號"
  },
  {
    "id": "8e2f07d2-da3c-50fc-b6d9-efddf6d7f767",
    "dataType": "charging",
    "dataSource": "gov-data",
    "name": "桃園民生路郵局",
    "lat": 24.995151,
    "lng": 121.312797,
    "address": "330桃園市桃園區民生路246-1號"
  }
]
