[
  {
    "name": "華南商業銀行新營分行",
    "lat": 23.300398,
    "lng": 120.310051,
    "address": "730臺南市新營區新進路二段109號"
  },
  {
    "name": "新營新進路郵局",
    "lat": 23.301442,
    "lng": 120.315325,
    "address": "730臺南市新營區永生里新進路316號"
  },
  {
    "name": "第一商業銀行(新營分行)",
    "lat": 23.3045536,
    "lng": 120.3170091,
    "address": "730臺南市新營區中山路150號"
  },
  {
    "name": "臺南市政府警察局新營分局",
    "lat": 23.304773,
    "lng": 120.31764,
    "address": "730臺南市新營區中山路119號"
  },
  {
    "name": "新營中山路郵局",
    "lat": 23.305135,
    "lng": 120.31791,
    "address": "730臺南市新營區中山路126號"
  },
  {
    "name": "臺南市政府消防局第一大隊部",
    "lat": 23.305268,
    "lng": 120.315327,
    "address": "730臺南市新營區中華路2號1樓"
  },
  {
    "name": "臺南市政府警察局",
    "lat": 23.305286,
    "lng": 120.316295,
    "address": "730臺南市新營區中正路3號"
  },
  {
    "name": "新營民生郵局",
    "lat": 23.305608,
    "lng": 120.308644,
    "address": "730臺南市新營區三民路180-3號"
  },
  {
    "name": "自來水公司新營營運所",
    "lat": 23.307475,
    "lng": 120.317381,
    "address": "730臺南市新營區三民路70號"
  },
  {
    "name": "臺灣銀行新營分行",
    "lat": 23.308936,
    "lng": 120.316386,
    "address": "730臺南市新營區中正路10號"
  },
  {
    "name": "新營醫院-門診大廳",
    "lat": 23.308958,
    "lng": 120.313614,
    "address": "730臺南市新營區信義街73號"
  },
  {
    "name": "臺南市新營區土庫社區發展協會",
    "lat": 23.309,
    "lng": 120.318,
    "address": "730臺南市新營區土庫里土庫48號"
  },
  {
    "name": "臺南市新營區太子社區發展協會",
    "lat": 23.309,
    "lng": 120.318,
    "address": "730臺南市新營區太北里太子宮45之2號"
  },
  {
    "name": "臺南市新營區王公社區發展協會",
    "lat": 23.31,
    "lng": 120.312,
    "address": "730臺南市新營區王公里民族路21至62號"
  },
  {
    "name": "新營民治路郵局",
    "lat": 23.310772,
    "lng": 120.317651,
    "address": "730臺南市新營區民治路27-13號"
  },
  {
    "name": "財政部南區國稅局新營分局",
    "lat": 23.311586,
    "lng": 120.314705,
    "address": "730臺南市新營區民治路36號"
  },
  {
    "name": "臺南市新營戶政事務所",
    "lat": 23.3116,
    "lng": 120.314325,
    "address": "730臺南市新營區民治路36號(世紀大樓一樓)"
  },
  {
    "name": "臺南市新營區嘉芳社區發展協會",
    "lat": 23.312,
    "lng": 120.309,
    "address": "730臺南市新營區嘉芳里茄苳腳1號"
  },
  {
    "name": "臺南市新營區太南社區發展協會",
    "lat": 23.312,
    "lng": 120.309,
    "address": "730臺南市新營區舊?里30號"
  },
  {
    "name": "國軍退除役官兵輔導委員會臺南市榮服處一樓大廳",
    "lat": 23.3121729,
    "lng": 120.316044,
    "address": "730臺南市新營區中正路31巷7號"
  },
  {
    "name": "臺南市新營區姑爺社區發展協會",
    "lat": 23.313,
    "lng": 120.314,
    "address": "730臺南市新營區姑爺里挖仔9號"
  },
  {
    "name": "勞動部勞動力發展署雲嘉南分署新營就業中心",
    "lat": 23.315496,
    "lng": 120.316539,
    "address": "730臺南市新營區中正路102-3號"
  },
  {
    "name": "台電公司新營區處服務中心營業廳",
    "lat": 23.318472,
    "lng": 120.316524,
    "address": "730臺南市新營區中正路200號"
  }
]
