[
  {
    "name": "臺南市鹽水區歡雅社區發展協會",
    "lat": 23.123,
    "lng": 120.314,
    "address": "737臺南市鹽水區歡雅里歡雅90號"
  },
  {
    "name": "善化成功郵局",
    "lat": 23.127516,
    "lng": 120.317003,
    "address": "741臺南市善化區成功路41號"
  },
  {
    "name": "善化啤酒廠",
    "lat": 23.128091,
    "lng": 120.316572,
    "address": "741臺南市善化區成功路2號"
  },
  {
    "name": "第一商業銀行(赤崁分行)",
    "lat": 23.1286116,
    "lng": 120.3131501,
    "address": "700臺南市中西區成功路217號"
  },
  {
    "name": "臺南市善化區坐駕社區活動中心",
    "lat": 23.130806,
    "lng": 120.305428,
    "address": "741臺南市善化區大成路41號之1"
  },
  {
    "name": "臺南市善化區光文社區發展協會",
    "lat": 23.131,
    "lng": 120.305,
    "address": "741臺南市善化區光文里民生路32號"
  },
  {
    "name": "臺南市善化區光文社區活動中心",
    "lat": 23.131592,
    "lng": 120.305002,
    "address": "741臺南市善化區民生路32號"
  },
  {
    "name": "臺南市善化區田寮社區發展協會",
    "lat": 23.132,
    "lng": 120.305,
    "address": "741臺南市善化區田寮里六分寮168之9號"
  },
  {
    "name": "臺鐵局善化站第1月台6車位置",
    "lat": 23.133323,
    "lng": 120.3043613,
    "address": "741臺南市善化區中山路1號"
  },
  {
    "name": "臺鐵局善化站第2月台6車位置",
    "lat": 23.133323,
    "lng": 120.3043613,
    "address": "741臺南市善化區中山路1號"
  },
  {
    "name": "臺鐵局善化站行車室",
    "lat": 23.133323,
    "lng": 120.3043613,
    "address": "741臺南市善化區中山路1號"
  }
]
