[
  {
    "name": "臺南市善化區六分社區活動中心",
    "lat": 23.150827,
    "lng": 120.296906,
    "address": "741臺南市善化區六分里六分寮471號"
  },
  {
    "name": "臺南市善化區溪美社區活動中心2樓",
    "lat": 23.151445,
    "lng": 120.284262,
    "address": "741臺南市善化區溪美里71號2樓"
  },
  {
    "name": "善化溪美郵局",
    "lat": 23.152967,
    "lng": 120.288449,
    "address": "741臺南市善化區溪美里204號"
  },
  {
    "name": "臺南市善化區胡家社區發展協會",
    "lat": 23.154,
    "lng": 120.286,
    "address": "741臺南市善化區胡家里胡厝寮148號"
  },
  {
    "name": "台糖公司台南區處辦公大樓2樓",
    "lat": 23.15463,
    "lng": 120.290053,
    "address": "741臺南市善化區溪美里310號"
  }
]
