[
  {
    "dataType": "wifi",
    "category": "洽公場所",
    "name": "湖口新工郵局",
    "lat": 24.870831,
    "lng": 121.014611,
    "address": "303新竹縣湖口鄉大勇路6號"
  },
  {
    "dataType": "wifi",
    "category": "洽公場所",
    "name": "新竹工業區服務中心",
    "lat": 24.872303,
    "lng": 121.010176,
    "address": "303新竹縣湖口鄉鳳山村中華路22號1樓"
  },
  {
    "dataType": "wifi",
    "category": "洽公場所",
    "name": "新竹工業區就業服務臺",
    "lat": 24.872537,
    "lng": 121.009703,
    "address": "300新竹縣湖口鄉新竹工業區中華路22號"
  },
  {
    "dataType": "wifi",
    "category": "洽公場所",
    "name": "臺灣土地銀行新工分行",
    "lat": 24.873671,
    "lng": 121.011119,
    "address": "303新竹縣湖口鄉新竹工業區中華路76號"
  },
  {
    "dataType": "wifi",
    "category": "洽公場所",
    "name": "自來水公司湖口營運所",
    "lat": 24.874913,
    "lng": 121.011969,
    "address": "303新竹縣湖口鄉仁興路3號"
  }
]
