[
  {
    "name": "科技部新竹科學工業園區管理局-椿苑單身宿舍",
    "lat": 24.7800711,
    "lng": 121.007698,
    "address": "300新竹市東區竹村七路19號"
  },
  {
    "name": "新竹科學園郵局",
    "lat": 24.780192,
    "lng": 121.004751,
    "address": "300新竹市東區科學園區工業東二路2-1號"
  },
  {
    "name": "兆豐國際商銀竹科竹村分行",
    "lat": 24.780398,
    "lng": 121.007007,
    "address": "300新竹市東區科學工業園區竹村七路21號"
  },
  {
    "name": "兆豐國際商銀竹科新安分行",
    "lat": 24.780983,
    "lng": 121.004933,
    "address": "300新竹市東區科學工業園區新安路1號"
  },
  {
    "name": "新竹市東區文華社區發展協會",
    "lat": 24.781,
    "lng": 121.017,
    "address": "300新竹市東區文華里東大路二段16號"
  },
  {
    "name": "新竹市東區水源社區發展協會",
    "lat": 24.781,
    "lng": 121.017,
    "address": "300新竹市東區水源里原興路198號"
  },
  {
    "name": "科技部新竹科學工業園區管理局-巡迴巴士新安站",
    "lat": 24.781027,
    "lng": 121.004148,
    "address": "300新竹市東區新安路3號"
  },
  {
    "name": "科技部新竹科學工業園區管理局-勞工育樂中心",
    "lat": 24.7816461,
    "lng": 121.0059154,
    "address": "300新竹市東區新安路2-1號"
  },
  {
    "name": "科技部新竹科學工業園區管理局-勞工育樂中心地下室教室2",
    "lat": 24.7816461,
    "lng": 121.0059154,
    "address": "300新竹市東區新安路2-1號"
  },
  {
    "name": "科技部新竹科學工業園區管理局-勞工育樂中心地下室會議室",
    "lat": 24.7816461,
    "lng": 121.0059154,
    "address": "300新竹市東區新安路2-1號"
  },
  {
    "name": "科技部新竹科學工業園區管理局-勞工育樂中心禮堂",
    "lat": 24.7816461,
    "lng": 121.0059154,
    "address": "300新竹市東區新安路2-1號"
  },
  {
    "name": "科技部新竹科學工業園區管理局-管理局大樓",
    "lat": 24.7816461,
    "lng": 121.0059154,
    "address": "300新竹市東區新安路2-1號"
  },
  {
    "name": "新竹市東區科園社區發展協會",
    "lat": 24.7818,
    "lng": 121.0092,
    "address": "300新竹市東區科園里民享一街112之1號"
  },
  {
    "name": "科技部新竹科學工業園區管理局-勞工育樂中心",
    "lat": 24.782143,
    "lng": 121.005825,
    "address": "300新竹市東區新安路2-1號"
  },
  {
    "name": "新竹市文化局圖書館龍山分館2樓",
    "lat": 24.78243,
    "lng": 121.0106,
    "address": "300新竹市東區科學園路162巷36號2-4樓"
  },
  {
    "name": "新竹市文化局圖書館龍山分館4樓",
    "lat": 24.78243,
    "lng": 121.0106,
    "address": "300新竹市東區科學園路162巷36號2-4樓"
  },
  {
    "name": "新竹市文化局圖書館龍山分館3樓(右側)",
    "lat": 24.78243,
    "lng": 121.0106,
    "address": "300新竹市東區科學園路162巷36號2-4樓"
  },
  {
    "name": "新竹市文化局圖書館龍山分館3樓(左側)",
    "lat": 24.78243,
    "lng": 121.0106,
    "address": "300新竹市東區科學園路162巷36號2-4樓"
  },
  {
    "name": "科技部新竹科學工業園區管理局-園區探索館一",
    "lat": 24.782477,
    "lng": 121.00541,
    "address": "300新竹市東區科技五路1號"
  },
  {
    "name": "科技部新竹科學工業園區管理局-園區探索館二",
    "lat": 24.782477,
    "lng": 121.00541,
    "address": "300新竹市東區科技五路1號"
  },
  {
    "name": "科技部新竹科學工業園區管理局-園區探索館三",
    "lat": 24.782477,
    "lng": 121.00541,
    "address": "300新竹市東區科技五路1號"
  },
  {
    "name": "新竹市科園市民活動中心",
    "lat": 24.7824992,
    "lng": 121.0093305,
    "address": "300新竹市東區民享一街36號"
  },
  {
    "name": "新竹關東橋郵局",
    "lat": 24.782661,
    "lng": 121.018739,
    "address": "300新竹市東區光復路一段313號"
  },
  {
    "name": "科技部新竹科學工業園區管理局-保警中隊",
    "lat": 24.782916,
    "lng": 121.006894,
    "address": "300新竹市東區園區一路8號"
  },
  {
    "name": "科技部新竹科學工業園區管理局-環境教育館",
    "lat": 24.783306,
    "lng": 121.006851,
    "address": "300新竹市東區園區一路4號"
  },
  {
    "name": "華南商業銀行竹科分行",
    "lat": 24.78727,
    "lng": 121.019664,
    "address": "300新竹市東區關新路176號"
  },
  {
    "name": "中油公司新竹服務中心",
    "lat": 24.789815,
    "lng": 121.003569,
    "address": "300新竹市東區大學路8-1號"
  },
  {
    "name": "新竹市身障就業大樓",
    "lat": 24.790633,
    "lng": 121.009663,
    "address": "300新竹市東區龍山西路99號1樓"
  },
  {
    "name": "新竹市身障就業大樓(4、5F)",
    "lat": 24.7906973,
    "lng": 121.0096679,
    "address": "300新竹市東區龍山西路99號"
  },
  {
    "name": "中油公司新竹直銷中心",
    "lat": 24.790918,
    "lng": 121.004378,
    "address": "300新竹市東區大學路2號"
  },
  {
    "name": "新竹市讓愛飛揚關懷協會",
    "lat": 24.792,
    "lng": 121.004,
    "address": "300新竹市東區水源里溪州路59巷15號"
  },
  {
    "name": "第一商業銀行(竹科分行)",
    "lat": 24.792095,
    "lng": 121.0124419,
    "address": "300新竹市東區慈雲路120號"
  },
  {
    "name": "新竹市東區軍功社區發展協會",
    "lat": 24.794,
    "lng": 121.01,
    "address": "300新竹市東區軍功里建功一路49巷14號"
  },
  {
    "name": "新竹市埔頂市民活動中心",
    "lat": 24.7940068,
    "lng": 121.009987,
    "address": "300新竹市東區埔頂路136號"
  },
  {
    "name": "中華活力居家服務協會",
    "lat": 24.796,
    "lng": 121.005,
    "address": "300新竹市東區南大里西大路27號三樓"
  },
  {
    "name": "國軍退除役官兵輔導委員會新竹榮民服務處一樓大廳",
    "lat": 24.799173,
    "lng": 121.003188,
    "address": "300新竹市東區建功二路61號"
  }
]
