[
  {
    "name": "新竹縣第一體育場服務臺",
    "lat": 24.820451,
    "lng": 121.018074,
    "address": "302新竹縣竹北市光明六路東一段2號"
  },
  {
    "name": "勞動部勞動力發展署桃竹苗分署竹北就業中心洽公櫃台",
    "lat": 24.822551,
    "lng": 121.014538,
    "address": "302新竹縣竹北市光明九路7-3號"
  },
  {
    "name": "勞動部勞動力發展署桃竹苗分署銀髮人才資源中心",
    "lat": 24.8231903,
    "lng": 121.0108992,
    "address": "302新竹縣竹北市縣政六路18號"
  },
  {
    "name": "行政院勞動部勞工保險局新竹縣辦事處洽公櫃台",
    "lat": 24.823442,
    "lng": 121.013059,
    "address": "302新竹縣竹北市光明九路36-1號"
  },
  {
    "name": "新竹縣第二體育場看臺",
    "lat": 24.82384,
    "lng": 121.019165,
    "address": "302新竹縣竹北市光明六路東一段2號"
  },
  {
    "name": "中油公司新竹縣竹北市府前站",
    "lat": 24.8241455,
    "lng": 121.0149648,
    "address": "302新竹縣竹北市縣政二路112號"
  },
  {
    "name": "新竹縣政府稅捐稽徵局_新",
    "lat": 24.825135,
    "lng": 121.014546,
    "address": "302新竹縣竹北市光明六路6號"
  },
  {
    "name": "新竹縣政府稅捐稽徵局",
    "lat": 24.825281,
    "lng": 121.014512,
    "address": "302新竹縣竹北市光明六路6號"
  },
  {
    "name": "新竹縣政府衛生局",
    "lat": 24.826401,
    "lng": 121.015273,
    "address": "302新竹縣竹北市光明七街1號"
  },
  {
    "name": "新竹縣政府縣府大廳",
    "lat": 24.826839,
    "lng": 121.012816,
    "address": "302新竹縣竹北市光明六路10號"
  },
  {
    "name": "新竹縣政府前棟地下室",
    "lat": 24.8270625,
    "lng": 121.0126116,
    "address": "302新竹縣竹北市光明六路10號"
  },
  {
    "name": "臺灣銀行竹北分行",
    "lat": 24.827268,
    "lng": 121.010327,
    "address": "302新竹縣竹北市光明六路16號"
  },
  {
    "name": "台電公司竹北服務所大廳",
    "lat": 24.827326,
    "lng": 121.01586,
    "address": "302新竹縣竹北市縣政二路103號"
  },
  {
    "name": "財政部北區國稅局新竹縣分局",
    "lat": 24.827622,
    "lng": 121.010273,
    "address": "302新竹縣竹北市縣政九路120號1樓"
  },
  {
    "name": "司法院(新竹地方法院-竹北少年輔導大樓)",
    "lat": 24.827671,
    "lng": 121.0161328,
    "address": "302新竹縣竹北市縣政二路105號"
  },
  {
    "name": "新竹縣政府好客食堂",
    "lat": 24.8277188,
    "lng": 121.0132494,
    "address": "302新竹縣竹北市光明六路10號"
  },
  {
    "name": "自來水公司竹北營運所",
    "lat": 24.827719,
    "lng": 121.014381,
    "address": "302新竹縣竹北市縣政五街188號"
  },
  {
    "name": "新竹縣政府環境保護局",
    "lat": 24.828137,
    "lng": 121.013352,
    "address": "302新竹縣竹北市光明五街62號"
  },
  {
    "name": "第一商業銀行(竹北分行)",
    "lat": 24.8283806,
    "lng": 121.0115568,
    "address": "302新竹縣竹北市光明五街210號"
  },
  {
    "name": "華南商業銀行竹北分行",
    "lat": 24.828436,
    "lng": 121.010456,
    "address": "302新竹縣竹北市縣政九路159號"
  },
  {
    "name": "臺灣土地銀行竹北分行",
    "lat": 24.8284838,
    "lng": 121.0106216,
    "address": "302新竹縣竹北市縣政九路130號1~5樓"
  },
  {
    "name": "竹北光明郵局",
    "lat": 24.828781,
    "lng": 121.010865,
    "address": "302新竹縣竹北市縣政九路138號"
  },
  {
    "name": "新竹縣政府文化局(圖書館一樓)",
    "lat": 24.83014,
    "lng": 121.012151,
    "address": "302新竹縣竹北市縣政九路146號"
  },
  {
    "name": "新竹縣政府文化局(圖書館二樓)",
    "lat": 24.83014,
    "lng": 121.012151,
    "address": "302新竹縣竹北市縣政九路146號"
  },
  {
    "name": "新竹縣政府文化局(圖書館三樓)",
    "lat": 24.83014,
    "lng": 121.012151,
    "address": "302新竹縣竹北市縣政九路146號"
  },
  {
    "name": "新竹縣政府文化局(圖書館閱讀室)",
    "lat": 24.83014,
    "lng": 121.012151,
    "address": "302新竹縣竹北市縣政九路146號"
  },
  {
    "name": "新竹縣政府文化局服務台",
    "lat": 24.830189,
    "lng": 121.012171,
    "address": "302新竹縣竹北市縣政九路146號"
  },
  {
    "name": "新竹縣政府文化局縣史館",
    "lat": 24.830189,
    "lng": 121.012171,
    "address": "302新竹縣竹北市縣政九路146號"
  },
  {
    "name": "兆豐國際商銀竹北分行",
    "lat": 24.830457,
    "lng": 121.01515,
    "address": "302新竹縣竹北市光明一路155號"
  },
  {
    "name": "新竹縣竹北市衛生所",
    "lat": 24.832399,
    "lng": 121.00683,
    "address": "302新竹縣竹北市光明二街89號"
  },
  {
    "name": "內政部移民署新竹縣服務站(新)",
    "lat": 24.832918,
    "lng": 121.016397,
    "address": "302新竹縣竹北市三民路133號1樓"
  },
  {
    "name": "新竹縣竹北地政事務所",
    "lat": 24.833538,
    "lng": 121.01272,
    "address": "302新竹縣竹北市三民路200號"
  },
  {
    "name": "新竹縣家庭教育中心&婦幼館",
    "lat": 24.833821,
    "lng": 121.019436,
    "address": "302新竹縣竹北市縣政二路620號"
  },
  {
    "name": "竹北中山郵局",
    "lat": 24.835655,
    "lng": 121.018809,
    "address": "302新竹縣竹北市中正東路42號"
  },
  {
    "name": "竹北博愛郵局",
    "lat": 24.83666,
    "lng": 121.008882,
    "address": "302新竹縣竹北市博愛街390號"
  },
  {
    "name": "臺鐵局竹北站候車大廳西側(售票口附近)",
    "lat": 24.8396572,
    "lng": 121.0095765,
    "address": "302新竹縣竹北市福德里和平街59號"
  },
  {
    "name": "臺鐵局竹北站第1月台4車位置",
    "lat": 24.8396572,
    "lng": 121.0095765,
    "address": "302新竹縣竹北市福德里和平街59號"
  },
  {
    "name": "臺鐵局竹北站第2月台7車位置",
    "lat": 24.8396572,
    "lng": 121.0095765,
    "address": "302新竹縣竹北市福德里和平街59號"
  },
  {
    "name": "臺鐵局竹北站候車室",
    "lat": 24.8396572,
    "lng": 121.0095765,
    "address": "302新竹縣竹北市福德里和平街59號"
  },
  {
    "name": "新竹縣竹北市戶政事務所",
    "lat": 24.839711,
    "lng": 121.00418,
    "address": "302新竹縣竹北市中正西路50-1號"
  },
  {
    "name": "竹北郵局",
    "lat": 24.839782,
    "lng": 121.00319,
    "address": "302新竹縣竹北市竹義里中正西路60號"
  },
  {
    "name": "新竹縣竹北市立圖書館",
    "lat": 24.839925,
    "lng": 121.003729,
    "address": "302新竹縣竹北市中正西路54號"
  }
]
