[
  {
    "name": "花蓮縣玉里鎮公所源城里辦公處",
    "lat": 23.321159,
    "lng": 121.300307,
    "address": "981花蓮縣玉里鎮源城里水源57之1號"
  },
  {
    "name": "花蓮縣玉里鎮源城國民小學",
    "lat": 23.321449,
    "lng": 121.300435,
    "address": "981花蓮縣玉里鎮源城里水源62號"
  },
  {
    "name": "花蓮縣玉里鎮戶政事務所",
    "lat": 23.324147,
    "lng": 121.306979,
    "address": "981花蓮縣玉里鎮中城里3鄰忠孝路149號"
  },
  {
    "name": "花蓮縣玉里鎮中城國民小學",
    "lat": 23.324509,
    "lng": 121.318175,
    "address": "981花蓮縣玉里鎮中山路一段1號"
  },
  {
    "name": "花蓮縣地方稅務局玉里分局",
    "lat": 23.3246271,
    "lng": 121.31674,
    "address": "981花蓮縣玉里鎮忠孝路151號"
  },
  {
    "name": "花蓮縣消防局玉里消防分隊",
    "lat": 23.3247268,
    "lng": 121.3164878,
    "address": "981花蓮縣玉里鎮忠孝街153號"
  },
  {
    "name": "玉里慈濟醫院(玉里環保站)",
    "lat": 23.3256279,
    "lng": 121.3183968,
    "address": "981花蓮縣玉里鎮中城里忠孝路120號"
  },
  {
    "name": "花蓮縣勝安宗壇發展協會",
    "lat": 23.326425,
    "lng": 121.317242,
    "address": "981花蓮縣玉里鎮中城里中山路一段35號"
  },
  {
    "name": "公路總局第四區養護工程處玉里工務段",
    "lat": 23.326746,
    "lng": 121.314592,
    "address": "981花蓮縣玉里鎮源城里客城1-2號"
  },
  {
    "name": "財團法人一粒麥子社會福利慈善事業基金會-玉里",
    "lat": 23.327365,
    "lng": 121.318827,
    "address": "981花蓮縣玉里鎮中城里忠勇路57號"
  },
  {
    "name": "財團法人門諾社會福利慈善事業基金會-玉里",
    "lat": 23.329146,
    "lng": 121.310518,
    "address": "981花蓮縣玉里鎮中城里更生路38號"
  },
  {
    "name": "玉里郵局",
    "lat": 23.331059,
    "lng": 121.313921,
    "address": "981花蓮縣玉里鎮光復路111號"
  },
  {
    "name": "台電公司玉里服務所營業廳",
    "lat": 23.331498,
    "lng": 121.314533,
    "address": "981花蓮縣玉里鎮光復路104號"
  },
  {
    "name": "勞動部勞動力發展署北基宜花金馬分署玉里就業服務站洽公櫃台",
    "lat": 23.33155,
    "lng": 121.313063,
    "address": "981花蓮縣玉里鎮光復路160號"
  },
  {
    "name": "臺鐵局玉里站候車室",
    "lat": 23.331576,
    "lng": 121.311805,
    "address": "981花蓮縣玉里鎮康樂街39號"
  },
  {
    "name": "勞動部勞動力發展署北基宜花金馬分署玉里就業中心洽公櫃台",
    "lat": 23.33158,
    "lng": 121.313061,
    "address": "981花蓮縣玉里鎮光復路160號"
  },
  {
    "name": "臺鐵局玉里站剪票口",
    "lat": 23.3315824,
    "lng": 121.3118016,
    "address": "981花蓮縣玉里鎮康樂街39號"
  },
  {
    "name": "臺鐵局玉里站行李房",
    "lat": 23.3315824,
    "lng": 121.3118016,
    "address": "981花蓮縣玉里鎮康樂街39號"
  },
  {
    "name": "臺鐵局玉里站南端商店區",
    "lat": 23.3315824,
    "lng": 121.3118016,
    "address": "981花蓮縣玉里鎮康樂街39號"
  },
  {
    "name": "臺鐵局玉里站第1月台北側",
    "lat": 23.3315824,
    "lng": 121.3118016,
    "address": "981花蓮縣玉里鎮康樂街39號"
  },
  {
    "name": "臺鐵局玉里站地1月台南側",
    "lat": 23.3315824,
    "lng": 121.3118016,
    "address": "981花蓮縣玉里鎮康樂街39號"
  },
  {
    "name": "臺鐵局玉里火車站第1月台",
    "lat": 23.33205,
    "lng": 121.311743,
    "address": "981花蓮縣玉里鎮康樂街39號"
  },
  {
    "name": "財政部北區國稅局玉里稽徵所",
    "lat": 23.332325,
    "lng": 121.316873,
    "address": "981花蓮縣玉里鎮光復路52號1樓"
  },
  {
    "name": "花蓮縣真誠社區發展協會",
    "lat": 23.332765,
    "lng": 121.31487,
    "address": "981花蓮縣玉里鎮國武里民生街51之1號"
  },
  {
    "name": "臺灣土地銀行玉里分行",
    "lat": 23.332805,
    "lng": 121.314659,
    "address": "981花蓮縣玉里鎮中山路二段51號"
  },
  {
    "name": "社團法人花蓮縣家庭照顧者關懷協會-玉里鎮",
    "lat": 23.3333333,
    "lng": 121.3174458,
    "address": "981花蓮縣玉里鎮國武里民國路一段202號"
  },
  {
    "name": "花蓮縣玉里鎮國武里辦公室",
    "lat": 23.3333712,
    "lng": 121.316897,
    "address": "981花蓮縣玉里鎮國武里16鄰民生街46號"
  },
  {
    "name": "中油公司花蓮縣玉里鎮玉里站",
    "lat": 23.333374,
    "lng": 121.3125301,
    "address": "981花蓮縣玉里鎮大同路219號"
  },
  {
    "name": "花蓮縣基督教全人更新協會",
    "lat": 23.333823,
    "lng": 121.31296,
    "address": "981花蓮縣玉里鎮中城里大同路258號"
  },
  {
    "name": "花蓮縣玉里鎮玉里國民小學",
    "lat": 23.334695,
    "lng": 121.316957,
    "address": "981花蓮縣玉里鎮忠智路43號"
  },
  {
    "name": "花蓮縣玉里鎮東部台灣黑熊教育館",
    "lat": 23.3349762,
    "lng": 121.3169608,
    "address": "981花蓮縣玉里鎮民權街50號"
  },
  {
    "name": "玉里鎮民權街與中華路口",
    "lat": 23.3350105,
    "lng": 121.3158445,
    "address": "981花蓮縣玉里鎮民權街50號"
  },
  {
    "name": "橋頭冰店",
    "lat": 23.3350179,
    "lng": 121.3137741,
    "address": "981花蓮縣玉里鎮中華路79號"
  },
  {
    "name": "花蓮玉里客家生活館",
    "lat": 23.3351374,
    "lng": 121.3166127,
    "address": "981花蓮縣玉里鎮民權街50號"
  },
  {
    "name": "花蓮縣立玉里國民中學",
    "lat": 23.335264,
    "lng": 121.312931,
    "address": "981花蓮縣玉里鎮民族街30號"
  },
  {
    "name": "玉里鎮中山路二段與民族街口",
    "lat": 23.335452,
    "lng": 121.31429,
    "address": "981花蓮縣玉里鎮中山路二段152號"
  },
  {
    "name": "花蓮縣玉里鎮公所",
    "lat": 23.335527,
    "lng": 121.315197,
    "address": "981花蓮縣玉里鎮中正路148號"
  },
  {
    "name": "花蓮縣卓溪鄉公所",
    "lat": 23.335527,
    "lng": 121.315197,
    "address": "982花蓮縣卓溪鄉卓溪村中正70號"
  },
  {
    "name": "玉里泰昌郵局",
    "lat": 23.335776,
    "lng": 121.314002,
    "address": "981花蓮縣玉里鎮中山路二段139號"
  },
  {
    "name": "花蓮縣玉里鎮玉里天主堂",
    "lat": 23.3359099,
    "lng": 121.314171,
    "address": "981花蓮縣玉里鎮中山路二段166號"
  },
  {
    "name": "花蓮縣玉里鎮啟模里辦公室",
    "lat": 23.336105,
    "lng": 121.316267,
    "address": "981花蓮縣玉里鎮啟模里31鄰五權街1號"
  },
  {
    "name": "花蓮縣玉里鎮民代表會",
    "lat": 23.3361096,
    "lng": 121.3140779,
    "address": "981花蓮縣玉里鎮五權街5號"
  },
  {
    "name": "花蓮縣玉里鎮圖書館",
    "lat": 23.336207,
    "lng": 121.316013,
    "address": "981花蓮縣玉里鎮民族街2號"
  },
  {
    "name": "花蓮縣玉里鎮啟模社區發展協會",
    "lat": 23.336312,
    "lng": 121.316066,
    "address": "981花蓮縣玉里鎮啟模里五權街1號"
  },
  {
    "name": "玉里鎮衛生所",
    "lat": 23.3363605,
    "lng": 121.3147896,
    "address": "981花蓮縣玉里鎮泰昌里中正路152號"
  },
  {
    "name": "花蓮縣衛生局玉里鎮衛生所",
    "lat": 23.336551,
    "lng": 121.315013,
    "address": "981花蓮縣玉里鎮中正路152號"
  },
  {
    "name": "花蓮縣玉里派出所鐵馬驛站",
    "lat": 23.336698,
    "lng": 121.313748,
    "address": "981花蓮縣玉里鎮博愛路200號"
  },
  {
    "name": "臺北榮民總醫院玉里分院榮八病房",
    "lat": 23.33745,
    "lng": 121.310788,
    "address": "981花蓮縣玉里鎮新興街91號"
  },
  {
    "name": "玉里新興郵局",
    "lat": 23.338503,
    "lng": 121.31258,
    "address": "981花蓮縣玉里鎮新興街91號"
  },
  {
    "name": "臺北榮民總醫院玉里分院醫療大樓一樓大廳",
    "lat": 23.338503,
    "lng": 121.31258,
    "address": "981花蓮縣玉里鎮新興街91號"
  },
  {
    "name": "臺北榮民總醫院玉里分院璞石學苑一樓",
    "lat": 23.338598,
    "lng": 121.3182586,
    "address": "981花蓮縣玉里鎮民國路二段102號"
  },
  {
    "name": "臺北榮民總醫院玉里分院璞石學苑二樓",
    "lat": 23.338598,
    "lng": 121.3182586,
    "address": "981花蓮縣玉里鎮民國路二段102號"
  },
  {
    "name": "臺北榮民總醫院玉里分院圓馨病房",
    "lat": 23.339575,
    "lng": 121.311367,
    "address": "981花蓮縣玉里鎮新興街91號"
  }
]
