[
  {
    "dataType": "wifi",
    "category": "其他",
    "name": "屏東縣東港鎮大鵬灣觀光發展社區聯合協會",
    "lat": 22.461774,
    "lng": 120.442561,
    "address": "928屏東縣東港鎮鎮海里鎮海路42之5號"
  },
  {
    "dataType": "wifi",
    "category": "洽公場所",
    "name": "自來水公司東港營運所",
    "lat": 22.463821,
    "lng": 120.455178,
    "address": "928屏東縣東港鎮共和街107-2號"
  },
  {
    "dataType": "wifi",
    "category": "其他",
    "name": "屏東縣東港鎮社區營造關懷協會",
    "lat": 22.464491,
    "lng": 120.442452,
    "address": "928屏東縣東港鎮豐漁里豐漁街34之2號"
  },
  {
    "dataType": "wifi",
    "category": "大眾運輸節點",
    "name": "東港轉運站",
    "lat": 22.464626,
    "lng": 120.457684,
    "address": "928屏東縣東港鎮船頭路3號"
  },
  {
    "dataType": "wifi",
    "category": "其他",
    "name": "財團法人台灣基督長老教會屏東中會東港教會",
    "lat": 22.465403,
    "lng": 120.447872,
    "address": "928屏東縣東港鎮福德里延平路187號"
  },
  {
    "dataType": "wifi",
    "category": "洽公場所",
    "name": "第一商業銀行(東港分行)",
    "lat": 22.466603,
    "lng": 120.449114,
    "address": "928屏東縣東港鎮朝陽街23號"
  },
  {
    "dataType": "wifi",
    "category": "洽公場所",
    "name": "財政部南區國稅局東港稽徵所",
    "lat": 22.466662,
    "lng": 120.446121,
    "address": "928屏東縣東港鎮新生二路16號2樓"
  },
  {
    "dataType": "wifi",
    "category": "洽公場所",
    "name": "屏東縣東港鎮公所",
    "lat": 22.46672,
    "lng": 120.454398,
    "address": "928屏東縣東港鎮中山路2-100號"
  },
  {
    "dataType": "wifi",
    "category": "洽公場所",
    "name": "臺灣土地銀行東港分行",
    "lat": 22.46729,
    "lng": 120.45342,
    "address": "928屏東縣東港鎮光復路二段27號1~4樓"
  },
  {
    "dataType": "wifi",
    "category": "洽公場所",
    "name": "屏東縣東港戶政事務所",
    "lat": 22.467593,
    "lng": 120.44303,
    "address": "928屏東縣東港鎮新生三路175號"
  },
  {
    "dataType": "wifi",
    "category": "其他",
    "name": "屏東縣東港區漁會",
    "lat": 22.467644,
    "lng": 120.44282,
    "address": "928屏東縣東港鎮新生三路175號"
  },
  {
    "dataType": "wifi",
    "category": "其他",
    "name": "屏東縣東港區漁會魚市場",
    "lat": 22.467644,
    "lng": 120.44282,
    "address": "928屏東縣東港鎮新生三路175號"
  },
  {
    "dataType": "wifi",
    "category": "其他",
    "name": "屏東縣東港區漁會直銷中心",
    "lat": 22.467644,
    "lng": 120.44282,
    "address": "928屏東縣東港鎮新生三路175號"
  },
  {
    "dataType": "wifi",
    "category": "大眾運輸節點",
    "name": "屏東東港候船室",
    "lat": 22.468301,
    "lng": 120.44469,
    "address": "928屏東縣東港鎮朝隆路1號"
  },
  {
    "dataType": "wifi",
    "category": "洽公場所",
    "name": "屏東縣東港地政事務所",
    "lat": 22.468658,
    "lng": 120.450779,
    "address": "928屏東縣東港鎮中正路181號"
  },
  {
    "dataType": "wifi",
    "category": "洽公場所",
    "name": "東港中正路郵局",
    "lat": 22.468897,
    "lng": 120.450953,
    "address": "928屏東縣東港鎮頂新里中正路183號"
  },
  {
    "dataType": "wifi",
    "category": "其他",
    "name": "屏東縣南州鄉溪北社區發展協會",
    "lat": 22.469,
    "lng": 120.449,
    "address": "926屏東縣南州鄉溪北村仁里路93號"
  },
  {
    "dataType": "wifi",
    "category": "洽公場所",
    "name": "東港郵局",
    "lat": 22.469815,
    "lng": 120.458098,
    "address": "928屏東縣東港鎮光復路一段293號"
  },
  {
    "dataType": "wifi",
    "category": "洽公場所",
    "name": "中央健康保險署-高屏業務組東港聯絡辦公室",
    "lat": 22.474349,
    "lng": 120.459172,
    "address": "928屏東縣東港鎮中正路一段210號"
  },
  {
    "dataType": "wifi",
    "category": "其他",
    "name": "屏東縣新園鄉鹽埔婦女健康協會",
    "lat": 22.47885,
    "lng": 120.440352,
    "address": "932屏東縣新園鄉鹽埔村鹽龍路180之9號"
  }
]
