[
  {
    "dataType": "wifi",
    "category": "洽公場所",
    "name": "臺灣土地銀行枋寮分行",
    "lat": 22.364311,
    "lng": 120.597912,
    "address": "940屏東縣枋寮鄉隆山村隆山路111號"
  },
  {
    "dataType": "wifi",
    "category": "洽公場所",
    "name": "屏東縣枋寮地政事務所",
    "lat": 22.365169,
    "lng": 120.593594,
    "address": "940屏東縣枋寮鄉德興路32號"
  },
  {
    "dataType": "wifi",
    "category": "洽公場所",
    "name": "枋寮郵局",
    "lat": 22.366405,
    "lng": 120.59508,
    "address": "940屏東縣枋寮鄉中山路194號"
  },
  {
    "dataType": "wifi",
    "category": "洽公場所",
    "name": "屏東縣枋寮戶政事務所",
    "lat": 22.367561,
    "lng": 120.59121,
    "address": "940屏東縣枋寮鄉德興路183號"
  },
  {
    "dataType": "wifi",
    "category": "大眾運輸節點",
    "name": "臺鐵局枋寮站候車室",
    "lat": 22.368046,
    "lng": 120.595196,
    "address": "940屏東縣枋寮鄉儲運路18號"
  }
]
