[
  {
    "name": "花蓮縣壽豐鄉光榮社區發展協會",
    "lat": 23.881703,
    "lng": 121.514276,
    "address": "974花蓮縣壽豐鄉光榮村光榮一街26之1號"
  },
  {
    "name": "社團法人花蓮縣鳥踏石關懷協會",
    "lat": 23.8824319,
    "lng": 121.5154776,
    "address": "970花蓮縣花蓮市民德里民德一街31號"
  },
  {
    "name": "門諾醫院壽豐分院失智照護聯合服務中心(壽豐加樂)",
    "lat": 23.8824319,
    "lng": 121.5154776,
    "address": "974花蓮縣壽豐鄉光榮村光榮四街31號"
  },
  {
    "name": "台東縣海端鄉海端村4鄰山界40號(49-1號)",
    "lat": 23.882744,
    "lng": 121.5193691,
    "address": "974花蓮縣壽豐鄉平和村平和路一號"
  },
  {
    "name": "花蓮縣壽豐鄉平和國民小學",
    "lat": 23.883601,
    "lng": 121.519582,
    "address": "974花蓮縣壽豐鄉平和村平和路34號"
  },
  {
    "name": "花蓮縣壽豐鄉公所平和村辦公處",
    "lat": 23.883937,
    "lng": 121.519216,
    "address": "974花蓮縣壽豐鄉平和村平和路32號"
  },
  {
    "name": "花蓮縣壽豐鄉公所光榮村辦公處",
    "lat": 23.884142,
    "lng": 121.514673,
    "address": "974花蓮縣壽豐鄉光榮村光榮1街26之1號"
  },
  {
    "name": "花蓮縣立平和國民中學",
    "lat": 23.884896,
    "lng": 121.518402,
    "address": "974花蓮縣壽豐鄉平和村48號"
  }
]
