[
  {
    "name": "花蓮縣壽豐鄉公所米棧村辦公處",
    "lat": 23.826974,
    "lng": 121.513875,
    "address": "974花蓮縣壽豐鄉米棧村米棧路二段21號"
  },
  {
    "name": "花蓮縣消防局壽豐消防分隊",
    "lat": 23.8288653,
    "lng": 121.5015947,
    "address": "974花蓮縣壽豐鄉中山路六段4號"
  },
  {
    "name": "花蓮縣壽豐鄉公所豐坪村辦公處",
    "lat": 23.83372,
    "lng": 121.508751,
    "address": "974花蓮縣壽豐鄉豐坪村豐坪路二段73號"
  },
  {
    "name": "社團法人花蓮縣牛犁社區交流協會-豐坪",
    "lat": 23.835113,
    "lng": 121.509607,
    "address": "974花蓮縣壽豐鄉豐坪村豐坪路二段73號"
  },
  {
    "name": "花蓮縣壽豐鄉豐裡社區發展協會",
    "lat": 23.838158,
    "lng": 121.500961,
    "address": "974花蓮縣壽豐鄉豐裡村民權街1號"
  }
]
