[
  {
    "name": "吉安鄉和平路一段自強路口",
    "lat": 23.9830636,
    "lng": 121.5886359,
    "address": "973花蓮縣吉安鄉自強路431號"
  },
  {
    "name": "吉安鄉自強路建國路一段口",
    "lat": 23.98586,
    "lng": 121.5906663,
    "address": "973花蓮縣吉安鄉建國路一段139號"
  },
  {
    "name": "花蓮縣吉安鄉北昌國民小學",
    "lat": 23.987086,
    "lng": 121.592136,
    "address": "973花蓮縣吉安鄉北昌村自強路533號"
  },
  {
    "name": "吉安鄉建國路一段中央路三段口",
    "lat": 23.987126,
    "lng": 121.5873118,
    "address": "973花蓮縣吉安鄉中央路三段475號"
  },
  {
    "name": "花蓮市國聯社區活動中心",
    "lat": 23.9876728,
    "lng": 121.5999784,
    "address": "970花蓮縣花蓮市國興五街139號"
  },
  {
    "name": "社團法人花蓮縣老人暨家庭關懷協會",
    "lat": 23.9899168,
    "lng": 121.5829734,
    "address": "973花蓮縣吉安鄉建國路2段37號"
  },
  {
    "name": "花蓮富國路郵局",
    "lat": 23.99099,
    "lng": 121.595887,
    "address": "970花蓮縣花蓮市富國路52號"
  },
  {
    "name": "慈濟大學銀髮健身俱樂部(中央校區大喜館)",
    "lat": 23.99293,
    "lng": 121.59127,
    "address": "970花蓮縣花蓮市中央路三段701號"
  },
  {
    "name": "臺鐵局花蓮站後站候車室",
    "lat": 23.9929463,
    "lng": 121.5989255,
    "address": "970花蓮縣花蓮市國聯一路100號"
  },
  {
    "name": "社團法人花蓮縣博愛全人發展協會",
    "lat": 23.993,
    "lng": 121.598,
    "address": "970花蓮縣花蓮市國威里博愛街225號"
  },
  {
    "name": "花蓮縣消防局",
    "lat": 23.993474,
    "lng": 121.592578,
    "address": "970花蓮縣花蓮市中央路三段842號"
  },
  {
    "name": "花蓮縣花蓮市國富社區發展協會",
    "lat": 23.993873,
    "lng": 121.594291,
    "address": "970花蓮縣花蓮市國富里富祥街12號"
  },
  {
    "name": "花蓮市中央路三段國富25街口",
    "lat": 23.994384,
    "lng": 121.592863,
    "address": "970花蓮縣花蓮市中央路三段844號"
  },
  {
    "name": "花蓮縣花蓮市國裕里辦公處",
    "lat": 23.99468,
    "lng": 121.59377,
    "address": "970花蓮縣花蓮市富祥街12號"
  },
  {
    "name": "行政院勞動部勞工保險局花蓮辦事處洽公櫃台",
    "lat": 23.994707,
    "lng": 121.597774,
    "address": "970花蓮縣花蓮市富吉路43號"
  },
  {
    "name": "慈濟文化園區(靜思堂)",
    "lat": 23.9949891,
    "lng": 121.5886202,
    "address": "970花蓮縣花蓮市中央路三段703號"
  },
  {
    "name": "花蓮縣花蓮市明廉國民小學",
    "lat": 23.995329,
    "lng": 121.594899,
    "address": "970花蓮縣花蓮市中山路903號"
  },
  {
    "name": "花蓮縣立自強國民中學",
    "lat": 23.998206,
    "lng": 121.599319,
    "address": "970花蓮縣花蓮市裕祥路89號"
  }
]
