[
  {
    "dataType": "charging",
    "name": "岡山仁壽路郵局",
    "lat": 22.78586,
    "lng": 120.285783,
    "address": "820高雄市岡山區仁壽路215號"
  },
  {
    "dataType": "charging",
    "name": "水利署第六河川局1樓服務台",
    "lat": 22.790288,
    "lng": 120.287453,
    "address": "820高雄市岡山區鎮柳橋西路15號"
  },
  {
    "dataType": "charging",
    "name": "岡山郵局",
    "lat": 22.792104,
    "lng": 120.297054,
    "address": "820高雄市岡山區民有路68號"
  },
  {
    "dataType": "charging",
    "name": "岡山平和路郵局",
    "lat": 22.794419,
    "lng": 120.294782,
    "address": "820高雄市岡山區平和路65號"
  },
  {
    "dataType": "charging",
    "name": "高雄市岡山區戶政事務所",
    "lat": 22.797359,
    "lng": 120.295218,
    "address": "820高雄市岡山區岡山路345巷1號"
  },
  {
    "dataType": "charging",
    "name": "自來水公司岡山服務所",
    "lat": 22.798137,
    "lng": 120.295658,
    "address": "820高雄市岡山區岡山路450號"
  }
]
