[
  {
    "name": "仁大工業區服務中心",
    "lat": 22.7256263,
    "lng": 120.3387977,
    "address": "815高雄市大社區經建路6號1樓"
  },
  {
    "name": "臺鐵局楠梓站候車室",
    "lat": 22.727062,
    "lng": 120.324309,
    "address": "811高雄市楠梓區建楠路229號"
  },
  {
    "name": "楠梓建楠郵局",
    "lat": 22.727281,
    "lng": 120.329878,
    "address": "811高雄市楠梓區建楠路3號"
  },
  {
    "name": "楠梓郵局",
    "lat": 22.728428,
    "lng": 120.325831,
    "address": "811高雄市楠梓區楠梓新路247號"
  },
  {
    "name": "高雄市楠梓區戶政事務所",
    "lat": 22.729918,
    "lng": 120.325913,
    "address": "811高雄市楠梓區楠梓新路264號1樓"
  },
  {
    "name": "高雄高等行政法院郵局",
    "lat": 22.731406,
    "lng": 120.335807,
    "address": "811高雄市楠梓區興楠路180號"
  },
  {
    "name": "台糖公司量販事業部楠梓量販店",
    "lat": 22.736824,
    "lng": 120.330781,
    "address": "811高雄市楠梓區土庫一路60號"
  }
]
