[
  {
    "dataType": "charging",
    "dataSource": "gov-data",
    "name": "台電公司小港服務所大廳",
    "lat": 22.565966,
    "lng": 120.342237,
    "address": "812高雄市小港區小港路118號6樓"
  },
  {
    "dataType": "charging",
    "dataSource": "gov-data",
    "name": "高雄臨海工業區服務中心",
    "lat": 22.56659,
    "lng": 120.345063,
    "address": "812高雄市小港區大業北路37號1樓"
  },
  {
    "dataType": "charging",
    "dataSource": "gov-data",
    "name": "中油公司高雄市服務中心",
    "lat": 22.569241,
    "lng": 120.347885,
    "address": "812高雄市小港區中山四路31號"
  },
  {
    "dataType": "charging",
    "dataSource": "gov-data",
    "name": "高雄二苓郵局",
    "lat": 22.569247,
    "lng": 120.347754,
    "address": "812高雄市小港區中山四路7、9、11號"
  },
  {
    "dataType": "charging",
    "dataSource": "gov-data",
    "name": "高雄國際航空站國內航廈2樓",
    "lat": 22.570937,
    "lng": 120.345236,
    "address": "812高雄市小港區中山四路2號"
  }
]
