[
  {
    "id": "e931c266-1a10-5341-aa4d-6452d756cc43",
    "dataType": "charging",
    "dataSource": "gov-data",
    "name": "高雄民族社區郵局",
    "lat": 22.640332,
    "lng": 120.316542,
    "address": "807高雄市三民區九如一路952號"
  },
  {
    "id": "fa4e0368-b53a-5e7d-903b-e3c7efac94f8",
    "dataType": "charging",
    "dataSource": "gov-data",
    "name": "高雄站後郵局",
    "lat": 22.642173,
    "lng": 120.303117,
    "address": "807高雄市三民區博愛一路28號"
  },
  {
    "id": "80d25556-019f-54d3-ade7-39accbbe547f",
    "dataType": "charging",
    "dataSource": "gov-data",
    "name": "高雄德智郵局",
    "lat": 22.643529,
    "lng": 120.311174,
    "address": "807高雄市三民區德智里熱河一街84、86號"
  },
  {
    "id": "5ed45242-a9ad-5dcd-94b9-e10f416d7063",
    "dataType": "charging",
    "dataSource": "gov-data",
    "name": "高雄灣仔內郵局",
    "lat": 22.647844,
    "lng": 120.317341,
    "address": "807高雄市三民區建工路679、681號"
  },
  {
    "id": "ba3d3a12-00bc-5eab-b014-34ada02b7f88",
    "dataType": "charging",
    "dataSource": "gov-data",
    "name": "高雄醫學大學郵局",
    "lat": 22.648868,
    "lng": 120.309949,
    "address": "807高雄市三民區十全一路100號"
  },
  {
    "id": "2e100458-db3b-5132-b466-aadd574ea1a4",
    "dataType": "charging",
    "dataSource": "gov-data",
    "name": "高雄博愛路郵局",
    "lat": 22.650942,
    "lng": 120.303986,
    "address": "807高雄市三民區博愛一路372號1樓"
  }
]
