[
  {
    "name": "鳳山中山路郵局",
    "lat": 22.621965,
    "lng": 120.361007,
    "address": "830高雄市鳳山區大東一路122、124號"
  },
  {
    "name": "鳳山中山東路郵局",
    "lat": 22.624311,
    "lng": 120.371934,
    "address": "830高雄市鳳山區中山東路86-2號"
  },
  {
    "name": "高雄市鳳山區第一戶政事務所",
    "lat": 22.627836,
    "lng": 120.363035,
    "address": "830高雄市鳳山區經武路34巷1號"
  },
  {
    "name": "自來水公司鳳山服務所",
    "lat": 22.628639,
    "lng": 120.362064,
    "address": "830高雄市鳳山區光復路11號"
  },
  {
    "name": "鳳山鳳松路郵局",
    "lat": 22.632412,
    "lng": 120.360935,
    "address": "830高雄市鳳山區鳳松路11號"
  },
  {
    "name": "鳳山工協郵局",
    "lat": 22.633745,
    "lng": 120.374556,
    "address": "830高雄市鳳山區勝利路50號"
  },
  {
    "name": "鳳山鎮北郵局",
    "lat": 22.635951,
    "lng": 120.364175,
    "address": "830高雄市鳳山區經武路166、168號"
  }
]
