[
  {
    "name": "金門烈嶼郵局",
    "lat": 24.430222,
    "lng": 118.246608,
    "address": "894金門縣烈嶼鄉林湖村西宅7-5號"
  },
  {
    "name": "金門縣烈嶼鄉東林社區發展協會",
    "lat": 24.42744,
    "lng": 118.24855,
    "address": "894金門縣烈嶼鄉上林村東林24號"
  },
  {
    "name": "金門縣烈嶼鄉東坑社區發展協會",
    "lat": 24.4279737,
    "lng": 118.2351192,
    "address": "894金門縣烈嶼鄉西口村東坑11號"
  },
  {
    "name": "烈嶼鄉埔頭社區照顧關懷據點",
    "lat": 24.42885,
    "lng": 118.24754,
    "address": "894金門縣烈嶼鄉埔頭2-2號"
  },
  {
    "name": "金門縣烈嶼鄉公所-1F服務台",
    "lat": 24.429517,
    "lng": 118.244533,
    "address": "894金門縣烈嶼鄉西路60號"
  },
  {
    "name": "金門縣烈嶼圖書館-借書登記區",
    "lat": 24.428933,
    "lng": 118.242824,
    "address": "894金門縣烈嶼鄉后井40號"
  },
  {
    "name": "金門縣烈嶼鄉衛生所-掛號區",
    "lat": 24.43033,
    "lng": 118.246901,
    "address": "894金門縣烈嶼鄉林湖村西宅46號"
  },
  {
    "name": "金門烈嶼文化館(1樓入口)",
    "lat": 24.431174,
    "lng": 118.244725,
    "address": "894金門縣烈嶼鄉西路1-1號"
  },
  {
    "name": "金門烈嶼地雷主題館-勇士堡(服務中心)",
    "lat": 24.447694,
    "lng": 118.251918,
    "address": "894金門縣烈嶼鄉黃埔村-黃厝"
  },
  {
    "name": "金門烈嶼體育館",
    "lat": 24.4294916,
    "lng": 118.23915,
    "address": "894金門縣烈嶼鄉后井42號"
  },
  {
    "name": "金門烈嶼車站",
    "lat": 24.4279728,
    "lng": 118.2351227,
    "address": "894金門縣烈嶼鄉林湖村湖下35號之1"
  }
]