[
  {
    "name": "金門縣金城鎮前水頭社區發展協會",
    "lat": 24.4114703,
    "lng": 118.2999647,
    "address": "893金門縣金城鎮金水里前水頭150-1號"
  },
  {
    "name": "金門縣金城鎮古崗社區發展協會",
    "lat": 24.3999311,
    "lng": 118.3130449,
    "address": "893金門縣金城鎮古城里大古崗2-2號"
  },
  {
    "name": "金門古崗社區發展協會",
    "lat": 24.397906,
    "lng": 118.315732,
    "address": "893金門縣金城鎮小古崗40-2號"
  },
  {
    "name": "金門南門天后宮",
    "lat": 24.416667,
    "lng": 118.316667,
    "address": "893金門縣金城鎮民族路286巷"
  },
  {
    "name": "金門葉華成紀念館",
    "lat": 24.399332,
    "lng": 118.305787,
    "address": "893金門縣金城鎮金門城51號"
  }
]