[
  {
    "name": "台電公司尖山發電廠展示館",
    "lat": 23.570674,
    "lng": 119.664717,
    "address": "885澎湖縣湖西鄉尖山村29-2號"
  },
  {
    "name": "澎湖縣湖西鄉湖西社區發展協會",
    "lat": 23.58554,
    "lng": 119.658567,
    "address": "885澎湖縣湖西鄉湖西村湖西11之6號"
  },
  {
    "name": "澎湖縣湖西鄉湖東社區發展協會",
    "lat": 23.581733,
    "lng": 119.662362,
    "address": "885澎湖縣湖西鄉湖東村湖東23之1號"
  },
  {
    "name": "澎湖縣湖西鄉戶政事務所",
    "lat": 23.584922,
    "lng": 119.658215,
    "address": "885澎湖縣湖西鄉湖西村6鄰湖西77號之10"
  },
  {
    "name": "澎湖縣湖西鄉公所",
    "lat": 23.58393,
    "lng": 119.652625,
    "address": "885澎湖縣湖西鄉湖西村43-11號"
  },
  {
    "name": "澎湖縣湖西鄉立幼兒園",
    "lat": 23.585257,
    "lng": 119.662649,
    "address": "885澎湖縣湖西鄉湖西村180號"
  }
]