[
  {
    "name": "望安郵局",
    "lat": 23.359482,
    "lng": 119.507482,
    "address": "882澎湖縣望安鄉東安村4-3號"
  },
  {
    "name": "望安航空站",
    "lat": 23.367423,
    "lng": 119.50319,
    "address": "882澎湖縣望安鄉中社村156號"
  },
  {
    "name": "望安綠蠵龜觀光保育中心",
    "lat": 23.364391,
    "lng": 119.50709,
    "address": "882澎湖縣望安鄉東安村1-4號"
  },
  {
    "name": "澎湖縣望安鄉西安社區發展協會",
    "lat": 23.357929,
    "lng": 119.497704,
    "address": "882澎湖縣望安鄉西安村望安26之2號"
  },
  {
    "name": "澎湖縣望安鄉東安社區發展協會",
    "lat": 23.356267,
    "lng": 119.502931,
    "address": "882澎湖縣望安鄉東安村望安17之1號"
  },
  {
    "name": "澎湖縣望安鄉戶政事務所",
    "lat": 23.357822,
    "lng": 119.500491,
    "address": "882澎湖縣望安鄉東安村5鄰73號之5"
  },
  {
    "name": "澎湖縣望安社會福利館",
    "lat": 23.356901,
    "lng": 119.49732,
    "address": "882澎湖縣望安鄉西安村121-3號"
  },
  {
    "name": "澎湖縣望安鄉公所",
    "lat": 23.357422,
    "lng": 119.500477,
    "address": "882澎湖縣望安鄉東安村73之7號"
  },
  {
    "name": "澎湖縣望安鄉立圖書館",
    "lat": 23.357301,
    "lng": 119.500172,
    "address": "882澎湖縣望安鄉73號"
  }
]