[
  {
    "name": "霧峰民生路郵局",
    "lat": 24.065922,
    "lng": 120.700407,
    "address": "413臺中市霧峰區民生路93號"
  },
  {
    "name": "霧峰郵局",
    "lat": 24.061629,
    "lng": 120.69855,
    "address": "413臺中市霧峰區中正路806號"
  },
  {
    "name": "水利署中區水資源局1樓服務台",
    "lat": 24.078469,
    "lng": 120.701841,
    "address": "413臺中市霧峰區峰堤路195號"
  },
  {
    "name": "水利署水利規劃試驗所1樓服務台",
    "lat": 24.0777879,
    "lng": 120.700328,
    "address": "413臺中市霧峰區中正路1340號"
  },
  {
    "name": "水利署第三河川局1樓服務台",
    "lat": 24.0794,
    "lng": 120.703397,
    "address": "413臺中市霧峰區峰堤路191號"
  },
  {
    "name": "中油公司台中市霧峰區霧峰站",
    "lat": 24.0619494,
    "lng": 120.6983727,
    "address": "413臺中市霧峰區中正路784號"
  },
  {
    "name": "自來水公司霧峰營運所",
    "lat": 24.068555,
    "lng": 120.699162,
    "address": "413臺中市霧峰區德泰街70巷5號"
  },
  {
    "name": "國立臺灣交響樂團行政大樓1F服務台",
    "lat": 24.059024,
    "lng": 120.699143,
    "address": "413臺中市霧峰區中正路738-2號"
  },
  {
    "name": "臺灣銀行霧峰分行",
    "lat": 24.062585,
    "lng": 120.698526,
    "address": "413臺中市霧峰區中正路838號"
  },
  {
    "name": "立法院中部辦公室議政博物館",
    "lat": 24.053124,
    "lng": 120.699854,
    "address": "413臺中市霧峰區中正路734號"
  },
  {
    "name": "財團法人台中市私立林蘭生慈善基金會",
    "lat": 24.056664,
    "lng": 120.696288,
    "address": "413臺中市霧峰區本堂里林森路346號"
  },
  {
    "name": "臺中市霧峰區萊園社區發展協會",
    "lat": 24.063636,
    "lng": 120.702266,
    "address": "413臺中市霧峰區萊園里萊園路57巷3號"
  },
  {
    "name": "臺中市霧峰區甲寅社區發展協會",
    "lat": 24.068024,
    "lng": 120.701077,
    "address": "413臺中市霧峰區甲寅里民生路125巷8號"
  },
  {
    "name": "臺中市霧峰區吉峰社區發展協會",
    "lat": 24.07557,
    "lng": 120.700974,
    "address": "413臺中市霧峰區吉峰里吉峰路184號一樓"
  },
  {
    "name": "臺中市霧峰區本堂社區發展協會",
    "lat": 24.059639,
    "lng": 120.697798,
    "address": "413臺中市霧峰區本堂里中正路749號"
  },
  {
    "name": "社團法人臺中市愛鄰舍關懷協會(功能型據點)",
    "lat": 24.059634,
    "lng": 120.69758,
    "address": "413臺中市霧峰區本堂里育成路6號"
  },
  {
    "name": "社團法人台灣省慈心協會(水安宮)",
    "lat": 24.066,
    "lng": 120.699,
    "address": "408臺中市南屯區溝墘里水安街6號"
  },
  {
    "name": "臺中市霧峰區公所",
    "lat": 24.061228,
    "lng": 120.700157,
    "address": "413臺中市霧峰區大同路20號"
  },
  {
    "name": "霧峰區公所",
    "lat": 24.061142,
    "lng": 120.700185,
    "address": "413臺中市霧峰區大同路20號"
  },
  {
    "name": "霧峰區戶政事務所",
    "lat": 24.07559,
    "lng": 120.700504,
    "address": "413臺中市霧峰區吉峰路16號"
  },
  {
    "name": "臺中市立圖書館霧峰以文分館",
    "lat": 24.061478,
    "lng": 120.698982,
    "address": "413臺中市霧峰區大同路8號"
  },
  {
    "name": "霧峰區衛生所",
    "lat": 24.06072,
    "lng": 120.700703,
    "address": "413臺中市霧峰區民生路1-9號"
  },
  {
    "name": "臺中市統一超商霧峰樹仁路育成店(公話)",
    "lat": 24.05947,
    "lng": 120.696465,
    "address": "413臺中市霧峰區樹仁路161號-1"
  },
  {
    "name": "臺中市霧峰樹仁商圈(育智街26號)",
    "lat": 24.0621399,
    "lng": 120.6970689,
    "address": "413臺中市霧峰區育智街26號(交接箱TCWF4011)"
  },
  {
    "name": "統一超商大里中興路草湖店(公話)",
    "lat": 24.080434,
    "lng": 120.698226,
    "address": "412臺中市大里區中興路一段11號-6(公話)"
  },
  {
    "name": "全家便利商店大里東南路東芳店(公話)",
    "lat": 24.079718,
    "lng": 120.694712,
    "address": "412臺中市大里區東南路142號-1"
  },
  {
    "name": "臺中市大里東湖社區活動中心(公話)",
    "lat": 24.0768369,
    "lng": 120.6931785,
    "address": "412臺中市大里區東南路207巷36號(公話)"
  },
  {
    "name": "統一超商大里大峰路大峰店(公話)",
    "lat": 24.0780322,
    "lng": 120.6889335,
    "address": "412臺中市大里區大峰路167號(公話)"
  },
  {
    "name": "臺中市公車霧峰站",
    "lat": 24.063669,
    "lng": 120.698596,
    "address": "413臺中市霧峰區中正路865號"
  },
  {
    "name": "臺中市公車霧峰郵局站",
    "lat": 24.06178,
    "lng": 120.698449,
    "address": "413臺中市霧峰區中正路806號"
  },
  {
    "name": "臺中市公車霧峰農工站",
    "lat": 24.073093,
    "lng": 120.699916,
    "address": "413臺中市霧峰區中正路1222號"
  },
  {
    "name": "臺中市公車中正草湖路口站",
    "lat": 24.068427,
    "lng": 120.699322,
    "address": "413臺中市霧峰區中正路1070號"
  },
  {
    "name": "臺中市霧峰公有零售市場",
    "lat": 24.065713,
    "lng": 120.698957,
    "address": "413臺中市霧峰區中正路958號2樓"
  },
  {
    "name": "台中市政府警察局霧峰交通隊",
    "lat": 24.0657711,
    "lng": 120.6963341,
    "address": "413臺中市霧峰區四德路82號"
  },
  {
    "name": "全家便利商店霧峰民生路新六順店(公話)",
    "lat": 24.0707428,
    "lng": 120.7030144,
    "address": "413臺中市霧峰區民生路201號"
  },
  {
    "name": "統一超商霧峰德泰街吉峰店(公話)",
    "lat": 24.068698,
    "lng": 120.699313,
    "address": "413臺中市霧峰區德泰街9號"
  },
  {
    "name": "全家便利商店霧峰錦州路新錦峰店(公話)",
    "lat": 24.07667,
    "lng": 120.70719,
    "address": "413臺中市霧峰區錦州路331號"
  }
]