[
  {
    "name": "梓官郵局",
    "lat": 22.761123,
    "lng": 120.26866,
    "address": "826高雄市梓官區梓義村中崙路260號"
  },
  {
    "name": "第一商業銀行(梓本分行)",
    "lat": 22.7325008,
    "lng": 120.2547164,
    "address": "826高雄市梓官區中正路306號"
  },
  {
    "name": "高雄市梓官區梓義社區發展協會",
    "lat": 22.761852,
    "lng": 120.263662,
    "address": "826高雄市梓官區梓義里進學路57號"
  },
  {
    "name": "高雄市梓官區梓和社區發展協會",
    "lat": 22.758858,
    "lng": 120.265548,
    "address": "826高雄市梓官區梓和里大宅街38號"
  },
  {
    "name": "高雄市赤慈長青會",
    "lat": 22.734064,
    "lng": 120.254994,
    "address": "826高雄市梓官區禮蚵里光明路62巷18號"
  },
  {
    "name": "中華悠樂關懷協會",
    "lat": 22.734504,
    "lng": 120.254895,
    "address": "826高雄市梓官區茄苳里嘉好路88號"
  },
  {
    "name": "高雄市橋頭區東林社區發展協會",
    "lat": 22.747,
    "lng": 120.277,
    "address": "825高雄市橋頭區東林里里林東路楊厝巷5之1號"
  },
  {
    "name": "高雄大學郵局",
    "lat": 22.7325096,
    "lng": 120.2812071,
    "address": "811高雄市楠梓區高雄大學路700號(學生活動中心1樓)"
  },
  {
    "name": "高雄市梓官區公所",
    "lat": 22.761125,
    "lng": 120.267248,
    "address": "826高雄市梓官區梓官路258號"
  },
  {
    "name": "高雄市立圖書館梓官分館",
    "lat": 22.762411,
    "lng": 120.266547,
    "address": "826高雄市梓官區梓官路263號"
  },
  {
    "name": "高雄市梓官區戶政事務所",
    "lat": 22.761125,
    "lng": 120.266368,
    "address": "826高雄市梓官區進學路5號"
  }
]