[
  {
    "name": "埤頭郵局",
    "lat": 23.891313,
    "lng": 120.460588,
    "address": "523彰化縣埤頭鄉合興村斗苑西路187號"
  },
  {
    "name": "福興(兼埤頭及田中)工業區服務中心-埤頭",
    "lat": 23.8796711,
    "lng": 120.459054,
    "address": "523彰化縣埤頭鄉崙腳村興工路1號1樓"
  },
  {
    "name": "彰化縣埤頭鄉立圖書館",
    "lat": 23.893213,
    "lng": 120.458766,
    "address": "523彰化縣埤頭鄉合興村文鄉路135號"
  },
  {
    "name": "彰化縣埤頭鄉公所",
    "lat": 23.89157,
    "lng": 120.462104,
    "address": "523彰化縣埤頭鄉合興村斗苑西路138號"
  },
  {
    "name": "彰化縣埤頭鄉公所_2樓禮堂",
    "lat": 23.891395,
    "lng": 120.462202,
    "address": "523彰化縣埤頭鄉合興村斗苑西路138號2樓"
  },
  {
    "name": "彰化縣北斗戶政事務所埤頭辦公室",
    "lat": 23.891903,
    "lng": 120.457959,
    "address": "523彰化縣埤頭鄉合興村斗苑西路315號"
  },
  {
    "name": "彰化縣埤頭鄉立圖書館_1樓禮堂",
    "lat": 23.893219,
    "lng": 120.458753,
    "address": "523彰化縣埤頭鄉合興村文鄉路135號1樓"
  },
  {
    "name": "彰化縣埤頭鄉立圖書館_2樓自習室",
    "lat": 23.893219,
    "lng": 120.458753,
    "address": "523彰化縣埤頭鄉合興村文鄉路135號2樓"
  },
  {
    "name": "彰化縣埤頭鄉老人文康中心",
    "lat": 23.889614,
    "lng": 120.459726,
    "address": "523彰化縣埤頭鄉安康街72號"
  },
  {
    "name": "彰化縣埤頭鄉衛生所",
    "lat": 23.894809,
    "lng": 120.457299,
    "address": "523彰化縣埤頭鄉合興村健安街119號"
  },
  {
    "name": "彰化縣警察局北斗分局埤頭分駐所",
    "lat": 23.891861,
    "lng": 120.458136,
    "address": "523彰化縣埤頭鄉合興村斗苑西路305號"
  },
  {
    "name": "彰化縣埤頭鄉農會-彰化百寶村特色產物館",
    "lat": 23.891603,
    "lng": 120.463424,
    "address": "523彰化縣埤頭鄉斗苑西路92號"
  }
]