[
  {
    "name": "前鎮科技園區郵局",
    "lat": 22.601362,
    "lng": 120.291241,
    "address": "806高雄市前鎮區中四路1號"
  },
  {
    "name": "前鎮郵局",
    "lat": 22.588895,
    "lng": 120.306318,
    "address": "806高雄市前鎮區前鎮街92號"
  },
  {
    "name": "高雄君毅郵局",
    "lat": 22.601497,
    "lng": 120.306329,
    "address": "806高雄市前鎮區中華五路963號"
  },
  {
    "name": "財政部高雄市國稅局前鎮稽徵所高雄加工出口區服務處",
    "lat": 22.6001048,
    "lng": 120.2902288,
    "address": "806高雄市前鎮區中1路2號"
  },
  {
    "name": "自來水公司高雄服務所",
    "lat": 22.60828,
    "lng": 120.30828,
    "address": "806高雄市前鎮區復興三路131號"
  },
  {
    "name": "中油公司高雄直銷中心",
    "lat": 22.593947,
    "lng": 120.303998,
    "address": "806高雄市前鎮區成功二路15號"
  },
  {
    "name": "經濟部加工出口區管理處高雄分處1、2樓洽公區",
    "lat": 22.6012795,
    "lng": 120.2919236,
    "address": "806高雄市前鎮區高雄加工出口區中一路2號"
  },
  {
    "name": "兆豐國際商銀高加分行",
    "lat": 22.601343,
    "lng": 120.290567,
    "address": "806高雄市前鎮區中四路2號"
  },
  {
    "name": "兆豐國際商銀成功簡易分行",
    "lat": 22.599502,
    "lng": 120.302627,
    "address": "806高雄市前鎮區成功二路88號"
  },
  {
    "name": "台電公司南部發電廠電力展示館",
    "lat": 22.602339,
    "lng": 120.301098,
    "address": "806高雄市前鎮區成功二路5號"
  },
  {
    "name": "高雄軟體科技園區",
    "lat": 22.604572,
    "lng": 120.299617,
    "address": "806高雄市前鎮區復興四路10號3樓-3"
  },
  {
    "name": "中油公司石化事業部前鎮所1樓會客區",
    "lat": 22.584137,
    "lng": 120.309091,
    "address": "806高雄市前鎮區新生路11號1樓"
  },
  {
    "name": "勞動部勞動力發展署高屏澎東分署洽公服務櫃台",
    "lat": 22.593632,
    "lng": 120.308601,
    "address": "806高雄市前鎮區凱旋四路105號"
  },
  {
    "name": "勞動部勞動力發展署高屏澎東分署學員宿舍交誼廳",
    "lat": 22.593632,
    "lng": 120.308601,
    "address": "806高雄市前鎮區凱旋四路105號"
  },
  {
    "name": "臺灣銀行高雄加工出口區分行",
    "lat": 22.601412,
    "lng": 120.29174,
    "address": "806高雄市前鎮區高雄加工出口區中一路1號"
  },
  {
    "name": "臺灣銀行前鎮分行",
    "lat": 22.591201,
    "lng": 120.305195,
    "address": "806高雄市前鎮區擴建路1-3號"
  },
  {
    "name": "經濟部加工出口區管理處高雄分處第1訓練教室",
    "lat": 22.601064,
    "lng": 120.29233,
    "address": "806高雄市前鎮區高雄加工出口區中一路2號"
  },
  {
    "name": "勞動部勞動力發展署高屏澎東分署視聽大樓B101會議室",
    "lat": 22.593632,
    "lng": 120.308601,
    "address": "806高雄市前鎮區凱旋四路105號"
  },
  {
    "name": "勞動部勞動力發展署高屏澎東分署活動中心一樓C101會議室",
    "lat": 22.593632,
    "lng": 120.308601,
    "address": "806高雄市前鎮區凱旋四路105號"
  },
  {
    "name": "內政部警政署高雄港務警察總隊中島中隊",
    "lat": 22.603066,
    "lng": 120.292525,
    "address": "806高雄市前鎮區大華一路34號"
  },
  {
    "name": "高雄軟體園區服務中心_AP1",
    "lat": 22.604712,
    "lng": 120.299676,
    "address": "806高雄市前鎮區復興四路10號3樓-3"
  },
  {
    "name": "海洋委員會1",
    "lat": 22.605333,
    "lng": 120.300165,
    "address": "806高雄市前鎮區成功二路25號5樓"
  },
  {
    "name": "海洋委員會2",
    "lat": 22.605333,
    "lng": 120.300165,
    "address": "806高雄市前鎮區成功二路25號7樓"
  },
  {
    "name": "勞動部勞動力發展署高屏澎東分署行政大樓A303會議室",
    "lat": 22.593639,
    "lng": 120.308611,
    "address": "806高雄市前鎮區凱旋四路105號"
  },
  {
    "name": "高雄成功物流園區",
    "lat": 22.597993,
    "lng": 120.304998,
    "address": "806高雄市前鎮區成功二路4號"
  },
  {
    "name": "勞動部勞動力發展署高屏澎東分署活動中心3樓創客小棧",
    "lat": 22.59344,
    "lng": 120.30845,
    "address": "806高雄市前鎮區凱旋四路105號"
  },
  {
    "name": "台灣愛修更新協會",
    "lat": 22.601,
    "lng": 120.306,
    "address": "806高雄市前鎮區西山里一心二路25號地下一層"
  },
  {
    "name": "高雄市前鎮區亞洲新灣獅甲社區發展協會",
    "lat": 22.601,
    "lng": 120.304,
    "address": "806高雄市前鎮區忠純里正勤路39號"
  },
  {
    "name": "高雄市前鎮區明義社區發展協會",
    "lat": 22.607,
    "lng": 120.305,
    "address": "806高雄市前鎮區明義里南衙路1號二樓"
  },
  {
    "name": "高雄市旗津區公所",
    "lat": 22.59018,
    "lng": 120.28437,
    "address": "805高雄市旗津區旗津三路2號"
  },
  {
    "name": "高雄市政府勞工局勞工教育生活中心獅甲會館",
    "lat": 22.607912,
    "lng": 120.309713,
    "address": "806高雄市前鎮區中山三路132號"
  },
  {
    "name": "旗津戰爭與和平紀念公園主題館",
    "lat": 22.591486,
    "lng": 120.282861,
    "address": "805高雄市旗津區旗津二路701號"
  }
]