[
  {
    "name": "竹山東埔蚋郵局",
    "lat": 23.765007,
    "lng": 120.704607,
    "address": "557南投縣竹山鎮集山路三段99號"
  },
  {
    "name": "竹山郵局",
    "lat": 23.756857,
    "lng": 120.682149,
    "address": "557南投縣竹山鎮前山路一段2號"
  },
  {
    "name": "南崗(兼竹山)工業區服務中心-竹山",
    "lat": 23.768222,
    "lng": 120.704792,
    "address": "557南投縣竹山鎮延平一路5號1樓"
  },
  {
    "name": "自來水公司竹山營運所",
    "lat": 23.760108,
    "lng": 120.682875,
    "address": "557南投縣竹山鎮大明路356號"
  },
  {
    "name": "南投縣竹山鎮桂林社區發展協會",
    "lat": 23.747243,
    "lng": 120.69603,
    "address": "557南投縣竹山鎮桂林里中山路38之1號"
  },
  {
    "name": "財團法人中華民國佛教慈濟慈善事業基金會",
    "lat": 23.760458,
    "lng": 120.694159,
    "address": "557南投縣竹山鎮延和里18鄰大智路52號"
  },
  {
    "name": "社團法人南投縣竹山鎮竹圍社區發展協會",
    "lat": 23.760519,
    "lng": 120.681973,
    "address": "557南投縣竹山鎮竹圍里下橫街248號"
  },
  {
    "name": "南投縣竹山鎮延正社區發展協會",
    "lat": 23.772992,
    "lng": 120.697891,
    "address": "557南投縣竹山鎮延正里延正路70號"
  },
  {
    "name": "南投縣竹山鎮包府社區發展協會",
    "lat": 23.75581,
    "lng": 120.683309,
    "address": "557南投縣竹山鎮中正里橫街80號二樓"
  },
  {
    "name": "南投縣竹山鎮竹山社區發展協會",
    "lat": 23.756,
    "lng": 120.683,
    "address": "557南投縣竹山鎮竹山里橫街90號二樓"
  },
  {
    "name": "南投縣私立迦南居家式長期照顧服務機構(桂林1)",
    "lat": 23.7522613,
    "lng": 120.6914536,
    "address": "557南投縣竹山鎮桂林里中山路7-80號"
  },
  {
    "name": "南投縣私立迦南居家式長期照顧服務機構(延和)",
    "lat": 23.7615376,
    "lng": 120.6899263,
    "address": "557南投縣竹山鎮大和街42號"
  },
  {
    "name": "南投縣私立迦南居家式長期照顧服務機構(延祥)",
    "lat": 23.758934,
    "lng": 120.7019364,
    "address": "557南投縣竹山鎮鹿山路284巷13號"
  },
  {
    "name": "南投縣私立迦南居家式長期照顧服務機構(桂林2)",
    "lat": 23.7548447,
    "lng": 120.6970234,
    "address": "557南投縣竹山鎮桂林里中正巷13-7號"
  },
  {
    "name": "私立康能護理之家",
    "lat": 23.7702761,
    "lng": 120.7075469,
    "address": "557南投縣竹山鎮集山路二段1101號"
  },
  {
    "name": "南投縣政府警察局竹山分局",
    "lat": 23.75702,
    "lng": 120.682813,
    "address": "557南投縣竹山鎮集山路三段968號"
  },
  {
    "name": "南投縣政府竹鹿區綜合社會福利館",
    "lat": 23.758356,
    "lng": 120.681804,
    "address": "557南投縣竹山鎮大禮路50號"
  }
]