[
  {
    "name": "臺中市大安區松雅社區發展協會(功能型據點)",
    "lat": 24.361389,
    "lng": 120.603673,
    "address": "439臺中市大安區松雅里松一街1號"
  },
  {
    "name": "臺中市大安區西安社區發展協會",
    "lat": 24.370644,
    "lng": 120.594949,
    "address": "439臺中市大安區西安里西安社區活動中心(南北八路52號)"
  },
  {
    "name": "全家大安海墘店",
    "lat": 24.37758,
    "lng": 120.59119,
    "address": "439臺中市大安區大安港路1021號(交接箱THTC3241)"
  },
  {
    "name": "臺中市公車大安國中站",
    "lat": 24.3651798,
    "lng": 120.6024184,
    "address": "439臺中市大安區大安港路691號"
  },
  {
    "name": "大安休息站",
    "lat": 24.3790712,
    "lng": 120.5920083,
    "address": "439臺中市大安區東西六路二段189號"
  }
]