[
  {
    "name": "大雅馬岡厝郵局",
    "lat": 24.217824,
    "lng": 120.668151,
    "address": "428臺中市大雅區西寶村中正路162-12號"
  },
  {
    "name": "台中市潭子區大富社區發展協會",
    "lat": 24.225202,
    "lng": 120.68131,
    "address": "427臺中市潭子區大富里民族路三段35號"
  },
  {
    "name": "臺中市大雅區大楓社區發展協會",
    "lat": 24.229913,
    "lng": 120.668147,
    "address": "428臺中市大雅區上楓里德勝路323號"
  },
  {
    "name": "臺中市大雅區上楓社區發展協會",
    "lat": 24.234652,
    "lng": 120.666845,
    "address": "428臺中市大雅區上楓里雅楓街108號"
  },
  {
    "name": "臺中市大雅區西寶社區發展協會",
    "lat": 24.216063,
    "lng": 120.667944,
    "address": "428臺中市大雅區西寶里雅潭路三段600號)"
  },
  {
    "name": "臺中市大雅區上雅社區發展協會",
    "lat": 24.228107,
    "lng": 120.650893,
    "address": "428臺中市大雅區上雅里雅環路二段171巷19號"
  },
  {
    "name": "臺中市潭子區東寶社區發展協會",
    "lat": 24.20755,
    "lng": 120.677867,
    "address": "427臺中市潭子區東寶里昌平路三段492巷170弄21號"
  },
  {
    "name": "統一超商大雅民生路上楓店(公話)",
    "lat": 24.235805,
    "lng": 120.666896,
    "address": "428臺中市大雅區民生路三段523號"
  },
  {
    "name": "全家便利商店大雅民生路楓林店(公話)",
    "lat": 24.234665,
    "lng": 120.665986,
    "address": "428臺中市大雅區民生路三段458號"
  },
  {
    "name": "統一超商大雅雅潭路雅興店(公話)",
    "lat": 24.216457,
    "lng": 120.666227,
    "address": "428臺中市大雅區雅潭路四段81號(公話)"
  },
  {
    "name": "統一超商大雅昌平路雅神店(公話)",
    "lat": 24.2225,
    "lng": 120.669685,
    "address": "428臺中市大雅區昌平路四段286號"
  },
  {
    "name": "統一超商大雅神林南路神林店(公話)",
    "lat": 24.226068,
    "lng": 120.656369,
    "address": "428臺中市大雅區神林南路144號"
  },
  {
    "name": "萊爾富便利商店大雅雅潭路中潭店(公話)",
    "lat": 24.215925,
    "lng": 120.667499,
    "address": "428臺中市大雅區雅潭路四段86號"
  },
  {
    "name": "統一超商大雅雅潭路雅勝店(公話)",
    "lat": 24.220492,
    "lng": 120.656511,
    "address": "428臺中市大雅區雅潭路四段491號"
  },
  {
    "name": "統一超商大雅學府路興府店(公話)",
    "lat": 24.216534,
    "lng": 120.650766,
    "address": "428臺中市大雅區學府路51號"
  },
  {
    "name": "臺中市公車國際花市站",
    "lat": 24.2206993,
    "lng": 120.6574346,
    "address": "428臺中市大雅區雅潭路四段482號"
  }
]