[
  {
    "name": "大雅郵局",
    "lat": 24.223208,
    "lng": 120.647768,
    "address": "428臺中市大雅區中清路二段127號"
  },
  {
    "name": "兆豐國際商銀中科簡易分行",
    "lat": 24.226596,
    "lng": 120.629561,
    "address": "428臺中市大雅區科雅路28號2樓"
  },
  {
    "name": "第一商業銀行(大雅分行)",
    "lat": 24.2227134,
    "lng": 120.6480663,
    "address": "428臺中市大雅區中清東路96號"
  },
  {
    "name": "臺灣銀行大雅分行",
    "lat": 24.2221045,
    "lng": 120.6450243,
    "address": "428臺中市大雅區中清路三段1080號"
  },
  {
    "name": "臺中市十三寮聚落發展協會",
    "lat": 24.226732,
    "lng": 120.625821,
    "address": "428臺中市大雅區秀山里平和南路120號"
  },
  {
    "name": "臺中市大雅區橫山社區發展協會",
    "lat": 24.210051,
    "lng": 120.633182,
    "address": "428臺中市大雅區橫山里振興路228號"
  },
  {
    "name": "臺中市大雅區文雅社區發展協會",
    "lat": 24.215834,
    "lng": 120.646176,
    "address": "428臺中市大雅區文雅里中和六路118號"
  },
  {
    "name": "臺中市大雅區秀山社區發展協會",
    "lat": 24.222617,
    "lng": 120.632219,
    "address": "428臺中市大雅區秀山里秀山路352號一樓"
  },
  {
    "name": "臺中市大雅區大雅社區發展協會",
    "lat": 24.222668,
    "lng": 120.647787,
    "address": "428臺中市大雅區大雅里永和路222號"
  },
  {
    "name": "臺中市潭子區社區健康營造推廣協會(功能性據點)",
    "lat": 24.236,
    "lng": 120.622,
    "address": "427臺中市潭子區嘉仁里仁愛路二段44號"
  },
  {
    "name": "大雅區公所",
    "lat": 24.22911,
    "lng": 120.647768,
    "address": "428臺中市大雅區雅環路二段301號"
  },
  {
    "name": "大雅區戶政事務所",
    "lat": 24.229192,
    "lng": 120.648406,
    "address": "428臺中市大雅區雅環路二段299號2樓"
  },
  {
    "name": "臺中市立圖書館大雅分館",
    "lat": 24.221774,
    "lng": 120.650204,
    "address": "428臺中市大雅區雅潭路四段800號"
  },
  {
    "name": "大雅區衛生所",
    "lat": 24.224992,
    "lng": 120.646896,
    "address": "428臺中市大雅區中清東路232號"
  },
  {
    "name": "生命禮儀管理處十三公墓",
    "lat": 24.206263,
    "lng": 120.623167,
    "address": "407臺中市西屯區西平北巷1-12號"
  },
  {
    "name": "原住民綜合服務中心",
    "lat": 24.235317,
    "lng": 120.622337,
    "address": "428臺中市大雅區忠義里仁愛路69號"
  },
  {
    "name": "統一超商大雅中山北路雙喜店(公話)",
    "lat": 24.218366,
    "lng": 120.646923,
    "address": "428臺中市大雅區中山北路167號"
  },
  {
    "name": "統一超商大雅中山北路亞和店(公話)",
    "lat": 24.22204,
    "lng": 120.645436,
    "address": "428臺中市大雅區中山北路410號"
  },
  {
    "name": "全家便利商店大雅中清東路好雅店(公話)",
    "lat": 24.223744,
    "lng": 120.64783,
    "address": "428臺中市大雅區中清東路171號"
  },
  {
    "name": "全家便利商店大雅中清路中科店(公話)",
    "lat": 24.227982,
    "lng": 120.643278,
    "address": "428臺中市大雅區中清路四段61號"
  },
  {
    "name": "統一超商大雅永和路通山店(公話)",
    "lat": 24.208395,
    "lng": 120.629838,
    "address": "428臺中市大雅區永和路11號-18"
  },
  {
    "name": "全家便利商店大雅永和路永和店(公話)",
    "lat": 24.210175,
    "lng": 120.630293,
    "address": "428臺中市大雅區永和路89號"
  },
  {
    "name": "統一超商大雅中山路廣裕店(公話)",
    "lat": 24.208935,
    "lng": 120.644026,
    "address": "428臺中市大雅區中山路145號(公話)"
  },
  {
    "name": "統一超商大雅雅環路環雅店(公話)",
    "lat": 24.229404,
    "lng": 120.647854,
    "address": "428臺中市大雅區雅環路二段320號"
  },
  {
    "name": "臺中市大雅第一公有零售市場(公話)",
    "lat": 24.2243885,
    "lng": 120.6490597,
    "address": "428臺中市大雅區大雅路50號之3(公話)"
  },
  {
    "name": "統一超商大雅學府路雅潭店(公話)",
    "lat": 24.221779,
    "lng": 120.649817,
    "address": "428臺中市大雅區學府路209號"
  },
  {
    "name": "臺中市公車大雅區大雅分局站",
    "lat": 24.225103,
    "lng": 120.646557,
    "address": "428臺中市大雅區中清東路251巷口(FYTY6912)"
  },
  {
    "name": "全家便利商店大雅永和路文雅店(公話)",
    "lat": 24.219583,
    "lng": 120.64222,
    "address": "428臺中市大雅區永和路127號之8"
  },
  {
    "name": "統一超商大雅中清路百達店(公話)",
    "lat": 24.211651,
    "lng": 120.650028,
    "address": "428臺中市大雅區中清路三段721號"
  }
]