[
  {
    "name": "竹塘郵局",
    "lat": 23.860872,
    "lng": 120.426886,
    "address": "525彰化縣竹塘鄉竹林路一段366號"
  },
  {
    "name": "彰化縣竹塘鄉公所",
    "lat": 23.860549,
    "lng": 120.427863,
    "address": "525彰化縣竹塘鄉竹林路一段305號"
  },
  {
    "name": "彰化縣竹塘鄉立圖書館",
    "lat": 23.860549,
    "lng": 120.427874,
    "address": "525彰化縣竹塘鄉竹林路一段305號4樓"
  },
  {
    "name": "彰化縣二林戶政事務所竹塘辦公室",
    "lat": 23.859584,
    "lng": 120.427752,
    "address": "525彰化縣竹塘鄉竹塘村竹林路一段253號"
  },
  {
    "name": "彰化縣竹塘鄉衛生所",
    "lat": 23.860506,
    "lng": 120.428202,
    "address": "525彰化縣竹塘鄉竹林路一段304號"
  },
  {
    "name": "彰化縣消防局竹塘分隊",
    "lat": 23.860271,
    "lng": 120.427859,
    "address": "525彰化縣竹塘鄉竹塘村竹林路一段285號"
  },
  {
    "name": "彰化縣警察局芳苑分局竹塘分駐所",
    "lat": 23.859598,
    "lng": 120.427769,
    "address": "525彰化縣竹塘鄉竹塘村竹林路一段255號"
  }
]