[
  {
    "name": "和美郵局",
    "lat": 24.111095,
    "lng": 120.499158,
    "address": "508彰化縣和美鎮彰美路五段331號"
  },
  {
    "name": "華南商業銀行和美分行",
    "lat": 24.110917,
    "lng": 120.499849,
    "address": "508彰化縣和美鎮彰美路五段300號"
  },
  {
    "name": "彰化縣和美鎮衛生所",
    "lat": 24.110995,
    "lng": 120.499334,
    "address": "508彰化縣和美鎮彰美路五段319號"
  },
  {
    "name": "彰化縣和美街長宿舍",
    "lat": 24.11224,
    "lng": 120.4982564,
    "address": "508彰化縣和美鎮彰美路五段391號"
  },
  {
    "name": "彰化縣警察局和美分局和美派出所",
    "lat": 24.111093,
    "lng": 120.499678,
    "address": "508彰化縣和美鎮和東里彰美路五段328號"
  },
  {
    "name": "彰化縣警察局和美分局大霞派出所",
    "lat": 24.101653,
    "lng": 120.503926,
    "address": "508彰化縣和美鎮大霞里彰和路三段420號"
  },
  {
    "name": "彰化縣警察局和美分局嘉犁派出所",
    "lat": 24.103122,
    "lng": 120.516522,
    "address": "508彰化縣和美鎮鐵山里彰美路三段418號"
  }
]