[
  {
    "name": "臺灣港務股份有限公司臺中港務分公司局大樓1樓",
    "lat": 24.2561973,
    "lng": 120.5235103,
    "address": "435臺中市梧棲區臺灣大道十段2號北棟"
  },
  {
    "name": "臺灣港務股份有限公司臺中港務分公司局大樓5樓",
    "lat": 24.2561973,
    "lng": 120.5235103,
    "address": "435臺中市梧棲區臺灣大道十段2號北棟"
  },
  {
    "name": "臺灣港務股份有限公司臺中港務分公司棧埠處(旅客服務中心)",
    "lat": 24.260722,
    "lng": 120.521411,
    "address": "435臺中市梧棲區中二路一段9號"
  },
  {
    "name": "臺灣港務股份有限公司臺中港務分公司資訊處",
    "lat": 24.2559684,
    "lng": 120.5237973,
    "address": "435臺中市梧棲區臺灣大道十段2號南棟"
  },
  {
    "name": "財政部關務署臺中關1樓海關服務檯",
    "lat": 24.256277,
    "lng": 120.523818,
    "address": "435臺中市梧棲區中棲路三段2號"
  },
  {
    "name": "台中港關連工業區服務中心",
    "lat": 24.237263,
    "lng": 120.523183,
    "address": "435臺中市梧棲區自強路280號"
  },
  {
    "name": "經濟部加工出口區管理處中港分處2樓洽公區",
    "lat": 24.2377469,
    "lng": 120.5168688,
    "address": "435臺中市梧棲區大觀路6號"
  },
  {
    "name": "財政部關務署臺中關2樓業務一組辦公廳",
    "lat": 24.256277,
    "lng": 120.523818,
    "address": "435臺中市梧棲區中棲路三段2號"
  },
  {
    "name": "經濟部標準檢驗局臺中分局臺中港口辦事處",
    "lat": 24.255889,
    "lng": 120.5216643,
    "address": "435臺中市梧棲區臺灣大道十段2號"
  },
  {
    "name": "財政部關務署臺中關駐臺中港科技產業園區辦公室",
    "lat": 24.23805,
    "lng": 120.51527,
    "address": "435臺中市梧棲區大業路16號3樓"
  },
  {
    "name": "臺中市梧棲區草湳社區發展協會(托老功能型)",
    "lat": 24.242138,
    "lng": 120.524338,
    "address": "435臺中市梧棲區草湳里梧南路50號"
  }
]