[
  {
    "name": "新市郵局",
    "lat": 23.07569,
    "lng": 120.293455,
    "address": "744臺南市新市區仁愛街217號"
  },
  {
    "name": "自來水公司新市服務所",
    "lat": 23.083333,
    "lng": 120.3,
    "address": "744臺南市新市區永就里永就55-7號"
  },
  {
    "name": "臺灣土地銀行新市分行",
    "lat": 23.080316,
    "lng": 120.295601,
    "address": "744臺南市新市區復興路10號"
  },
  {
    "name": "華南商業銀行新市分行",
    "lat": 23.075834,
    "lng": 120.291609,
    "address": "744臺南市新市區中正路232-1號"
  },
  {
    "name": "臺灣銀行臺南科學園區分行",
    "lat": 23.098465,
    "lng": 120.283111,
    "address": "744臺南市新市區南科三路15號1樓"
  },
  {
    "name": "臺灣臺南地方法院新市庭",
    "lat": 23.07245,
    "lng": 120.291308,
    "address": "744臺南市新市區富強路12號"
  },
  {
    "name": "臺南市新市區社內社區發展協會",
    "lat": 23.076,
    "lng": 120.294,
    "address": "744臺南市新市區社內91之22號"
  },
  {
    "name": "司法院(臺南地方法院-新市簡易庭)",
    "lat": 23.0724598,
    "lng": 120.290439,
    "address": "744臺南市新市區富強路12號"
  }
]