[
  {
    "name": "新園郵局",
    "lat": 22.54059,
    "lng": 120.460196,
    "address": "932屏東縣新園鄉仙吉村仙吉路40號"
  },
  {
    "name": "社團法人台灣宥青愛心關懷協會(新園村)",
    "lat": 22.521363,
    "lng": 120.453483,
    "address": "932屏東縣新園鄉新園村港崗路116號"
  },
  {
    "name": "屏東縣新園鄉園東關懷協會",
    "lat": 22.526242,
    "lng": 120.457553,
    "address": "932屏東縣新園鄉新東村平和路166號"
  },
  {
    "name": "屏東縣新園鄉港墘社區發展協會",
    "lat": 22.534257,
    "lng": 120.465069,
    "address": "932屏東縣新園鄉港墘村港庄路17號"
  },
  {
    "name": "屏東縣新園鄉健康營造協會",
    "lat": 22.5436,
    "lng": 120.460911,
    "address": "932屏東縣新園鄉仙吉村仙吉路89之2號"
  },
  {
    "name": "社團法人台灣宥青愛心關懷協會",
    "lat": 22.543624,
    "lng": 120.453634,
    "address": "932屏東縣新園鄉田洋村田南路118之5號"
  },
  {
    "name": "屏東縣佳冬鄉松竹梅協會",
    "lat": 22.529,
    "lng": 120.462,
    "address": "931屏東縣佳冬鄉佳冬村啟南路14號"
  },
  {
    "name": "屏東縣東港戶政事務所新園辦公室",
    "lat": 22.543582,
    "lng": 120.46159,
    "address": "932屏東縣新園鄉仙吉路142號"
  }
]