[
  {
    "name": "台中四張犁郵局",
    "lat": 24.192727,
    "lng": 120.681618,
    "address": "406臺中市北屯區仁和里四平路360號"
  },
  {
    "name": "台中松竹郵局",
    "lat": 24.185483,
    "lng": 120.699238,
    "address": "406臺中市北屯區松竹北路110號"
  },
  {
    "name": "潭子頭家厝郵局",
    "lat": 24.191148,
    "lng": 120.702279,
    "address": "427臺中市潭子區頭家村中山路一段25號"
  },
  {
    "name": "臺灣銀行水湳分行",
    "lat": 24.178709,
    "lng": 120.686075,
    "address": "406臺中市北屯區崇德路二段416號"
  },
  {
    "name": "臺鐵局松竹站候車室",
    "lat": 24.18231,
    "lng": 120.704481,
    "address": "406臺中市北屯區松竹路一段1473巷100號"
  },
  {
    "name": "臺鐵局松竹站第一月台",
    "lat": 24.18231,
    "lng": 120.704481,
    "address": "406臺中市北屯區松竹路一段1473巷100號"
  },
  {
    "name": "臺鐵局松竹站第二月台",
    "lat": 24.18231,
    "lng": 120.704481,
    "address": "406臺中市北屯區松竹路一段1473巷100號"
  },
  {
    "name": "臺鐵局頭家厝站第一月台",
    "lat": 24.194677,
    "lng": 120.703844,
    "address": "427臺中市潭子區頭張東路43巷8號"
  },
  {
    "name": "臺中市北屯區四民社區發展協會",
    "lat": 24.192056,
    "lng": 120.682803,
    "address": "406臺中市北屯區四民里昌平路二段68號"
  },
  {
    "name": "臺中市潭仔墘社區文化協會",
    "lat": 24.196029,
    "lng": 120.700106,
    "address": "427臺中市潭子區頭家里得天街33號"
  },
  {
    "name": "臺中市潭子區家福社區發展協會",
    "lat": 24.193202,
    "lng": 120.701927,
    "address": "427臺中市潭子區家福里中山路一段101巷7號"
  },
  {
    "name": "臺中市北屯區松勇社區發展協會",
    "lat": 24.18636,
    "lng": 120.699362,
    "address": "406臺中市北屯區松勇里松山街83號"
  },
  {
    "name": "臺中市潭子區家福健康促進協會",
    "lat": 24.194106,
    "lng": 120.698887,
    "address": "427臺中市潭子區家福里頭張路一段117巷10號"
  },
  {
    "name": "中華傳愛社區服務協會(幸福樂齡)",
    "lat": 24.181967,
    "lng": 120.685831,
    "address": "406臺中市北屯區大湖里崇德路三段1號"
  },
  {
    "name": "社團法人中華傳愛社區服務協會(三木日光)",
    "lat": 24.175041,
    "lng": 120.698402,
    "address": "406臺中市北屯區平興里北屯路409之42號"
  },
  {
    "name": "台中市北屯區松茂社區發展協會",
    "lat": 24.187171,
    "lng": 120.697952,
    "address": "406臺中市北屯區松茂里松義街257巷11號"
  },
  {
    "name": "社團法人臺中市珍愛加恩關懷協會",
    "lat": 24.193515,
    "lng": 120.687454,
    "address": "406臺中市北屯區仁美里豐樂路17之1號"
  },
  {
    "name": "臺中市北屯區松和社區發展協會",
    "lat": 24.182883,
    "lng": 120.69187,
    "address": "406臺中市北屯區松強里松竹路二段308號二樓"
  },
  {
    "name": "臺中市沐風60之長者之愛關懷協會(北屯據點)",
    "lat": 24.174989,
    "lng": 120.685906,
    "address": "406臺中市北屯區平福里崇德路二段252號B1"
  },
  {
    "name": "財團法人基督教台灣信義會",
    "lat": 24.182,
    "lng": 120.695,
    "address": "406臺中市北屯區北興里三光巷10號"
  },
  {
    "name": "財團法人臺中市私立無極證道院社會福利慈善事業基金會",
    "lat": 24.182,
    "lng": 120.695,
    "address": "406臺中市北屯區民政里橫坑巷46之2號"
  },
  {
    "name": "北屯區公所",
    "lat": 24.182691,
    "lng": 120.686494,
    "address": "406臺中市北屯區崇德路三段10號"
  },
  {
    "name": "北屯區戶政事務所",
    "lat": 24.182619,
    "lng": 120.686523,
    "address": "406臺中市北屯區崇德路三段10號1樓"
  },
  {
    "name": "臺中市公車松竹寺站",
    "lat": 24.1829056,
    "lng": 120.6924649,
    "address": "406臺中市北屯區松竹路二段304號旁(交接箱TCST1304)"
  },
  {
    "name": "臺中市公車崇德十路口站",
    "lat": 24.189468,
    "lng": 120.686231,
    "address": "406臺中市北屯區崇德路三段441號仁美公園旁(TCSC2022交接箱)"
  },
  {
    "name": "臺中市仁和公園",
    "lat": 24.185568,
    "lng": 120.686419,
    "address": "406臺中市北屯區崇德路三段與山西路三段路口(SC6060交接箱)"
  },
  {
    "name": "統一超商北屯北屯路昌順店(公話)",
    "lat": 24.17946,
    "lng": 120.700653,
    "address": "406臺中市北屯區北屯路439號-16"
  },
  {
    "name": "統一超商北屯昌平路松竹店(公話)",
    "lat": 24.180449,
    "lng": 120.689449,
    "address": "406臺中市北屯區昌平路二段11號-1"
  },
  {
    "name": "統一超商北屯昌平路昌旺店(公話)",
    "lat": 24.18266,
    "lng": 120.688096,
    "address": "406臺中市北屯區昌平路二段12號-16"
  },
  {
    "name": "統一超商北屯昌平路昌盛店(公話)",
    "lat": 24.191501,
    "lng": 120.683341,
    "address": "406臺中市北屯區昌平路二段45號-9"
  },
  {
    "name": "臺中捷運松竹站(公話)",
    "lat": 24.1807826,
    "lng": 120.7016384,
    "address": "406臺中市北屯區北屯路458號(公話)"
  },
  {
    "name": "臺中市公車松竹國小站",
    "lat": 24.18058,
    "lng": 120.68971,
    "address": "406臺中市北屯區昌平路二段松竹國小門口"
  },
  {
    "name": "全家便利商店北屯松竹路金強店(公話)",
    "lat": 24.182346,
    "lng": 120.689865,
    "address": "406臺中市北屯區松竹路二段366號-1"
  },
  {
    "name": "統一超商北屯松竹路雅樂店(公話)",
    "lat": 24.182901,
    "lng": 120.699069,
    "address": "406臺中市北屯區松竹路二段88號1樓"
  },
  {
    "name": "統一超商北屯松竹路松東店(公話)",
    "lat": 24.181668,
    "lng": 120.682176,
    "address": "406臺中市北屯區松竹路三段125號"
  },
  {
    "name": "全家便利商店北屯松義街真義店(公話)",
    "lat": 24.184445,
    "lng": 120.698366,
    "address": "406臺中市北屯區松義街166號"
  },
  {
    "name": "外埔東西巷久松超市(公話)",
    "lat": 24.176176,
    "lng": 120.683778,
    "address": "438臺中市外埔區東西巷83號(公話)"
  },
  {
    "name": "全家便利商店北屯崇德二路昌盛店(公話)",
    "lat": 24.176624,
    "lng": 120.691421,
    "address": "406臺中市北屯區崇德二路一段259號"
  },
  {
    "name": "統一超商北屯崇德六路松強店(公話)",
    "lat": 24.179779,
    "lng": 120.694766,
    "address": "406臺中市北屯區崇德六路一段47號"
  },
  {
    "name": "全家便利商店北屯松竹北路台中豐源店(公話)",
    "lat": 24.185402,
    "lng": 120.698428,
    "address": "406臺中市北屯區松竹北路150號(公話)"
  },
  {
    "name": "統一超商北屯崇德路豐樂店(公話)",
    "lat": 24.193564,
    "lng": 120.686682,
    "address": "406臺中市北屯區崇德路三段608號"
  },
  {
    "name": "崇德六路松和街口",
    "lat": 24.17993,
    "lng": 120.69353,
    "address": "406臺中市北屯區崇德六路一段99號前(TCST1262)"
  },
  {
    "name": "統一超商北屯興安路興昌店(公話)",
    "lat": 24.176414,
    "lng": 120.694834,
    "address": "406臺中市北屯區興安路二段60號"
  },
  {
    "name": "統一超商北屯松竹路金格店(公話)",
    "lat": 24.1820872,
    "lng": 120.7119926,
    "address": "406臺中市北屯區松竹路一段965號"
  },
  {
    "name": "統一超商潭子復興路大運通店(公話)",
    "lat": 24.2024369,
    "lng": 120.7063061,
    "address": "427臺中市潭子區復興路1段16號"
  },
  {
    "name": "統一超商潭子榮興街潭榮店(公話)",
    "lat": 24.187763,
    "lng": 120.701622,
    "address": "427臺中市潭子區榮興街19號"
  },
  {
    "name": "全家便利商店潭子榮興街榮興店(公話)",
    "lat": 24.188799,
    "lng": 120.70163,
    "address": "427臺中市潭子區榮興街57巷1號"
  },
  {
    "name": "臺中市公車中山中興路口站",
    "lat": 24.1916036,
    "lng": 120.7023979,
    "address": "427臺中市潭子區中山路一段45號之2前(FYTT3943交接箱內)"
  },
  {
    "name": "統一超商潭子頭張路頭張店(公話)",
    "lat": 24.194373,
    "lng": 120.701139,
    "address": "427臺中市潭子區頭張路一段31號"
  },
  {
    "name": "臺中市公車頭張土地公廟站",
    "lat": 24.19397,
    "lng": 120.69546,
    "address": "427臺中市潭子區頭張路二段112號對面(FYTT3916)"
  },
  {
    "name": "統一超商潭子頭張路榮晉店(公話)",
    "lat": 24.194749,
    "lng": 120.697795,
    "address": "427臺中市潭子區頭張路二段2號"
  },
  {
    "name": "臺中市公車頭家厝站",
    "lat": 24.194895,
    "lng": 120.702291,
    "address": "427臺中市潭子區中山路一段165號"
  },
  {
    "name": "臺中市公車崇德五路口站",
    "lat": 24.178733,
    "lng": 120.686111,
    "address": "406臺中市北屯區崇德路二段416號"
  },
  {
    "name": "臺中市公車崇德國中(民俗公園)站",
    "lat": 24.175108,
    "lng": 120.685428,
    "address": "406臺中市北屯區崇德路二段227號"
  },
  {
    "name": "臺中市公車捷運松竹站(北屯路)",
    "lat": 24.1805486,
    "lng": 120.7010795,
    "address": "406臺中市北屯區北屯路443號之8"
  }
]