[
  {
    "name": "苗栗縣通霄鎮平元社區發展協會",
    "lat": 24.489023,
    "lng": 120.684596,
    "address": "357苗栗縣通霄鎮平元里平新二路19號"
  },
  {
    "name": "苗栗縣通霄鎮平安社區發展協會",
    "lat": 24.492698,
    "lng": 120.689438,
    "address": "357苗栗縣通霄鎮環市路二段9鄰平安里平元715號"
  },
  {
    "name": "苗栗縣通霄鎮福源社區發展協會",
    "lat": 24.50947,
    "lng": 120.703823,
    "address": "357苗栗縣通霄鎮福源里8鄰福源71之5號"
  },
  {
    "name": "苗栗縣通霄鎮通灣社區發展協會",
    "lat": 24.510197,
    "lng": 120.690934,
    "address": "357苗栗縣通霄鎮通灣里10鄰通灣93之1號"
  },
  {
    "name": "苗栗縣通霄地政事務所",
    "lat": 24.491445,
    "lng": 120.682712,
    "address": "357苗栗縣通霄鎮中正路12之2號"
  },
  {
    "name": "苗栗縣通霄鎮戶政事務所",
    "lat": 24.490805,
    "lng": 120.683017,
    "address": "357苗栗縣通霄鎮中正路14號"
  },
  {
    "name": "通霄鎮立圖書館",
    "lat": 24.49069,
    "lng": 120.683454,
    "address": "357苗栗縣通霄鎮通東里中正路9-5號"
  },
  {
    "name": "通霄鎮虎頭山公園",
    "lat": 24.49377,
    "lng": 120.68487,
    "address": "357苗栗縣通霄鎮虎頭山公園"
  },
  {
    "name": "苗栗縣通霄鎮公所",
    "lat": 24.491363,
    "lng": 120.684689,
    "address": "357苗栗縣通霄鎮中正路8號"
  },
  {
    "name": "通霄鎮綜合活動中心",
    "lat": 24.492365,
    "lng": 120.682047,
    "address": "357苗栗縣通霄鎮信義路248號"
  }
]