[
  {
    "name": "高雄五塊厝郵局",
    "lat": 22.622264,
    "lng": 120.330421,
    "address": "802高雄市苓雅區三多一路237號"
  },
  {
    "name": "高雄文化中心郵局",
    "lat": 22.622842,
    "lng": 120.316225,
    "address": "802高雄市苓雅區光華一路148-30號"
  },
  {
    "name": "高雄正言郵局",
    "lat": 22.629859,
    "lng": 120.326762,
    "address": "802高雄市苓雅區中正一路322、324號"
  },
  {
    "name": "高雄民壯郵局",
    "lat": 22.638907,
    "lng": 120.340729,
    "address": "807高雄市三民區民壯路16、18、20、22號"
  },
  {
    "name": "高雄林華郵局",
    "lat": 22.619087,
    "lng": 120.320843,
    "address": "802高雄市苓雅區三多二路249號"
  },
  {
    "name": "高雄武廟郵局",
    "lat": 22.630599,
    "lng": 120.32986,
    "address": "802高雄市苓雅區武廟路83號"
  },
  {
    "name": "高雄英德街郵局",
    "lat": 22.613957,
    "lng": 120.321465,
    "address": "806高雄市前鎮區英德街149號"
  },
  {
    "name": "高雄師大郵局",
    "lat": 22.625638,
    "lng": 120.320034,
    "address": "802高雄市苓雅區和平一路116號"
  },
  {
    "name": "高雄順昌郵局",
    "lat": 22.633889,
    "lng": 120.314262,
    "address": "800高雄市新興區七賢一路104、106號"
  },
  {
    "name": "公路總局高雄區監理所",
    "lat": 22.615307,
    "lng": 120.33604,
    "address": "830高雄市鳳山區武營路361號1樓"
  },
  {
    "name": "行政院勞動部勞工保險局高雄市辦事處洽公櫃台",
    "lat": 22.626911,
    "lng": 120.326253,
    "address": "802高雄市苓雅區政南街6號"
  },
  {
    "name": "勞動部勞動力發展署高屏澎東分署高屏澎東區銀髮人才資源中心洽公服務櫃台",
    "lat": 22.630438,
    "lng": 120.318793,
    "address": "802高雄市苓雅區中正一路306號2樓"
  },
  {
    "name": "財政部高雄國稅局",
    "lat": 22.623734,
    "lng": 120.317451,
    "address": "802高雄市苓雅區廣州一街148號"
  },
  {
    "name": "財政部高雄國稅局前鎮稽徵所",
    "lat": 22.614,
    "lng": 120.321204,
    "address": "806高雄市前鎮區英德街151號"
  },
  {
    "name": "國軍高雄總醫院一般診間等候處",
    "lat": 22.625657,
    "lng": 120.341942,
    "address": "802高雄市苓雅區中正一路2號"
  },
  {
    "name": "國軍高雄總醫院牙科診間等候處",
    "lat": 22.625657,
    "lng": 120.341942,
    "address": "802高雄市苓雅區中正一路2號"
  },
  {
    "name": "國軍高雄總醫院耳鼻喉科診間等待處",
    "lat": 22.625657,
    "lng": 120.341942,
    "address": "802高雄市苓雅區中正一路2號"
  },
  {
    "name": "國軍高雄總醫院急診室",
    "lat": 22.625657,
    "lng": 120.341942,
    "address": "802高雄市苓雅區中正一路2號"
  },
  {
    "name": "國軍高雄總醫院掛號室、藥局等候處",
    "lat": 22.625657,
    "lng": 120.341942,
    "address": "802高雄市苓雅區中正一路2號"
  },
  {
    "name": "國軍高雄總醫院檢查室等候處",
    "lat": 22.625657,
    "lng": 120.341942,
    "address": "802高雄市苓雅區中正一路2號"
  },
  {
    "name": "國軍高雄總醫院附設高雄門診中心一般診間等候處",
    "lat": 22.61001,
    "lng": 120.316815,
    "address": "806高雄市前鎮區光華二路51號"
  },
  {
    "name": "兆豐國際商銀三多分行",
    "lat": 22.620349,
    "lng": 120.324693,
    "address": "802高雄市苓雅區三多二路93號"
  },
  {
    "name": "公路總局高雄市區監理所苓雅監理站",
    "lat": 22.637422,
    "lng": 120.32057,
    "address": "802高雄市苓雅區安康路22號"
  },
  {
    "name": "臺灣土地銀行建國分行",
    "lat": 22.635523,
    "lng": 120.316595,
    "address": "807高雄市三民區建國一路458號"
  },
  {
    "name": "華銀商業銀行東苓分行",
    "lat": 22.628164,
    "lng": 120.33259,
    "address": "802高雄市苓雅區中正一路120號"
  },
  {
    "name": "華南商業銀行光華分行",
    "lat": 22.622248,
    "lng": 120.316448,
    "address": "802高雄市苓雅區光華一路148-19號"
  },
  {
    "name": "中國輸出入銀行高雄分行",
    "lat": 22.630545,
    "lng": 120.318468,
    "address": "802高雄市苓雅區中正二路74號8樓"
  },
  {
    "name": "臺灣銀行新興分行",
    "lat": 22.63396,
    "lng": 120.313257,
    "address": "800高雄市新興區民族二路133號"
  },
  {
    "name": "第一商業銀行(高雄分行)",
    "lat": 22.618463,
    "lng": 120.314313,
    "address": "802高雄市苓雅區民權一路28號"
  },
  {
    "name": "第一商業銀行(五福分行)",
    "lat": 22.6302723,
    "lng": 120.314618,
    "address": "802高雄市苓雅區中正二路161號"
  },
  {
    "name": "國家表演藝術中心衛武營國家藝術文化中心",
    "lat": 22.623683,
    "lng": 120.34291,
    "address": "830高雄市鳳山區三多一路1號"
  },
  {
    "name": "國家表演藝術中心衛武營國家藝術文化中心榕樹廣場",
    "lat": 22.623683,
    "lng": 120.34291,
    "address": "830高雄市鳳山區三多一路1號"
  },
  {
    "name": "國家表演藝術中心衛武營國家藝術文化中心後台空間",
    "lat": 22.623683,
    "lng": 120.34291,
    "address": "830高雄市鳳山區三多一路1號"
  },
  {
    "name": "臺鐵局民族站穿堂層（地下1樓）",
    "lat": 22.638761,
    "lng": 120.314871,
    "address": "807高雄市三民區博惠里14鄰凱旋一路260號"
  },
  {
    "name": "臺鐵局民族站第1月台5車位置",
    "lat": 22.638761,
    "lng": 120.314871,
    "address": "807高雄市三民區博惠里14鄰凱旋一路260號"
  },
  {
    "name": "臺鐵局民族站第2月台8車位置",
    "lat": 22.638761,
    "lng": 120.314871,
    "address": "807高雄市三民區博惠里14鄰凱旋一路260號"
  },
  {
    "name": "臺鐵局科工館站穿堂層（地下1樓）",
    "lat": 22.639559,
    "lng": 120.323569,
    "address": "807高雄市三民區寶盛里15鄰大順三路307號"
  },
  {
    "name": "臺鐵局科工館站第1月台5車位置",
    "lat": 22.639559,
    "lng": 120.323569,
    "address": "807高雄市三民區寶盛里15鄰大順三路307號"
  },
  {
    "name": "臺鐵局科工館站第2月台8車位置",
    "lat": 22.639559,
    "lng": 120.323569,
    "address": "807高雄市三民區寶盛里15鄰大順三路307號"
  },
  {
    "name": "臺鐵局正義站第1月台4車位置",
    "lat": 22.634217,
    "lng": 120.342772,
    "address": "802高雄市苓雅區正義路308號地下1樓"
  },
  {
    "name": "臺鐵局正義站第2月台6車位置",
    "lat": 22.634217,
    "lng": 120.342772,
    "address": "802高雄市苓雅區正義路308號地下1樓"
  },
  {
    "name": "法務部行政執行署高雄分署三樓",
    "lat": 22.624744,
    "lng": 120.33371,
    "address": "802高雄市苓雅區政南街2號"
  },
  {
    "name": "法務部行政執行署高雄分署四樓",
    "lat": 22.624744,
    "lng": 120.33371,
    "address": "802高雄市苓雅區政南街2號"
  },
  {
    "name": "法務部行政執行署高雄分署五樓",
    "lat": 22.624744,
    "lng": 120.33371,
    "address": "802高雄市苓雅區政南街2號"
  },
  {
    "name": "內政部移民署高雄市第一服務站(新)",
    "lat": 22.624432,
    "lng": 120.333231,
    "address": "802高雄市苓雅區政南街6號5、6樓"
  },
  {
    "name": "勞動部勞動力發展署高屏澎東分署高屏澎東區銀髮人才(資源中心公共空間)",
    "lat": 22.62997,
    "lng": 120.32723,
    "address": "802高雄市苓雅區中正一路306號2樓"
  },
  {
    "name": "社團法人高雄市燭光協會",
    "lat": 22.63946,
    "lng": 120.316925,
    "address": "807高雄市三民區安寧里九如一路899號"
  },
  {
    "name": "高雄市社區關懷協會",
    "lat": 22.619812,
    "lng": 120.313879,
    "address": "802高雄市苓雅區普天里民權一路38號"
  },
  {
    "name": "高雄市苓雅區新建軍社區發展協會",
    "lat": 22.633134,
    "lng": 120.34298,
    "address": "802高雄市苓雅區建軍里建軍路274號"
  },
  {
    "name": "高雄市三民區愛心社區發展協會",
    "lat": 22.638148,
    "lng": 120.326108,
    "address": "807高雄市三民區寶盛里臥龍路29號"
  },
  {
    "name": "高雄市苓雅區幸福文昌社區發展協會",
    "lat": 22.633836,
    "lng": 120.338043,
    "address": "802高雄市苓雅區文昌里義勇路191號"
  },
  {
    "name": "社團法人高雄市音樂養生慈善公益協會(奏捷-敬老亭)",
    "lat": 22.628754,
    "lng": 120.32345,
    "address": "802高雄市苓雅區奏捷里河南路171之1號"
  },
  {
    "name": "社團法人高雄市基督教廣傳福音協會",
    "lat": 22.633,
    "lng": 120.323,
    "address": "801高雄市前金區復元里福音街23號B1"
  },
  {
    "name": "高雄市苓雅區民主社區發展協會",
    "lat": 22.63,
    "lng": 120.321,
    "address": "802高雄市苓雅區民主里樂仁路10號"
  },
  {
    "name": "社團法人高雄市音樂養生慈善公益協會(苓榮)",
    "lat": 22.634,
    "lng": 120.343,
    "address": "802高雄市苓雅區林榮里凱旋三路871巷1弄22號"
  },
  {
    "name": "社團法人高雄市顧健康頤養照護關懷協會",
    "lat": 22.622,
    "lng": 120.331,
    "address": "802高雄市苓雅區福南里中正一路249號七樓之1"
  },
  {
    "name": "高雄市前鎮區興邦社區發展協會",
    "lat": 22.611,
    "lng": 120.315,
    "address": "806高雄市前鎮區興邦里鎮邦街63號"
  },
  {
    "name": "中華民國健康生活管理促進產業協會(新武站)",
    "lat": 22.616,
    "lng": 120.338,
    "address": "830高雄市鳳山區新武里武營路106巷42之1號"
  },
  {
    "name": "高雄市鳳山區生明社區發展協會",
    "lat": 22.631,
    "lng": 120.329,
    "address": "830高雄市鳳山區誠義里光華東路182號"
  },
  {
    "name": "高雄市甲仙區關山社區發展協會",
    "lat": 22.631,
    "lng": 120.329,
    "address": "847高雄市甲仙區關山里中興路17號"
  },
  {
    "name": "高雄市苓雅區戶政事務所第二辦公處",
    "lat": 22.622637,
    "lng": 120.330417,
    "address": "802高雄市苓雅區三多一路166號"
  },
  {
    "name": "高雄市立凱旋醫院一樓候診區",
    "lat": 22.62538,
    "lng": 120.324004,
    "address": "802高雄市苓雅區凱旋二路130號"
  },
  {
    "name": "高雄市立民生醫院",
    "lat": 22.627163,
    "lng": 120.323746,
    "address": "802高雄市苓雅區凱旋二路134號"
  },
  {
    "name": "長青中心一樓大廳",
    "lat": 22.623102,
    "lng": 120.321686,
    "address": "802高雄市苓雅區四維二路51號"
  },
  {
    "name": "高雄市體育處本部1F服務台",
    "lat": 22.625499,
    "lng": 120.33398,
    "address": "802高雄市苓雅區中正一路99號"
  },
  {
    "name": "高雄市體育處本部3F會議室",
    "lat": 22.625499,
    "lng": 120.33398,
    "address": "802高雄市苓雅區中正一路99號"
  },
  {
    "name": "高雄市立圖書館高雄市文化中心分館",
    "lat": 22.626608,
    "lng": 120.317974,
    "address": "802高雄市苓雅區五福一路67號"
  },
  {
    "name": "高雄市政府文化局",
    "lat": 22.625771,
    "lng": 120.318322,
    "address": "802高雄市苓雅區五福一路67號"
  },
  {
    "name": "高雄市政府交通局車輛行車事故鑑定委員會",
    "lat": 22.632451,
    "lng": 120.327995,
    "address": "802高雄市苓雅區福德二路77號4樓"
  },
  {
    "name": "高雄市政府交通局交通事件裁決中心鳳山辦公室",
    "lat": 22.615536,
    "lng": 120.335988,
    "address": "830高雄市鳳山區武營路361號1樓"
  },
  {
    "name": "高雄市政府社會局長青中心8樓會議、展覽廳",
    "lat": 22.623089,
    "lng": 120.321712,
    "address": "802高雄市苓雅區四維二路51號"
  },
  {
    "name": "高雄市政府衛生局",
    "lat": 22.626544,
    "lng": 120.324941,
    "address": "802高雄市苓雅區凱旋二路132-1號"
  },
  {
    "name": "高雄市政府社會局婦女館",
    "lat": 22.638209,
    "lng": 120.324138,
    "address": "807高雄市三民區九如一路777號"
  },
  {
    "name": "高雄市立凱旋醫院附設社區復健中心",
    "lat": 22.626021,
    "lng": 120.325495,
    "address": "802高雄市苓雅區福成街2號"
  },
  {
    "name": "高雄市文化中心(五福一路門口公話)",
    "lat": 22.625808,
    "lng": 120.318142,
    "address": "802高雄市苓雅區五福一路67號"
  },
  {
    "name": "高雄市文化中心(至德堂公話)",
    "lat": 22.625808,
    "lng": 120.318142,
    "address": "802高雄市苓雅區五福一路67號"
  },
  {
    "name": "高雄市文化中心(前廳公話)",
    "lat": 22.625808,
    "lng": 120.318142,
    "address": "802高雄市苓雅區五福一路67號"
  },
  {
    "name": "高雄市文化中心(至真三館)",
    "lat": 22.625808,
    "lng": 120.318142,
    "address": "802高雄市苓雅區五福一路67號"
  },
  {
    "name": "高雄市文化中心(警衛室公話)",
    "lat": 22.625808,
    "lng": 120.318142,
    "address": "802高雄市苓雅區五福一路67號"
  },
  {
    "name": "高雄市文化中心(圖書館公話)",
    "lat": 22.625808,
    "lng": 120.318142,
    "address": "802高雄市苓雅區五福一路67號"
  },
  {
    "name": "高雄市政府社會局長青綜合服務中心",
    "lat": 22.622414,
    "lng": 120.321956,
    "address": "802高雄市苓雅區四維二路51號"
  },
  {
    "name": "高雄市立凱旋醫院附設城堡康復之家",
    "lat": 22.626115,
    "lng": 120.325659,
    "address": "802高雄市苓雅區福成街2號1-3樓"
  },
  {
    "name": "正道公園旁高速公路涵洞綠廊道",
    "lat": 22.6351993,
    "lng": 120.336464,
    "address": "802高雄市苓雅區建國一路64巷57弄2號"
  }
]