[
  {
    "name": "斗南石龜郵局",
    "lat": 23.641334,
    "lng": 120.48282,
    "address": "630雲林縣斗南鎮石龜里中和路54號"
  },
  {
    "name": "豐田(兼元長)工業區服務中心-豐田",
    "lat": 23.6421882,
    "lng": 120.4677705,
    "address": "631雲林縣大埤鄉嘉興村豐田路67號"
  },
  {
    "name": "臺鐵局石龜站月台候車區",
    "lat": 23.639574,
    "lng": 120.4688193,
    "address": "630雲林縣斗南鎮石龜里(無地址)"
  },
  {
    "name": "雲林縣斗南鎮靖興社區發展協會",
    "lat": 23.644883,
    "lng": 120.479553,
    "address": "630雲林縣斗南鎮靖興里靖光路43號"
  },
  {
    "name": "雲林縣斗南鎮石龜社區發展協會",
    "lat": 23.639278,
    "lng": 120.482512,
    "address": "630雲林縣斗南鎮石龜里光天路76號"
  }
]