[
  {
    "name": "清水南社郵局",
    "lat": 24.271913,
    "lng": 120.558172,
    "address": "436臺中市清水區忠貞路39號"
  },
  {
    "name": "交通部航港局中部航務中心",
    "lat": 24.272631,
    "lng": 120.530158,
    "address": "435臺中市梧棲區臨海路83-3號"
  },
  {
    "name": "臺灣港務股份有限公司臺中港務分公司船機處",
    "lat": 24.282896,
    "lng": 120.531609,
    "address": "436臺中市清水區北橫12路2號"
  },
  {
    "name": "臺灣港務股份有限公司臺中港務分公司工程處",
    "lat": 24.291896,
    "lng": 120.545716,
    "address": "435臺中市梧棲區臨海路83-2號"
  },
  {
    "name": "臺灣港務股份有限公司臺中港務分公司勞安處",
    "lat": 24.291896,
    "lng": 120.545716,
    "address": "435臺中市梧棲區臨海路83-2號"
  },
  {
    "name": "財團法人弘道老人福利基金會(清水學堂-托老功能型)",
    "lat": 24.276425,
    "lng": 120.553659,
    "address": "436臺中市清水區武鹿里中央路51之60號"
  },
  {
    "name": "臺中市清水區武鹿社區發展協會",
    "lat": 24.280591,
    "lng": 120.556282,
    "address": "436臺中市清水區武鹿里公正路161之33號"
  },
  {
    "name": "港區藝術中心",
    "lat": 24.270476,
    "lng": 120.55845,
    "address": "436臺中市清水區忠貞路21號"
  }
]