[
  {
    "name": "大里永隆郵局",
    "lat": 24.099578,
    "lng": 120.678734,
    "address": "412臺中市大里區永隆一街82號"
  },
  {
    "name": "兆豐國際商銀大里分行",
    "lat": 24.104747,
    "lng": 120.675008,
    "address": "412臺中市大里區爽文路600號"
  },
  {
    "name": "臺灣土地銀行大里分行",
    "lat": 24.1096465,
    "lng": 120.6767617,
    "address": "412臺中市大里區東榮路652號"
  },
  {
    "name": "臺灣銀行大里分行",
    "lat": 24.110968,
    "lng": 120.679025,
    "address": "412臺中市大里區國光路二段481號"
  },
  {
    "name": "臺中市南區樹義社區發展協會",
    "lat": 24.108747,
    "lng": 120.661013,
    "address": "402臺中市南區樹義里福田二街23號"
  },
  {
    "name": "臺中市大里區永隆社區發展協會",
    "lat": 24.112392,
    "lng": 120.67362,
    "address": "412臺中市大里區永隆里永隆六街29號"
  },
  {
    "name": "臺中市烏日區五光社區發展協會",
    "lat": 24.095175,
    "lng": 120.655531,
    "address": "414臺中市烏日區五光里五光路107號"
  },
  {
    "name": "臺中市大里區大新社區發展協會",
    "lat": 24.100338,
    "lng": 120.676247,
    "address": "412臺中市大里區新里里新興路99巷16弄56號"
  },
  {
    "name": "臺中市南區永興社區發展協會",
    "lat": 24.112483,
    "lng": 120.663017,
    "address": "402臺中市南區永興里工學二街236號"
  },
  {
    "name": "大里區戶政事務所",
    "lat": 24.098141,
    "lng": 120.676807,
    "address": "412臺中市大里區新興路7號"
  },
  {
    "name": "臺中市立圖書館大里大新分館",
    "lat": 24.09964,
    "lng": 120.6784,
    "address": "412臺中市大里區大新街36-1號"
  },
  {
    "name": "大里區衛生所",
    "lat": 24.097686,
    "lng": 120.679197,
    "address": "412臺中市大里區大衛路82號"
  },
  {
    "name": "統一超商大里大里路東里店(公話)",
    "lat": 24.097279,
    "lng": 120.678383,
    "address": "412臺中市大里區大里路295號"
  },
  {
    "name": "統一超商大里文心南路樹王店(公話)",
    "lat": 24.105339,
    "lng": 120.667362,
    "address": "412臺中市大里區文心南路1252號"
  },
  {
    "name": "全家便利商店大里永隆路順發店(公話)",
    "lat": 24.108102,
    "lng": 120.676576,
    "address": "412臺中市大里區永隆路209號"
  },
  {
    "name": "臺中市公車大里仁愛醫院站",
    "lat": 24.1094982,
    "lng": 120.6799732,
    "address": "412臺中市大里區國光路與東榮路口"
  },
  {
    "name": "統一超商大里國中路大衛店(公話)",
    "lat": 24.095767,
    "lng": 120.680122,
    "address": "412臺中市大里區國中路276號"
  },
  {
    "name": "臺中市公車崇光國小站",
    "lat": 24.108451,
    "lng": 120.675006,
    "address": "412臺中市大里區爽文路870號-1"
  },
  {
    "name": "萊爾富便利商店南區五權南一路衛斯理店(公話)",
    "lat": 24.112581,
    "lng": 120.669748,
    "address": "402臺中市南區五權南一路52號"
  },
  {
    "name": "統一超商南區文心南路福田店(公話)",
    "lat": 24.110904,
    "lng": 120.659447,
    "address": "402臺中市南區文心南路885號"
  },
  {
    "name": "臺中市永興宮(公話)",
    "lat": 24.1124783,
    "lng": 120.6632462,
    "address": "402臺中市南區工學二街236號(公話)"
  },
  {
    "name": "統一超商南區高工路高工店(公話)",
    "lat": 24.113218,
    "lng": 120.661956,
    "address": "402臺中市南區高工路170號"
  },
  {
    "name": "臺中市公車中興大學(國光路)站",
    "lat": 24.113202,
    "lng": 120.659163,
    "address": "402臺中市南區高工路96號"
  }
]