[
  {
    "name": "臺鐵局成功站候車室",
    "lat": 24.110768,
    "lng": 120.600496,
    "address": "414臺中市烏日區中山路三段550號"
  },
  {
    "name": "臺鐵局新烏日站候車室",
    "lat": 24.110202,
    "lng": 120.612921,
    "address": "414臺中市烏日區高鐵東一路26號"
  },
  {
    "name": "臺鐵局新烏日站2樓付費區大廳",
    "lat": 24.1099128,
    "lng": 120.6142071,
    "address": "414臺中市烏日區高鐵東一路26號"
  },
  {
    "name": "臺鐵局新烏日站第1月台行車室",
    "lat": 24.1099128,
    "lng": 120.6142071,
    "address": "414臺中市烏日區高鐵東一路26號"
  },
  {
    "name": "臺鐵局新烏日站第1月臺北候車區",
    "lat": 24.1099128,
    "lng": 120.6142071,
    "address": "414臺中市烏日區高鐵東一路26號"
  },
  {
    "name": "臺中市烏日區榮和社區發展協會",
    "lat": 24.109467,
    "lng": 120.592582,
    "address": "414臺中市烏日區榮泉里榮泉路39巷78號二樓"
  },
  {
    "name": "烏日區戶政事務所",
    "lat": 24.108423,
    "lng": 120.60316,
    "address": "414臺中市烏日區高鐵路一段170號"
  },
  {
    "name": "新烏日三鐵共構區(捷運閘口處)",
    "lat": 24.10974,
    "lng": 120.614259,
    "address": "414臺中市烏日區高鐵東一路28號"
  },
  {
    "name": "新烏日三鐵共構區(商店街)",
    "lat": 24.10974,
    "lng": 120.614259,
    "address": "414臺中市烏日區高鐵東一路26號2樓"
  },
  {
    "name": "統一超商烏日中山路榮泉店(公話)",
    "lat": 24.113023,
    "lng": 120.59296,
    "address": "414臺中市烏日區中山路三段1007號"
  },
  {
    "name": "OK超商烏日中山路成功店(公話)",
    "lat": 24.110851,
    "lng": 120.600678,
    "address": "414臺中市烏日區中山路三段500號"
  },
  {
    "name": "全家便利商店烏日三榮路高捷店(公話)",
    "lat": 24.108569,
    "lng": 120.59721,
    "address": "414臺中市烏日區三榮路二段350號"
  }
]