[
  {
    "name": "梓官蚵子寮郵局",
    "lat": 22.737658,
    "lng": 120.247564,
    "address": "826高雄市梓官區赤東村赤崁南路14號"
  },
  {
    "name": "高雄市梓官區赤崁社區發展協會",
    "lat": 22.739454,
    "lng": 120.248961,
    "address": "826高雄市梓官區赤崁里赤崁東路57號"
  },
  {
    "name": "高雄市梓官區赤西社區發展協會",
    "lat": 22.73414,
    "lng": 120.24784,
    "address": "826高雄市梓官區赤西里赤崁南路130巷26號"
  },
  {
    "name": "高雄市彌陀區南寮社區發展協會",
    "lat": 22.759867,
    "lng": 120.237979,
    "address": "827高雄市彌陀區南寮里南寮路101巷10之1號"
  },
  {
    "name": "高雄市立圖書館梓官赤東分館",
    "lat": 22.739177,
    "lng": 120.249011,
    "address": "826高雄市梓官區赤崁東路48-5號2樓"
  }
]