[
  {
    "name": "太平坪林郵局",
    "lat": 24.1450759,
    "lng": 120.7343168,
    "address": "411臺中市太平區中山路一段325、327號"
  },
  {
    "name": "太平宜欣郵局",
    "lat": 24.1497229,
    "lng": 120.71257,
    "address": "411臺中市太平區中山路四段27號"
  },
  {
    "name": "國軍臺中總醫院門診候診區",
    "lat": 24.150811,
    "lng": 120.729914,
    "address": "411臺中市太平區中山路二段348號"
  },
  {
    "name": "國軍臺中總醫院掛號大廳",
    "lat": 24.150811,
    "lng": 120.729914,
    "address": "411臺中市太平區中山路二段348號"
  },
  {
    "name": "臺灣土地銀行太平分行",
    "lat": 24.1487627,
    "lng": 120.7155711,
    "address": "411臺中市太平區中山路三段131號"
  },
  {
    "name": "國軍臺中總醫院-急診室",
    "lat": 24.150812,
    "lng": 120.729913,
    "address": "411臺中市太平區中山路二段348號"
  },
  {
    "name": "國軍臺中總醫院-圖書館",
    "lat": 24.150812,
    "lng": 120.729913,
    "address": "411臺中市太平區中山路二段348號"
  },
  {
    "name": "國軍臺中總醫院-藥局",
    "lat": 24.150812,
    "lng": 120.729913,
    "address": "411臺中市太平區中山路二段348號"
  },
  {
    "name": "國軍臺中總醫院-復健科",
    "lat": 24.1503,
    "lng": 120.73019,
    "address": "411臺中市太平區中山路二段348號"
  },
  {
    "name": "國軍臺中總醫院-眼科",
    "lat": 24.1503,
    "lng": 120.73019,
    "address": "411臺中市太平區中山路二段348號"
  },
  {
    "name": "國軍臺中總醫院-內科",
    "lat": 24.1503,
    "lng": 120.73019,
    "address": "411臺中市太平區中山路二段348號"
  },
  {
    "name": "國軍臺中總醫院-一病房區1",
    "lat": 24.1503,
    "lng": 120.73019,
    "address": "411臺中市太平區中山路二段348號"
  },
  {
    "name": "國軍臺中總醫院-一病房區2",
    "lat": 24.1503,
    "lng": 120.73019,
    "address": "411臺中市太平區中山路二段348號"
  },
  {
    "name": "國軍臺中總醫院-六病房區1",
    "lat": 24.1503,
    "lng": 120.73019,
    "address": "411臺中市太平區中山路二段348號"
  },
  {
    "name": "國軍臺中總醫院-六病房區2",
    "lat": 24.1503,
    "lng": 120.73019,
    "address": "411臺中市太平區中山路二段348號"
  },
  {
    "name": "國軍臺中總醫院-七病房區",
    "lat": 24.1503,
    "lng": 120.73019,
    "address": "411臺中市太平區中山路二段348號"
  },
  {
    "name": "國軍臺中總醫院-八病房區",
    "lat": 24.1503,
    "lng": 120.73019,
    "address": "411臺中市太平區中山路二段348號"
  },
  {
    "name": "國軍臺中總醫院-九病房區",
    "lat": 24.1503,
    "lng": 120.73019,
    "address": "411臺中市太平區中山路二段348號"
  },
  {
    "name": "國軍臺中總醫院-十病房區",
    "lat": 24.1503,
    "lng": 120.73019,
    "address": "411臺中市太平區中山路二段348號"
  },
  {
    "name": "國軍臺中總醫院-十一病房區",
    "lat": 24.1503,
    "lng": 120.73019,
    "address": "411臺中市太平區中山路二段348號"
  },
  {
    "name": "臺中市太平區新城社區發展協會",
    "lat": 24.151625,
    "lng": 120.717789,
    "address": "411臺中市太平區新城里樹孝路82號"
  },
  {
    "name": "臺中市北屯區廍子社區發展協會",
    "lat": 24.162331,
    "lng": 120.725163,
    "address": "406臺中市北屯區部子里太和路二段28號"
  },
  {
    "name": "臺中市太平區新高社區發展協會(長青樂活站)",
    "lat": 24.159432,
    "lng": 120.715844,
    "address": "411臺中市太平區新高里立文街165號"
  },
  {
    "name": "臺中市太平區新城社區發展協會-新坪據點",
    "lat": 24.156063,
    "lng": 120.726142,
    "address": "411臺中市太平區新坪里新平路三段394巷1號"
  },
  {
    "name": "財團法人桃園市亮詮公益慈善基金會(太平)",
    "lat": 24.149055,
    "lng": 120.724488,
    "address": "411臺中市太平區中山里環太東路229號"
  },
  {
    "name": "財團法人弘道老人福利基金會(華明)",
    "lat": 24.15559,
    "lng": 120.733504,
    "address": "411臺中市太平區光華里大興十一街177號"
  },
  {
    "name": "臺中市太平區豐年社區發展協會",
    "lat": 24.146795,
    "lng": 120.725574,
    "address": "411臺中市太平區豐年里大源路10巷40號一樓"
  },
  {
    "name": "太平區戶政事務所",
    "lat": 24.146811,
    "lng": 120.725472,
    "address": "411臺中市太平區大源路2-18號"
  },
  {
    "name": "太平地政事務所",
    "lat": 24.146829,
    "lng": 120.726211,
    "address": "411臺中市太平區大源路1-19號"
  },
  {
    "name": "屯區藝文中心",
    "lat": 24.156843,
    "lng": 120.735537,
    "address": "411臺中市太平區大興路201號"
  },
  {
    "name": "屯區藝文中心-B1",
    "lat": 24.156843,
    "lng": 120.735537,
    "address": "411臺中市太平區大興路201號"
  },
  {
    "name": "臺中市太平樹孝商圈(樹孝路109號)",
    "lat": 24.15242,
    "lng": 120.7173,
    "address": "411臺中市太平區樹孝路109號(TCYH1041)"
  },
  {
    "name": "臺中市公車樹孝育才路口站",
    "lat": 24.15564,
    "lng": 120.71936,
    "address": "411臺中市太平區樹孝路365號前(TCYH1150)"
  },
  {
    "name": "樹孝商圈(樹孝路439號)",
    "lat": 24.1575757,
    "lng": 120.7200362,
    "address": "411臺中市太平區樹孝路439號"
  },
  {
    "name": "臺中市太平樹孝商圈(樹孝路25號)(公話)",
    "lat": 24.1495787,
    "lng": 120.7159856,
    "address": "411臺中市太平區樹孝路25號(公話亭)"
  },
  {
    "name": "臺中市太平樹孝商圈(樹孝路308號)(公話)",
    "lat": 24.1544688,
    "lng": 120.7189271,
    "address": "411臺中市太平區樹孝路308號"
  },
  {
    "name": "統一超商太平大源二街鑫佳慶店(公話)",
    "lat": 24.144441,
    "lng": 120.725162,
    "address": "411臺中市太平區大源二街1號"
  },
  {
    "name": "臺中市太平樹孝商圈(樹孝路10號)",
    "lat": 24.1504785,
    "lng": 120.7165178,
    "address": "411臺中市太平區樹孝路10號前(TCYH2010交接箱內)"
  },
  {
    "name": "全家便利商店太平育賢路育賢店(公話)",
    "lat": 24.157522,
    "lng": 120.721598,
    "address": "411臺中市太平區育賢路156號"
  },
  {
    "name": "統一超商太平宜昌路宜昌店(公話)",
    "lat": 24.144923,
    "lng": 120.713922,
    "address": "411臺中市太平區宜昌路400號1樓"
  },
  {
    "name": "全家便利商店太平新平路育仁店(公話)",
    "lat": 24.151947,
    "lng": 120.721127,
    "address": "411臺中市太平區新平路三段150號"
  },
  {
    "name": "臺中市公車宜欣郵局站",
    "lat": 24.14982,
    "lng": 120.71302,
    "address": "411臺中市太平區中山路四段20號前(TCYH8020)"
  },
  {
    "name": "全家便利商店太平廣三街廣三店(公話)",
    "lat": 24.152648,
    "lng": 120.712731,
    "address": "411臺中市太平區廣三街33號"
  },
  {
    "name": "統一超商太平樹德路吉仕多店(公話)",
    "lat": 24.157523,
    "lng": 120.712435,
    "address": "411臺中市太平區樹德路255號"
  },
  {
    "name": "全家便利商店太平樹德路金城店(公話)",
    "lat": 24.160013,
    "lng": 120.713396,
    "address": "411臺中市太平區樹德路275號"
  },
  {
    "name": "OK超商太平宜欣路宜欣店(公話)",
    "lat": 24.147044,
    "lng": 120.716265,
    "address": "411臺中市太平區宜欣路61號(公話)"
  },
  {
    "name": "肯德基戶外休憩廣場",
    "lat": 24.166756,
    "lng": 120.734009,
    "address": "406臺中市北屯區文心路四段153號"
  },
  {
    "name": "統一超商北屯太原路鈞泰店(公話)",
    "lat": 24.162351,
    "lng": 120.721229,
    "address": "406臺中市北屯區太原路三段1120號-1"
  },
  {
    "name": "統一超商北屯太原路中台禾豐店(公話)",
    "lat": 24.161488,
    "lng": 120.733544,
    "address": "406臺中市北屯區太原路三段1505號"
  },
  {
    "name": "統一超商北屯東山路水景店(公話)",
    "lat": 24.1727622,
    "lng": 120.7129823,
    "address": "406臺中市北屯區東山路一段212號"
  },
  {
    "name": "全家便利商店太平中山路中華店(公話)",
    "lat": 24.149887,
    "lng": 120.7275133,
    "address": "411臺中市太平區中山路二段441號"
  },
  {
    "name": "統一超商北屯軍功路軍福店(公話)",
    "lat": 24.171369,
    "lng": 120.718823,
    "address": "406臺中市北屯區軍功路一段500號"
  },
  {
    "name": "全家便利商店北屯區太順路太順店(公話)",
    "lat": 24.158612,
    "lng": 120.725141,
    "address": "406臺中市北屯區太順路103號"
  },
  {
    "name": "一德洋樓(歷史建築林懋陽故居園區)",
    "lat": 24.1669442,
    "lng": 120.7246411,
    "address": "406臺中市北屯區景賢路230號"
  },
  {
    "name": "全家便利商店太平大興路(公話)",
    "lat": 24.1544911,
    "lng": 120.7334052,
    "address": "411臺中市太平區大興路127號"
  },
  {
    "name": "統一超商太平新樹孝店(公話)",
    "lat": 24.1512547,
    "lng": 120.7168868,
    "address": "411臺中市太平區樹孝路50號"
  }
]