[
  {
    "name": "豐原三民路郵局",
    "lat": 24.253687,
    "lng": 120.719985,
    "address": "420臺中市豐原區三民路108號"
  },
  {
    "name": "豐原葫蘆墩郵局",
    "lat": 24.263912,
    "lng": 120.719517,
    "address": "420臺中市豐原區豐原大道七段25號"
  },
  {
    "name": "豐原水源郵局",
    "lat": 24.255128,
    "lng": 120.728831,
    "address": "420臺中市豐原區水源路594-2號"
  },
  {
    "name": "豐原南陽郵局",
    "lat": 24.245188,
    "lng": 120.724893,
    "address": "420臺中市豐原區南陽里12鄰圓環東路402號"
  },
  {
    "name": "豐原翁子郵局",
    "lat": 24.25959,
    "lng": 120.734306,
    "address": "420臺中市豐原區翁子里豐勢路一段576、578號"
  },
  {
    "name": "公路總局臺中區監理所豐原監理站",
    "lat": 24.247412,
    "lng": 120.730868,
    "address": "420臺中市豐原區豐東路120號"
  },
  {
    "name": "臺鐵局豐原站候車室",
    "lat": 24.254112,
    "lng": 120.722917,
    "address": "420臺中市豐原區中正路1號"
  },
  {
    "name": "國軍退除役官兵輔導委員會臺中市榮服處一樓大廳",
    "lat": 24.247307,
    "lng": 120.720026,
    "address": "420臺中市豐原區陽明街20號"
  },
  {
    "name": "豐原醫院-門診大樓1樓門診區",
    "lat": 24.242792,
    "lng": 120.725725,
    "address": "420臺中市豐原區安康路100號"
  },
  {
    "name": "豐原醫院-急重症大樓1樓急診區",
    "lat": 24.242792,
    "lng": 120.725725,
    "address": "420臺中市豐原區安康路100號"
  },
  {
    "name": "豐原醫院-復健大樓1樓門診區",
    "lat": 24.242792,
    "lng": 120.725725,
    "address": "420臺中市豐原區安康路100號"
  },
  {
    "name": "豐原醫院-醫療大樓1樓門診區",
    "lat": 24.242792,
    "lng": 120.725725,
    "address": "420臺中市豐原區安康路100號"
  },
  {
    "name": "財政部中區國稅局豐原分局",
    "lat": 24.249342,
    "lng": 120.721217,
    "address": "420臺中市豐原區南陽路515號"
  },
  {
    "name": "自來水公司豐原服務所",
    "lat": 24.24604,
    "lng": 120.726451,
    "address": "420臺中市豐原區南陽路298巷15號"
  },
  {
    "name": "行政院農業委員會林務局東勢林區管理處",
    "lat": 24.247798,
    "lng": 120.720969,
    "address": "420臺中市豐原區南陽路逸仙莊1號"
  },
  {
    "name": "臺灣土地銀行豐原分行",
    "lat": 24.250809,
    "lng": 120.714643,
    "address": "420臺中市豐原區中山路508號"
  },
  {
    "name": "臺灣土地銀行豐農分行",
    "lat": 24.251526,
    "lng": 120.720355,
    "address": "420臺中市豐原區中正路127號"
  },
  {
    "name": "臺灣銀行豐原分行",
    "lat": 24.251249,
    "lng": 120.71449,
    "address": "420臺中市豐原區中正路302號"
  },
  {
    "name": "臺鐵局豐原站售票前廳",
    "lat": 24.254112,
    "lng": 120.722917,
    "address": "420臺中市豐原區中正路1號"
  },
  {
    "name": "臺鐵局豐原站第2月台4車處",
    "lat": 24.254112,
    "lng": 120.722917,
    "address": "420臺中市豐原區中正路1號"
  },
  {
    "name": "華南商業銀行豐原分行",
    "lat": 24.251971,
    "lng": 120.718908,
    "address": "420臺中市豐原區信義街95號"
  },
  {
    "name": "第一商業銀行豐原分行",
    "lat": 24.250794,
    "lng": 120.71409,
    "address": "420臺中市豐原區中山路423號"
  },
  {
    "name": "上海商銀豐原分行",
    "lat": 24.253315,
    "lng": 120.719773,
    "address": "420臺中市豐原區三民路95號"
  },
  {
    "name": "行政院農業委員會水土保持局臺中分局_1F_服務台",
    "lat": 24.247225,
    "lng": 120.720142,
    "address": "420臺中市豐原區陽明街22號"
  },
  {
    "name": "行政院農業委員會水土保持局臺中分局_1F_會議室1",
    "lat": 24.247225,
    "lng": 120.720142,
    "address": "420臺中市豐原區陽明街22號"
  },
  {
    "name": "行政院農業委員會水土保持局臺中分局_1F_會議室2",
    "lat": 24.247225,
    "lng": 120.720142,
    "address": "420臺中市豐原區陽明街22號"
  },
  {
    "name": "行政院農業委員會水土保持局臺中分局_2F_會議室1",
    "lat": 24.247225,
    "lng": 120.720142,
    "address": "420臺中市豐原區陽明街22號"
  },
  {
    "name": "行政院農業委員會水土保持局臺中分局_2F_會議室2",
    "lat": 24.247225,
    "lng": 120.720142,
    "address": "420臺中市豐原區陽明街22號"
  },
  {
    "name": "行政院農業委員會水土保持局臺中分局_2F_走廊1",
    "lat": 24.247225,
    "lng": 120.720142,
    "address": "420臺中市豐原區陽明街22號"
  },
  {
    "name": "行政院農業委員會水土保持局臺中分局_2F_走廊2",
    "lat": 24.247225,
    "lng": 120.720142,
    "address": "420臺中市豐原區陽明街22號"
  },
  {
    "name": "行政院農業委員會水土保持局臺中分局_3F_走廊1",
    "lat": 24.247225,
    "lng": 120.720142,
    "address": "420臺中市豐原區陽明街22號"
  },
  {
    "name": "行政院農業委員會水土保持局臺中分局_3F_走廊2",
    "lat": 24.247225,
    "lng": 120.720142,
    "address": "420臺中市豐原區陽明街22號"
  },
  {
    "name": "臺鐵局豐原站第1月台5車位置",
    "lat": 24.2541292,
    "lng": 120.7229519,
    "address": "420臺中市豐原區中正路1-1號"
  },
  {
    "name": "臺鐵局豐原站第2月台5車位置",
    "lat": 24.2541292,
    "lng": 120.7229519,
    "address": "420臺中市豐原區中正路1-1號"
  },
  {
    "name": "臺鐵局豐原站第2月台11車位置",
    "lat": 24.2541292,
    "lng": 120.7229519,
    "address": "420臺中市豐原區中正路1-1號"
  },
  {
    "name": "臺鐵局豐原站2樓付費區站長室",
    "lat": 24.2541292,
    "lng": 120.7229519,
    "address": "420臺中市豐原區中正路1-1號"
  },
  {
    "name": "臺鐵局豐原站2樓非付費區販賣部",
    "lat": 24.2541292,
    "lng": 120.7229519,
    "address": "420臺中市豐原區中正路1-1號"
  },
  {
    "name": "內政部移民署臺中市第二服務站(新)",
    "lat": 24.243567,
    "lng": 120.714055,
    "address": "420臺中市豐原區中山路280號"
  },
  {
    "name": "臺中市豐原區豐原社區發展協會",
    "lat": 24.255484,
    "lng": 120.721869,
    "address": "420臺中市豐原區豐原里新生北路155之1號"
  },
  {
    "name": "臺中市豐原區南村社區發展協會",
    "lat": 24.25662,
    "lng": 120.72993,
    "address": "420臺中市豐原區南村里圓環東路918號"
  },
  {
    "name": "臺中市豐原區翁明社區發展協會",
    "lat": 24.257539,
    "lng": 120.725834,
    "address": "420臺中市豐原區翁明里東仁街125號"
  },
  {
    "name": "臺中市豐原區圳寮社區發展協會",
    "lat": 24.254916,
    "lng": 120.716966,
    "address": "420臺中市豐原區圳寮里豐洲路1號"
  },
  {
    "name": "臺中市豐原區田心社區發展協會",
    "lat": 24.244144,
    "lng": 120.714752,
    "address": "420臺中市豐原區田心里圓環東路54號"
  },
  {
    "name": "臺中市豐原區新南陽社區發展協會",
    "lat": 24.241309,
    "lng": 120.726629,
    "address": "420臺中市豐原區南陽里永康路181巷6號"
  },
  {
    "name": "臺中市豐原區豐榮社區發展協會",
    "lat": 24.253325,
    "lng": 120.720419,
    "address": "420臺中市豐原區豐榮里新生北路155之1號"
  },
  {
    "name": "財團法人福智慈善基金會(頂街據點)",
    "lat": 24.252357,
    "lng": 120.718748,
    "address": "420臺中市豐原區頂街里信義街145號二樓"
  },
  {
    "name": "臺中市豐原區豐田社區發展協會",
    "lat": 24.238145,
    "lng": 120.721657,
    "address": "420臺中市豐原區豐田里田心路二段272巷1號"
  },
  {
    "name": "臺中市豐原區翁子社區發展協會",
    "lat": 24.263009,
    "lng": 120.742489,
    "address": "420臺中市豐原區翁子里豐勢路二段290巷12號"
  },
  {
    "name": "臺中市豐原區翁社社區發展協會",
    "lat": 24.264966,
    "lng": 120.738517,
    "address": "420臺中市豐原區翁社里豐年路263巷3號"
  },
  {
    "name": "臺中市南屯區北鎮社區發展協會(功能型據點)",
    "lat": 24.26,
    "lng": 120.717,
    "address": "408臺中市南屯區鎮平里新民巷3號"
  },
  {
    "name": "臺中市霧峰區本鄉社區發展協會",
    "lat": 24.249,
    "lng": 120.713,
    "address": "413臺中市霧峰區中正里中正路945號二樓"
  },
  {
    "name": "陽明大樓",
    "lat": 24.246829,
    "lng": 120.720529,
    "address": "420臺中市豐原區陽明街36號"
  },
  {
    "name": "衛生局大樓",
    "lat": 24.248318,
    "lng": 120.714007,
    "address": "420臺中市豐原區中興路136號"
  },
  {
    "name": "陽明大樓-中庭",
    "lat": 24.246829,
    "lng": 120.720529,
    "address": "420臺中市豐原區陽明街36號"
  },
  {
    "name": "地方稅務局_豐原分局",
    "lat": 24.242251,
    "lng": 120.712828,
    "address": "420臺中市豐原區中山路219號"
  },
  {
    "name": "豐原區公所",
    "lat": 24.241926,
    "lng": 120.717958,
    "address": "420臺中市豐原區市政路2號"
  },
  {
    "name": "豐原區戶政事務所",
    "lat": 24.24142,
    "lng": 120.718064,
    "address": "420臺中市豐原區市政路4號"
  },
  {
    "name": "豐原地政事務所",
    "lat": 24.249149,
    "lng": 120.713846,
    "address": "420臺中市豐原區西安街21號"
  },
  {
    "name": "葫蘆墩文化中心",
    "lat": 24.252499,
    "lng": 120.730721,
    "address": "420臺中市豐原區圓環東路782號"
  },
  {
    "name": "臺中市立圖書館豐原分館",
    "lat": 24.241688,
    "lng": 120.717513,
    "address": "420臺中市豐原區市政路2號"
  },
  {
    "name": "豐原區衛生所",
    "lat": 24.248418,
    "lng": 120.714351,
    "address": "420臺中市豐原區中興路136號"
  },
  {
    "name": "陽明大樓-5F",
    "lat": 24.246829,
    "lng": 120.720529,
    "address": "420臺中市豐原區陽明街36號"
  },
  {
    "name": "臺中市豐原廟東復興商圈(中正路115號)",
    "lat": 24.251623,
    "lng": 120.720625,
    "address": "420臺中市豐原區中正路115號"
  },
  {
    "name": "臺中市豐原廟東復興商圈(中正路172號)",
    "lat": 24.2518,
    "lng": 120.71908,
    "address": "420臺中市豐原區中正路172號"
  },
  {
    "name": "臺中市統一超商豐原復興路復興店(公話)",
    "lat": 24.25048,
    "lng": 120.71877,
    "address": "420臺中市豐原區復興路75號"
  },
  {
    "name": "臺中市豐原客運總站(公話)",
    "lat": 24.253912,
    "lng": 120.721679,
    "address": "420臺中市豐原區三民路46號"
  },
  {
    "name": "豐原葫蘆墩文化旅遊派出所前公話亭",
    "lat": 24.253663,
    "lng": 120.722563,
    "address": "420臺中市豐原區中正路5號"
  },
  {
    "name": "統一超商豐原安康路康泰店(公話)",
    "lat": 24.2439714,
    "lng": 120.7243128,
    "address": "420臺中市豐原區安康路34號(公話)"
  },
  {
    "name": "統一超商豐原向陽路豐鑫店(公話)",
    "lat": 24.2513148,
    "lng": 120.7276296,
    "address": "420臺中市豐原區向陽路276號"
  },
  {
    "name": "統一超商豐原三民路豐三民店(公話)",
    "lat": 24.254128,
    "lng": 120.722024,
    "address": "420臺中市豐原區三民路38號"
  },
  {
    "name": "統一超商豐原三民路新豐民店(公話)",
    "lat": 24.253407,
    "lng": 120.720038,
    "address": "420臺中市豐原區三民路93號1樓"
  },
  {
    "name": "統一超商豐原三豐路欣三豐店(公話)",
    "lat": 24.253076,
    "lng": 120.716315,
    "address": "420臺中市豐原區三豐路91號"
  },
  {
    "name": "臺中市公車葫蘆墩國小站",
    "lat": 24.2621416,
    "lng": 120.713112,
    "address": "420臺中市豐原區豐原大道七段仁洲街口(FYFY1123)"
  },
  {
    "name": "統一超商豐原圓環東路甜心店(公話)",
    "lat": 24.2431676,
    "lng": 120.7192342,
    "address": "420臺中市豐原區圓環東路168號"
  },
  {
    "name": "臺中市公車翁子國小站",
    "lat": 24.2636,
    "lng": 120.74245,
    "address": "420臺中市豐原區豐勢路二段300號旁(FYFT2313)"
  },
  {
    "name": "統一超商豐原中興路新豐興店(公話)",
    "lat": 24.248109,
    "lng": 120.71672,
    "address": "420臺中市豐原區中興路57號"
  },
  {
    "name": "統一超商豐原水源路葫蘆墩店(公話)",
    "lat": 24.255612,
    "lng": 120.741483,
    "address": "420臺中市豐原區水源路127號之1"
  },
  {
    "name": "統一超商豐原水源路豐原道店(公話)",
    "lat": 24.255621,
    "lng": 120.737488,
    "address": "420臺中市豐原區水源路307號"
  },
  {
    "name": "衛生局大門左側公話亭",
    "lat": 24.2481153,
    "lng": 120.7145695,
    "address": "420臺中市豐原區中興路136號前(公話亭)"
  },
  {
    "name": "萊爾富便利商店豐原中山路豐商店(公話)",
    "lat": 24.247252,
    "lng": 120.715133,
    "address": "420臺中市豐原區中山路418號"
  },
  {
    "name": "全家便利商店豐原豐中路榮豐店(公話)",
    "lat": 24.256819,
    "lng": 120.722036,
    "address": "420臺中市豐原區豐中路79號"
  },
  {
    "name": "統一超商豐原西安街瑞彬店(公話)",
    "lat": 24.249349,
    "lng": 120.713093,
    "address": "420臺中市豐原區西安街68號1樓"
  },
  {
    "name": "臺中市公車慈濟公園站",
    "lat": 24.2571,
    "lng": 120.73332,
    "address": "420臺中市豐原區豐東路574號對面(FYFT2969)"
  },
  {
    "name": "豐原廟東商圈",
    "lat": 24.249685,
    "lng": 120.719031,
    "address": "420臺中市豐原區信義街93號同7915(FYFY7140)"
  },
  {
    "name": "統一超商豐原南陽路茂陽店(公話)",
    "lat": 24.245372,
    "lng": 120.72675,
    "address": "420臺中市豐原區南陽路299號之8"
  },
  {
    "name": "統一超商豐原豐勢路翁子店(公話)",
    "lat": 24.2608744,
    "lng": 120.7360044,
    "address": "420臺中市豐原區豐勢路一段669號(公話)"
  },
  {
    "name": "統一超商豐原南陽路萳陽店(公話)",
    "lat": 24.248875,
    "lng": 120.721805,
    "address": "420臺中市豐原區南陽路480號"
  },
  {
    "name": "全家便利商店豐原豐東路豐東店(公話)",
    "lat": 24.247807,
    "lng": 120.730168,
    "address": "420臺中市豐原區豐東路122號"
  },
  {
    "name": "統一超商豐原豐東路豐村店(公話)",
    "lat": 24.253358,
    "lng": 120.733874,
    "address": "420臺中市豐原區豐東路412號"
  },
  {
    "name": "統一超商豐原豐南街新豐田店(公話)",
    "lat": 24.239483,
    "lng": 120.716058,
    "address": "420臺中市豐原區豐南街145號"
  },
  {
    "name": "萊爾富便利商店豐原豐南街豐田店(公話)",
    "lat": 24.2393818,
    "lng": 120.713379,
    "address": "420臺中市豐原區豐南街58號"
  },
  {
    "name": "臺中市公車豐原老人會館站",
    "lat": 24.2521781,
    "lng": 120.725689,
    "address": "420臺中市豐原區向陽路173巷口前(FYFY2840光化箱內)"
  },
  {
    "name": "全家便利商店豐原豐北街金旺店(公話)",
    "lat": 24.263868,
    "lng": 120.719973,
    "address": "420臺中市豐原區豐北街246號"
  },
  {
    "name": "統一超商豐原豐原大道瑞慶店(公話)",
    "lat": 24.2391348,
    "lng": 120.727257,
    "address": "420臺中市豐原區豐原大道三段261號"
  },
  {
    "name": "全家便利商店豐原豐勢路金睿店(公話)",
    "lat": 24.255923,
    "lng": 120.72683,
    "address": "420臺中市豐原區豐勢路一段259號(公話)"
  },
  {
    "name": "臺中市公車北環福德祠站",
    "lat": 24.2591511,
    "lng": 120.7207162,
    "address": "420臺中市豐原區圓環北路二段2號前(FYFY1917交接箱)"
  },
  {
    "name": "臺中市公車豐原高商站",
    "lat": 24.24748,
    "lng": 120.715274,
    "address": "420臺中市豐原區中山路428號"
  },
  {
    "name": "臺中市公車豐原高中站",
    "lat": 24.255801,
    "lng": 120.741246,
    "address": "420臺中市豐原區水源路162號"
  },
  {
    "name": "原住民族事務委員會",
    "lat": 24.246293,
    "lng": 120.712175,
    "address": "420臺中市豐原區圓環南路70號"
  },
  {
    "name": "統一超商豐原保康路保康店(公話)",
    "lat": 24.2408684,
    "lng": 120.7239699,
    "address": "420臺中市豐原區保康路160號"
  },
  {
    "name": "豐原體育場",
    "lat": 24.260667,
    "lng": 120.717631,
    "address": "420臺中市豐原區豐北街221號"
  }
]