[
  {
    "name": "臺中市霧峰區北柳社區發展協會",
    "lat": 24.063214,
    "lng": 120.679297,
    "address": "413臺中市霧峰區北柳里四德路435巷85號"
  },
  {
    "name": "臺中市霧峰區四德社區發展協會",
    "lat": 24.06025,
    "lng": 120.666802,
    "address": "413臺中市霧峰區四德里四德路533號(臺中市霧峰區四德路478-3號)"
  },
  {
    "name": "臺中市霧峰區五福社區發展協會",
    "lat": 24.071538,
    "lng": 120.665892,
    "address": "413臺中市霧峰區五福里五福路234號"
  },
  {
    "name": "全家便利商店大里西湖路西湖店(公話)",
    "lat": 24.077404,
    "lng": 120.67906,
    "address": "412臺中市大里區西湖路337號"
  },
  {
    "name": "臺中市公車四德國小站",
    "lat": 24.0608539,
    "lng": 120.6675428,
    "address": "413臺中市霧峰區四德路504號前"
  },
  {
    "name": "統一超商霧峰中投西路中投店(公話)",
    "lat": 24.069984,
    "lng": 120.661866,
    "address": "413臺中市霧峰區中投西路二段388號"
  },
  {
    "name": "統一超商霧峰四德路四德店(公話)",
    "lat": 24.060791,
    "lng": 120.667598,
    "address": "413臺中市霧峰區四德路525號之2"
  },
  {
    "name": "全家便利商店霧峰四德路金德店(公話)",
    "lat": 24.059958,
    "lng": 120.663133,
    "address": "413臺中市霧峰區四德路576號"
  },
  {
    "name": "全家便利商店霧峰中投西路中投店(公話)",
    "lat": 24.0718759,
    "lng": 120.6621277,
    "address": "413臺中市霧峰區中投西路二段430號(公話)"
  }
]