[
  {
    "name": "名間新街郵局",
    "lat": 23.877766,
    "lng": 120.693141,
    "address": "551南投縣名間鄉新街村彰南路405-5號"
  },
  {
    "name": "自來水公司南投營運所",
    "lat": 23.89475,
    "lng": 120.688196,
    "address": "540南投縣南投市彰南路一段550號"
  },
  {
    "name": "臺灣南投地方法院南投簡易庭",
    "lat": 23.86982,
    "lng": 120.693368,
    "address": "551南投縣名間鄉彰南路356-7號"
  },
  {
    "name": "南投縣南投市嘉和社區發展協會",
    "lat": 23.896103,
    "lng": 120.687714,
    "address": "540南投縣南投市嘉和里彰南路一段588巷7號"
  },
  {
    "name": "南投縣名間鄉新北社區發展協會",
    "lat": 23.879739,
    "lng": 120.693359,
    "address": "551南投縣名間鄉新街村彰南路472號"
  },
  {
    "name": "社團法人南投縣家庭照顧者關懷協會(萬丹村)",
    "lat": 23.883,
    "lng": 120.705,
    "address": "551南投縣名間鄉萬丹村新丹巷38之1號"
  },
  {
    "name": "私立左岸居家長照機構(南投2)",
    "lat": 23.8955276,
    "lng": 120.6872114,
    "address": "540南投縣南投市嘉和一路232巷2號"
  },
  {
    "name": "南投縣私立慈愛居家長照機構(南投)",
    "lat": 23.8933824,
    "lng": 120.7061819,
    "address": "540南投縣南投市千秋路222號"
  },
  {
    "name": "司法院(南投地方法院-南投簡易庭)",
    "lat": 23.8700029,
    "lng": 120.6933274,
    "address": "551南投縣名間鄉彰南路356之7號"
  }
]