[
  {
    "name": "虎尾圓環郵局",
    "lat": 23.709831,
    "lng": 120.437822,
    "address": "632雲林縣虎尾鎮新興里光復路387號"
  },
  {
    "name": "財政部中區國稅局虎尾稽徵所",
    "lat": 23.707793,
    "lng": 120.445214,
    "address": "632雲林縣虎尾鎮光明路118號4樓"
  },
  {
    "name": "台糖公司雲林區處辦公大樓",
    "lat": 23.70377,
    "lng": 120.43673,
    "address": "632雲林縣虎尾鎮中山路2號"
  },
  {
    "name": "雲林縣台灣悅讀人教育發展協會-虎尾驛據點",
    "lat": 23.703881,
    "lng": 120.436544,
    "address": "632雲林縣虎尾鎮安慶里中山路10號"
  },
  {
    "name": "雲林縣稅務局虎尾分局",
    "lat": 23.708431,
    "lng": 120.444918,
    "address": "632雲林縣虎尾鎮光明路118號1樓"
  },
  {
    "name": "雲林縣虎尾鎮立圖書館",
    "lat": 23.707311,
    "lng": 120.447106,
    "address": "632雲林縣虎尾鎮光明路68號"
  }
]