[
  {
    "name": "田中三潭郵局",
    "lat": 23.85254,
    "lng": 120.585467,
    "address": "520彰化縣田中鎮北洛里員集路二段616號"
  },
  {
    "name": "田中郵局",
    "lat": 23.856188,
    "lng": 120.586375,
    "address": "520彰化縣田中鎮南路里員集路二段305號"
  },
  {
    "name": "福興(兼埤頭及田中)工業區服務中心-田中",
    "lat": 23.8484914,
    "lng": 120.5712719,
    "address": "520彰化縣田中鎮沙崙里新工三路95號1樓"
  },
  {
    "name": "臺鐵局田中站第1月台8車位置",
    "lat": 23.8583717,
    "lng": 120.5892919,
    "address": "520彰化縣田中鎮中州路一段1號"
  },
  {
    "name": "臺鐵局田中站第2月台8車位置",
    "lat": 23.8583717,
    "lng": 120.5892919,
    "address": "520彰化縣田中鎮中州路一段1號"
  },
  {
    "name": "臺鐵局田中站候車室",
    "lat": 23.8583717,
    "lng": 120.5892919,
    "address": "520彰化縣田中鎮中州路一段1號"
  },
  {
    "name": "彰化縣警察局田中分局",
    "lat": 23.847652,
    "lng": 120.574737,
    "address": "520彰化縣田中鎮沙崙里興酪路一段299號"
  },
  {
    "name": "彰化縣田中鎮公所",
    "lat": 23.861586,
    "lng": 120.580948,
    "address": "520彰化縣田中鎮斗中路一段198號"
  },
  {
    "name": "彰化縣消防局田中分隊",
    "lat": 23.861615,
    "lng": 120.580251,
    "address": "520彰化縣田中鎮斗中路一段230號"
  },
  {
    "name": "彰化縣田中地政事務所地價業務櫃台",
    "lat": 23.86444,
    "lng": 120.581592,
    "address": "520彰化縣田中鎮西路里明慶街158號2樓"
  },
  {
    "name": "彰化縣田中地政事務所服務台",
    "lat": 23.86444,
    "lng": 120.581592,
    "address": "520彰化縣田中鎮西路里明慶街158號1樓"
  },
  {
    "name": "彰化縣田中地政事務所測量業務櫃台",
    "lat": 23.86444,
    "lng": 120.581592,
    "address": "520彰化縣田中鎮西路里明慶街158號3樓"
  },
  {
    "name": "彰化縣田中鎮公所2樓會議室",
    "lat": 23.861512,
    "lng": 120.580777,
    "address": "520彰化縣田中鎮斗中路一段198號"
  },
  {
    "name": "彰化縣田中戶政事務所",
    "lat": 23.860202,
    "lng": 120.584586,
    "address": "520彰化縣田中鎮西路街100號"
  },
  {
    "name": "彰化縣田中鎮立圖書館2樓開架閱覽區",
    "lat": 23.856566,
    "lng": 120.588636,
    "address": "520彰化縣田中鎮中新路229號2樓"
  },
  {
    "name": "彰化縣田中鎮立圖書館3樓青少年專區",
    "lat": 23.856566,
    "lng": 120.588636,
    "address": "520彰化縣田中鎮中新路229號3樓"
  },
  {
    "name": "彰化縣田中鎮婦幼中心",
    "lat": 23.861448,
    "lng": 120.580544,
    "address": "520彰化縣田中鎮斗中路一段222號3樓"
  },
  {
    "name": "彰化縣田中鎮衛生所",
    "lat": 23.861448,
    "lng": 120.580544,
    "address": "520彰化縣田中鎮斗中路一段222號"
  },
  {
    "name": "彰化縣田中口罩觀光工廠",
    "lat": 23.846871,
    "lng": 120.569759,
    "address": "520彰化縣田中鎮中州路二段751號"
  },
  {
    "name": "彰化縣田中鎮公所3樓",
    "lat": 23.861512,
    "lng": 120.580777,
    "address": "520彰化縣田中鎮斗中路一段198號3樓"
  }
]