[
  {
    "name": "龍井龍津郵局",
    "lat": 24.229332,
    "lng": 120.536107,
    "address": "434臺中市龍井區中央路一段246、248號"
  },
  {
    "name": "社團法人臺中市忘憂草協會",
    "lat": 24.223072,
    "lng": 120.556216,
    "address": "433臺中市沙鹿區斗抵里天仁一街30號"
  },
  {
    "name": "臺中市沙鹿區斗抵社區發展協會",
    "lat": 24.2257,
    "lng": 120.554311,
    "address": "433臺中市沙鹿區斗抵里斗潭路197號"
  },
  {
    "name": "臺中市沙鹿區興安社區發展協會",
    "lat": 24.234988,
    "lng": 120.558353,
    "address": "433臺中市沙鹿區興安里鎮南路二段500號一樓"
  },
  {
    "name": "臺中市沙鹿區沙鹿社區發展協會",
    "lat": 24.21,
    "lng": 120.547,
    "address": "433臺中市沙鹿區沙鹿里日新街110巷3號"
  },
  {
    "name": "統一超商沙鹿沙田路天仁店(公話)",
    "lat": 24.2225502,
    "lng": 120.5565017,
    "address": "433臺中市沙鹿區沙田路17之19號(公話)"
  },
  {
    "name": "沙鹿火車站商圈",
    "lat": 24.2344038,
    "lng": 120.5575244,
    "address": "433臺中市沙鹿區大同街19-8號"
  },
  {
    "name": "全家便利商店龍井沙田路沙田店(公話)",
    "lat": 24.208644,
    "lng": 120.549653,
    "address": "434臺中市龍井區沙田路六段187號"
  },
  {
    "name": "統一超商沙鹿沙田路斗抵店(公話)",
    "lat": 24.229544,
    "lng": 120.558549,
    "address": "433臺中市沙鹿區沙田路43號之12"
  }
]