[
  {
    "name": "鹿谷郵局",
    "lat": 23.747306,
    "lng": 120.753065,
    "address": "558南投縣鹿谷鄉中正路二段115號"
  },
  {
    "name": "台電公司鹿谷服務所大廳",
    "lat": 23.747974,
    "lng": 120.752599,
    "address": "558南投縣鹿谷鄉中正路二段135號"
  },
  {
    "name": "南投縣鹿谷鄉彰雅社區發展協會",
    "lat": 23.747,
    "lng": 120.768,
    "address": "558南投縣鹿谷鄉彰雅村凍頂巷10之12號"
  },
  {
    "name": "南投縣鹿谷鄉戶政事務所",
    "lat": 23.745612,
    "lng": 120.753581,
    "address": "558南投縣鹿谷鄉中正路二段71號"
  },
  {
    "name": "南投縣鹿谷鄉公所全區",
    "lat": 23.745624,
    "lng": 120.753605,
    "address": "558南投縣鹿谷鄉中正路二段73號"
  }
]