[
  {
    "name": "芳苑郵局",
    "lat": 23.924199,
    "lng": 120.320002,
    "address": "528彰化縣芳苑鄉仁愛村斗苑路芳苑段231號"
  },
  {
    "name": "彰化縣芳苑鄉公所",
    "lat": 23.924359,
    "lng": 120.320357,
    "address": "528彰化縣芳苑鄉斗苑路芳苑段202號"
  },
  {
    "name": "彰化縣二林戶政事務所芳苑辦公室",
    "lat": 23.924385,
    "lng": 120.320463,
    "address": "528彰化縣芳苑鄉芳苑村斗苑路芳苑段202號2樓"
  },
  {
    "name": "彰化縣芳苑鄉衛生所",
    "lat": 23.925221,
    "lng": 120.320549,
    "address": "528彰化縣芳苑鄉斗苑路芳苑段194巷48號"
  },
  {
    "name": "彰化縣警察局芳苑分局芳苑派出所",
    "lat": 23.925088,
    "lng": 120.315707,
    "address": "528彰化縣芳苑鄉仁愛村芳新路20號"
  },
  {
    "name": "彰化縣芳苑鄉圖書館",
    "lat": 23.92487,
    "lng": 120.320251,
    "address": "528彰化縣芳苑鄉芳苑村斗苑路芳苑段206號"
  }
]