[
  {
    "name": "衛生福利部中區老人之家",
    "lat": 23.855974,
    "lng": 120.615956,
    "address": "520彰化縣田中鎮中南路二段210號"
  },
  {
    "name": "田中內灣郵局",
    "lat": 23.852969,
    "lng": 120.605471,
    "address": "520彰化縣田中鎮中南路二段430號"
  },
  {
    "name": "國軍退除役官兵輔導委員會彰化榮譽國民之家行政大樓一樓",
    "lat": 23.851741,
    "lng": 120.6081349,
    "address": "520彰化縣田中鎮中南路二段421號"
  },
  {
    "name": "彰化縣田中鎮立圖書館",
    "lat": 23.857214,
    "lng": 120.589901,
    "address": "520彰化縣田中鎮中新路229號"
  },
  {
    "name": "彰化縣田中鎮台灣耕種時業改進社",
    "lat": 23.853996,
    "lng": 120.594875,
    "address": "520彰化縣田中鎮中南路三段310號"
  },
  {
    "name": "彰化縣田中鎮田頭水文史館",
    "lat": 23.858529,
    "lng": 120.591039,
    "address": "520彰化縣田中鎮中州路一段1號"
  },
  {
    "name": "彰化縣警察局田中分局內安派出所",
    "lat": 23.852833,
    "lng": 120.601795,
    "address": "520彰化縣田中鎮碧峰村中南路二段601號"
  }
]