[
  {
    "name": "北港北辰郵局",
    "lat": 23.573779,
    "lng": 120.301556,
    "address": "651雲林縣北港鎮民有路26號"
  },
  {
    "name": "北港郵局",
    "lat": 23.570628,
    "lng": 120.302478,
    "address": "651雲林縣北港鎮文化路54號"
  },
  {
    "name": "財政部中區國稅局北港稽徵所",
    "lat": 23.574578,
    "lng": 120.297308,
    "address": "651雲林縣北港鎮民樂路58號"
  },
  {
    "name": "自來水公司北港營運所",
    "lat": 23.578664,
    "lng": 120.300228,
    "address": "651雲林縣北港鎮文仁路152號"
  },
  {
    "name": "臺灣土地銀行北港分行",
    "lat": 23.568572,
    "lng": 120.302322,
    "address": "651雲林縣北港鎮民主路90號"
  },
  {
    "name": "第一商業銀行(北港分行)",
    "lat": 23.5697662,
    "lng": 120.3017052,
    "address": "651雲林縣北港鎮中正路96號"
  },
  {
    "name": "社團法人雲林縣北港身心障礙者福利協會",
    "lat": 23.583617,
    "lng": 120.30534,
    "address": "651雲林縣北港鎮新街里太平路255號"
  },
  {
    "name": "社團法人雲林縣復健青年協進會-北港據點",
    "lat": 23.578645,
    "lng": 120.294946,
    "address": "651雲林縣北港鎮新街里新東街33巷8之3號"
  },
  {
    "name": "雲林縣家園關懷協會-樹腳里據點",
    "lat": 23.574413,
    "lng": 120.290698,
    "address": "651雲林縣北港鎮樹腳里陽明街37號"
  },
  {
    "name": "雲林縣北港鎮光復社區發展協會",
    "lat": 23.5736,
    "lng": 120.294,
    "address": "651雲林縣北港鎮光復里長安街51號"
  },
  {
    "name": "雲林縣青創樂活推展協會(北港劉厝據點)",
    "lat": 23.589,
    "lng": 120.293,
    "address": "651雲林縣北港鎮劉厝里4鄰劉厝132之3號"
  },
  {
    "name": "司法院(雲林地方法院-北港簡易庭)",
    "lat": 23.572171,
    "lng": 120.2930814,
    "address": "651雲林縣北港鎮文仁路471號"
  },
  {
    "name": "雲林縣稅務局北港分局",
    "lat": 23.579917,
    "lng": 120.305106,
    "address": "651雲林縣北港鎮文仁路6號1樓"
  },
  {
    "name": "雲林縣北港鎮公所",
    "lat": 23.5760556,
    "lng": 120.3023698,
    "address": "651雲林縣北港鎮北辰路1號"
  },
  {
    "name": "雲林縣北港鎮東陽里社區活動中心",
    "lat": 23.564597,
    "lng": 120.305915,
    "address": "651雲林縣北港鎮東陽里民生路1號"
  },
  {
    "name": "雲林縣北港鎮劉厝里活動中心",
    "lat": 23.588718,
    "lng": 120.292815,
    "address": "651雲林縣北港鎮劉厝里132之4號"
  },
  {
    "name": "雲林縣北港鎮立圖書館",
    "lat": 23.577144,
    "lng": 120.30345,
    "address": "651雲林縣北港鎮北辰路2-5號"
  }
]