[
  {
    "name": "高雄桂林郵局",
    "lat": 22.583315,
    "lng": 120.358029,
    "address": "812高雄市小港區桂華街130號"
  },
  {
    "name": "鳳山中崙郵局",
    "lat": 22.602226,
    "lng": 120.351117,
    "address": "830高雄市鳳山區中崙路576號"
  },
  {
    "name": "鳳山過埤郵局",
    "lat": 22.590312,
    "lng": 120.364516,
    "address": "830高雄市鳳山區過埤路114號"
  },
  {
    "name": "華南商業銀行高雄桂林分行",
    "lat": 22.582433,
    "lng": 120.357456,
    "address": "812高雄市小港區桂陽路44號"
  },
  {
    "name": "中華民國健康生活管理促進產業協會(六苓站)",
    "lat": 22.582,
    "lng": 120.366,
    "address": "812高雄市小港區六苓里學府路100巷1號"
  },
  {
    "name": "高雄市燕巢區尖山社區發展協會",
    "lat": 22.582,
    "lng": 120.366,
    "address": "824高雄市燕巢區尖山里紅山巷91號"
  },
  {
    "name": "中華無限愛關懷協會",
    "lat": 22.599,
    "lng": 120.353,
    "address": "830高雄市鳳山區三民里三民路12號"
  },
  {
    "name": "社團法人高雄市關懷台灣協會",
    "lat": 22.605,
    "lng": 120.349,
    "address": "830高雄市鳳山區中崙里中崙四路5號"
  },
  {
    "name": "社團法人高雄市親職教育關懷照護協會",
    "lat": 22.595,
    "lng": 120.361,
    "address": "830高雄市鳳山區正義里南江街185號"
  },
  {
    "name": "高雄市立圖書館中崙分館",
    "lat": 22.597008,
    "lng": 120.354054,
    "address": "830高雄市鳳山區中崙五路1號"
  },
  {
    "name": "高雄市小港區桂林中厝里聯合活動中心",
    "lat": 22.5821,
    "lng": 120.35174,
    "address": "812高雄市小港區桂陽路332號"
  }
]