[
  {
    "name": "彌陀郵局",
    "lat": 22.779327,
    "lng": 120.2499238,
    "address": "827高雄市彌陀區彌陀村中正路7號"
  },
  {
    "name": "高雄市梓官區大舍社區發展協會",
    "lat": 22.766,
    "lng": 120.244,
    "address": "826高雄市梓官區大舍里大舍東路公厝巷4號"
  },
  {
    "name": "高雄市彌陀區漯底社區發展協會",
    "lat": 22.7673,
    "lng": 120.2435,
    "address": "827高雄市彌陀區漯底里樂安路廟巷14號"
  },
  {
    "name": "高雄市彌陀區戶政事務所",
    "lat": 22.781147,
    "lng": 120.249825,
    "address": "827高雄市彌陀區中華路16號"
  },
  {
    "name": "高雄市彌陀區衛生所",
    "lat": 22.782038,
    "lng": 120.251112,
    "address": "827高雄市彌陀區中華路1巷5弄1號"
  },
  {
    "name": "高雄市彌陀區公所",
    "lat": 22.78135,
    "lng": 120.250817,
    "address": "827高雄市彌陀區中華路4號"
  },
  {
    "name": "高雄市立圖書館彌陀分館",
    "lat": 22.762666,
    "lng": 120.244551,
    "address": "827高雄市彌陀區漯底里四維路1之1號"
  },
  {
    "name": "高雄市立圖書館彌陀公園分館",
    "lat": 22.78545,
    "lng": 120.246475,
    "address": "827高雄市彌陀區中正路281巷50號"
  }
]