[
  {
    "name": "花壇郵局",
    "lat": 24.025638,
    "lng": 120.538582,
    "address": "503彰化縣花壇鄉中正路316號"
  },
  {
    "name": "公路總局臺中區監理所彰化監理站-1",
    "lat": 24.036437,
    "lng": 120.535474,
    "address": "503彰化縣花壇鄉南口村中山路二段457號"
  },
  {
    "name": "臺鐵局花壇站候車室",
    "lat": 24.0249719,
    "lng": 120.537345,
    "address": "503彰化縣花壇鄉中正路370號"
  },
  {
    "name": "彰化縣花壇鄉立圖書館",
    "lat": 24.027644,
    "lng": 120.545553,
    "address": "503彰化縣花壇鄉長沙村中正路72號"
  },
  {
    "name": "彰化縣花壇鄉公所",
    "lat": 24.029673,
    "lng": 120.538236,
    "address": "503彰化縣花壇鄉南口村中山路二段182號"
  },
  {
    "name": "彰化縣彰化戶政事務所花壇辦公室",
    "lat": 24.028259,
    "lng": 120.549073,
    "address": "503彰化縣花壇鄉長沙村彰員路二段507號"
  },
  {
    "name": "彰化縣花壇鄉茉莉花壇夢想館",
    "lat": 24.026103,
    "lng": 120.537379,
    "address": "503彰化縣花壇鄉花壇街273號"
  },
  {
    "name": "彰化縣花壇鄉衛生所",
    "lat": 24.028161,
    "lng": 120.548537,
    "address": "503彰化縣花壇鄉中正路11號"
  },
  {
    "name": "彰化縣警察局彰化分局三家派出所",
    "lat": 24.022182,
    "lng": 120.557005,
    "address": "503彰化縣花壇鄉三春村彰員路109號"
  },
  {
    "name": "彰化縣警察局彰化分局花壇分駐所",
    "lat": 24.028352,
    "lng": 120.548985,
    "address": "503彰化縣花壇鄉長沙村中正路1號"
  },
  {
    "name": "彰化縣花壇鄉調解委員會",
    "lat": 24.029592,
    "lng": 120.538249,
    "address": "503彰化縣花壇鄉中山路二段182號3樓"
  },
  {
    "name": "彰化縣花壇鄉文德宮A區",
    "lat": 24.042927,
    "lng": 120.54738,
    "address": "503彰化縣花壇鄉文德村彰員路三段2號"
  },
  {
    "name": "彰化縣花壇鄉文德宮B區",
    "lat": 24.042927,
    "lng": 120.54738,
    "address": "503彰化縣花壇鄉文德村彰員路三段2號"
  },
  {
    "name": "彰化縣花壇鄉花壇社區活動中心",
    "lat": 24.023915,
    "lng": 120.539492,
    "address": "503彰化縣花壇鄉花壇村平和街76號"
  }
]