[
  {
    "name": "新港郵局",
    "lat": 23.5551,
    "lng": 120.346293,
    "address": "616嘉義縣新港鄉宮前村中正路8號"
  },
  {
    "name": "自來水公司新港營運所",
    "lat": 23.552245,
    "lng": 120.347653,
    "address": "616嘉義縣新港鄉中山路165號"
  },
  {
    "name": "嘉義縣新港鄉老人會",
    "lat": 23.55338,
    "lng": 120.345647,
    "address": "616嘉義縣新港鄉宮前村公園路28之1號"
  },
  {
    "name": "嘉義縣新港鄉馨園社區發展協會",
    "lat": 23.553194,
    "lng": 120.345636,
    "address": "616嘉義縣新港鄉宮前村公園路28之1號二樓"
  },
  {
    "name": "嘉義縣新港鄉大潭社區發展協會",
    "lat": 23.556,
    "lng": 120.373,
    "address": "616嘉義縣新港鄉大潭33附1號"
  },
  {
    "name": "社團法人嘉義縣扶緣服務協會",
    "lat": 23.56,
    "lng": 120.345,
    "address": "616嘉義縣新港鄉大興村24鄰新中路246附10號"
  },
  {
    "name": "嘉義縣新港鄉菜公社區發展協會",
    "lat": 23.534,
    "lng": 120.3584,
    "address": "616嘉義縣新港鄉菜公村咬仔竹41號"
  },
  {
    "name": "嘉義縣新港鄉公所",
    "lat": 23.5586226,
    "lng": 120.3537518,
    "address": "616嘉義縣新港鄉嘉民北路1號"
  },
  {
    "name": "嘉義縣民雄戶政事務所新港辦公室",
    "lat": 23.551477,
    "lng": 120.347543,
    "address": "616嘉義縣新港鄉中山路159號"
  }
]