[
  {
    "name": "恆春南門郵局",
    "lat": 22.002571,
    "lng": 120.744943,
    "address": "946屏東縣恆春鎮中正路51號"
  },
  {
    "name": "恆春旅遊醫院-醫療大樓1樓掛號室大廳",
    "lat": 21.999027,
    "lng": 120.744467,
    "address": "946屏東縣恆春鎮恆南路188號"
  },
  {
    "name": "財政部南區國稅局恆春稽徵所",
    "lat": 22.001647,
    "lng": 120.745887,
    "address": "946屏東縣恆春鎮南門路98號2樓"
  },
  {
    "name": "第一商業銀行(恆春分行)",
    "lat": 22.0019941,
    "lng": 120.7452926,
    "address": "946屏東縣恆春鎮中正路17號"
  },
  {
    "name": "屏東縣恆春鎮瑯嶠老人會",
    "lat": 22.003823,
    "lng": 120.745523,
    "address": "946屏東縣恆春鎮城南里新興路36巷35號二樓"
  },
  {
    "name": "屏東縣恆春鎮福增福健康促進協會",
    "lat": 22.017,
    "lng": 120.744,
    "address": "946屏東縣恆春鎮四溝里興北路興東巷19號"
  },
  {
    "name": "屏東縣恆春鎮網紗社區發展協會",
    "lat": 22.0169,
    "lng": 120.7443,
    "address": "946屏東縣恆春鎮網紗里省北路272之6號"
  },
  {
    "name": "屏東縣政府社會處(恆春社會福利綜合館)",
    "lat": 22.00345,
    "lng": 120.7483,
    "address": "946屏東縣恆春鎮文化路33號"
  },
  {
    "name": "屏東縣恆春鎮立圖書館",
    "lat": 22.003629,
    "lng": 120.74694,
    "address": "946屏東縣恆春鎮天文路3號"
  },
  {
    "name": "屏東縣恆春戶政事務所",
    "lat": 22.003061,
    "lng": 120.745578,
    "address": "946屏東縣恆春鎮天文路60號"
  },
  {
    "name": "屏東縣恆春地政事務所",
    "lat": 22.00293,
    "lng": 120.747012,
    "address": "946屏東縣恆春鎮文化路77號"
  },
  {
    "name": "恆春轉運站旅遊服務中心",
    "lat": 22.00258,
    "lng": 120.74538,
    "address": "946屏東縣恆春鎮中正路30號"
  }
]