[
  {
    "name": "竹田西勢郵局",
    "lat": 22.621416,
    "lng": 120.524375,
    "address": "911屏東縣竹田鄉西勢村光明路12-2號"
  },
  {
    "name": "臺鐵局西勢站候車室內",
    "lat": 22.616412,
    "lng": 120.526667,
    "address": "911屏東縣竹田鄉西勢村西豐路2號"
  },
  {
    "name": "臺鐵局麟洛站月台候車區",
    "lat": 22.63482,
    "lng": 120.5134854,
    "address": "909屏東縣麟洛鄉田道村(無地址)"
  },
  {
    "name": "屏東縣竹田鄉社區關懷服務協會",
    "lat": 22.617404,
    "lng": 120.523712,
    "address": "911屏東縣竹田鄉西勢村龍門路44號"
  },
  {
    "name": "屏東縣麟洛鄉田心社區發展協會",
    "lat": 22.637018,
    "lng": 120.523415,
    "address": "909屏東縣麟洛鄉田心村中正路320號"
  },
  {
    "name": "竹田老人文康中心",
    "lat": 22.61484,
    "lng": 120.5235,
    "address": "911屏東縣竹田鄉龍南路26-1號"
  },
  {
    "name": "屏東縣客家文物館地下一樓",
    "lat": 22.617377,
    "lng": 120.523504,
    "address": "911屏東縣竹田鄉西勢村龍門路97號"
  },
  {
    "name": "屏東縣客家文物館一樓",
    "lat": 22.617377,
    "lng": 120.523504,
    "address": "911屏東縣竹田鄉西勢村龍門路97號"
  },
  {
    "name": "屏東縣客家文物館二樓",
    "lat": 22.617377,
    "lng": 120.523504,
    "address": "911屏東縣竹田鄉西勢村龍門路97號"
  }
]