[
  {
    "name": "衛生福利部中區兒童之家行政中心",
    "lat": 24.139303,
    "lng": 120.674125,
    "address": "403臺中市西區大明街27號"
  },
  {
    "name": "台中大全街郵局",
    "lat": 24.1361678,
    "lng": 120.6712307,
    "address": "403臺中市西區大全街42、44、46號"
  },
  {
    "name": "台中民權路郵局",
    "lat": 24.139117,
    "lng": 120.678872,
    "address": "400臺中市中區民權路86號"
  },
  {
    "name": "台中東興路郵局",
    "lat": 24.141357,
    "lng": 120.653168,
    "address": "408臺中市南屯區東興路二段186號"
  },
  {
    "name": "台中南和路郵局",
    "lat": 24.116098,
    "lng": 120.66892,
    "address": "402臺中市南區南和路42、44號"
  },
  {
    "name": "台中國光路郵局",
    "lat": 24.12271,
    "lng": 120.679597,
    "address": "402臺中市南區國光路297號"
  },
  {
    "name": "台中福平里郵局",
    "lat": 24.127495,
    "lng": 120.665667,
    "address": "402臺中市南區復興路二段169號"
  },
  {
    "name": "台中樹仔腳郵局",
    "lat": 24.114468,
    "lng": 120.654718,
    "address": "402臺中市南區復興路一段236號"
  },
  {
    "name": "台中文化創意產業園區國際展演館",
    "lat": 24.132733,
    "lng": 120.679643,
    "address": "402臺中市南區復興路三段362號"
  },
  {
    "name": "台中文化創意產業園區雅堂館",
    "lat": 24.132733,
    "lng": 120.679643,
    "address": "402臺中市南區復興路三段362號"
  },
  {
    "name": "台中文化創意產業園區衡道堂禮堂",
    "lat": 24.132733,
    "lng": 120.679643,
    "address": "402臺中市南區復興路三段362號"
  },
  {
    "name": "文化部文化資產局行政大樓1樓",
    "lat": 24.132733,
    "lng": 120.679643,
    "address": "402臺中市南區復興路三段362號"
  },
  {
    "name": "文化部文化資產局圖書室(施工中暫停使用)",
    "lat": 24.132733,
    "lng": 120.679643,
    "address": "402臺中市南區復興路三段362號"
  },
  {
    "name": "國立臺灣美術館1樓大廳",
    "lat": 24.141111,
    "lng": 120.663032,
    "address": "403臺中市西區五權西路一段2號"
  },
  {
    "name": "行政院勞動部勞工保險局臺中市辦事處洽公櫃台",
    "lat": 24.141828,
    "lng": 120.675255,
    "address": "403臺中市西區民權路131號"
  },
  {
    "name": "勞動部勞動力發展署中彰投分署臺中就業中心洽公櫃台",
    "lat": 24.137936,
    "lng": 120.678738,
    "address": "400臺中市西區市府路6號"
  },
  {
    "name": "台中醫院-掛號及領藥大廳",
    "lat": 24.139949,
    "lng": 120.676939,
    "address": "403臺中市西區三民路一段199號"
  },
  {
    "name": "行政執行署臺中分署1樓民服務中心",
    "lat": 24.128861,
    "lng": 120.66481,
    "address": "403臺中市西區建國北路二段100巷16號"
  },
  {
    "name": "臺灣高等法院臺中分院檢察署1樓為民服務中心",
    "lat": 24.134222,
    "lng": 120.675888,
    "address": "403臺中市西區自由路一段91號"
  },
  {
    "name": "臺灣臺中地方法院檢察署第二辦公大樓一樓服務台",
    "lat": 24.134222,
    "lng": 120.675888,
    "address": "403臺中市西區自由路一段91號"
  },
  {
    "name": "財政部中區國稅局大智稽徵所",
    "lat": 24.138265,
    "lng": 120.679283,
    "address": "403臺中市西區民權路95號9樓"
  },
  {
    "name": "臺灣土地銀行臺中分行",
    "lat": 24.1383409,
    "lng": 120.679948,
    "address": "400臺中市中區自由路二段1號"
  },
  {
    "name": "臺灣銀行臺中分行",
    "lat": 24.136408,
    "lng": 120.678648,
    "address": "403臺中市西區自由路一段140號"
  },
  {
    "name": "國立中興大學行政大樓1樓大廳",
    "lat": 24.121556,
    "lng": 120.679,
    "address": "402臺中市南區國光路250號"
  },
  {
    "name": "國立中興大學圖書館公共閱覽室",
    "lat": 24.121556,
    "lng": 120.679,
    "address": "402臺中市南區國光路250號"
  },
  {
    "name": "標準檢驗局台中分局檢驗業務民眾洽公區",
    "lat": 24.1171,
    "lng": 120.664696,
    "address": "402臺中市南區工學路70號"
  },
  {
    "name": "臺灣中小企業銀行臺中分行",
    "lat": 24.143337,
    "lng": 120.67871,
    "address": "400臺中市中區中正路224號"
  },
  {
    "name": "兆豐國際商銀台中分行",
    "lat": 24.143232,
    "lng": 120.674048,
    "address": "400臺中市中區民權路216號"
  },
  {
    "name": "兆豐國際商銀中台中分行",
    "lat": 24.13944,
    "lng": 120.676556,
    "address": "403臺中市西區三民路一段194號"
  },
  {
    "name": "第一金證券自由分公司",
    "lat": 24.137193,
    "lng": 120.679343,
    "address": "403臺中市西區自由路一段144號7樓"
  },
  {
    "name": "華南商業銀行台中分行",
    "lat": 24.1427,
    "lng": 120.675073,
    "address": "400臺中市中區民權路174號"
  },
  {
    "name": "國立公共資訊圖書館",
    "lat": 24.12724,
    "lng": 120.669891,
    "address": "402臺中市南區五權南路100號"
  },
  {
    "name": "標準檢驗局台中分局",
    "lat": 24.117302,
    "lng": 120.664784,
    "address": "402臺中市南區工學路70號"
  },
  {
    "name": "行政院農業委員會動植物防疫檢疫局臺中分局(一樓申報檢疫櫃檯)",
    "lat": 24.122364,
    "lng": 120.679273,
    "address": "402臺中市南區國光路250號動植物防疫檢疫大樓"
  },
  {
    "name": "臺灣土地銀行西臺中分行",
    "lat": 24.1428,
    "lng": 120.668905,
    "address": "403臺中市西區五權路2-4號"
  },
  {
    "name": "臺灣土地銀行南臺中分行",
    "lat": 24.129737,
    "lng": 120.677787,
    "address": "402臺中市南區國光路81號"
  },
  {
    "name": "臺灣高等法院臺中分院",
    "lat": 24.127456,
    "lng": 120.669065,
    "address": "402臺中市南區五權南路99號"
  },
  {
    "name": "勞動部勞動力發展署中彰投分署臺中就業中心1F",
    "lat": 24.138148,
    "lng": 120.678688,
    "address": "403臺中市西區市府路6號"
  },
  {
    "name": "勞動部勞動力發展署中彰投分署臺中就業中心4F",
    "lat": 24.138148,
    "lng": 120.678688,
    "address": "403臺中市西區市府路6號"
  },
  {
    "name": "臺灣銀行健行分行",
    "lat": 24.141623,
    "lng": 120.68065,
    "address": "400臺中市中區臺灣大道一段276號"
  },
  {
    "name": "華南商業銀行五權分行",
    "lat": 24.138353,
    "lng": 120.657091,
    "address": "403臺中市西區忠明南路270號"
  },
  {
    "name": "兆豐國際商銀臺中分行3樓",
    "lat": 24.143232,
    "lng": 120.674048,
    "address": "400臺中市中區民權路216號3樓"
  },
  {
    "name": "第一商業銀行台中分行",
    "lat": 24.137157,
    "lng": 120.679273,
    "address": "403臺中市西區自由路一段144號"
  },
  {
    "name": "上海商銀台中分行",
    "lat": 24.141507,
    "lng": 120.678747,
    "address": "400臺中市中區三民路二段46號"
  },
  {
    "name": "國立臺灣美術館3樓資料中心",
    "lat": 24.140984,
    "lng": 120.662775,
    "address": "403臺中市西區五權西路一段2號3樓"
  },
  {
    "name": "臺中高等行政法院",
    "lat": 24.127442,
    "lng": 120.669057,
    "address": "402臺中市南區五權南路99號"
  },
  {
    "name": "國立台灣美術館戶外美術園區停車場(美村路)",
    "lat": 24.140815,
    "lng": 120.662125,
    "address": "403臺中市西區五權西路一段2號"
  },
  {
    "name": "國立台灣美術館戶外大門廣場",
    "lat": 24.140661,
    "lng": 120.663072,
    "address": "403臺中市西區五權西路一段2號"
  },
  {
    "name": "國立台灣美術館戶外星光草坪",
    "lat": 24.140762,
    "lng": 120.66423,
    "address": "403臺中市西區五權西路一段2號"
  },
  {
    "name": "國立台灣美術館戶外碑林廣場",
    "lat": 24.141709,
    "lng": 120.664977,
    "address": "403臺中市西區五權西路一段2號"
  },
  {
    "name": "國立台灣美術館演講廳",
    "lat": 24.141521,
    "lng": 120.664715,
    "address": "403臺中市西區五權西路一段2號"
  },
  {
    "name": "臺鐵局五權站候車室",
    "lat": 24.128978,
    "lng": 120.667425,
    "address": "402臺中市南區建國南路二段201號"
  },
  {
    "name": "臺鐵局五權站第一月台",
    "lat": 24.128978,
    "lng": 120.667425,
    "address": "402臺中市南區建國南路二段201號"
  },
  {
    "name": "臺鐵局五權站第二月台",
    "lat": 24.128978,
    "lng": 120.667425,
    "address": "402臺中市南區建國南路二段201號"
  },
  {
    "name": "內政部移民署臺中市第一服務站(新)",
    "lat": 24.133451,
    "lng": 120.653427,
    "address": "408臺中市南屯區文心南三路22號1樓"
  },
  {
    "name": "國家漫畫博物館籌備處-1",
    "lat": 24.1346,
    "lng": 120.67391,
    "address": "403臺中市西區林森路33號"
  },
  {
    "name": "國家漫畫博物館籌備處-2",
    "lat": 24.1346,
    "lng": 120.67391,
    "address": "403臺中市西區林森路34號"
  },
  {
    "name": "國家漫畫博物館籌備處-3",
    "lat": 24.1346,
    "lng": 120.67391,
    "address": "403臺中市西區林森路35號"
  },
  {
    "name": "台中市南區平和社區發展協會",
    "lat": 24.121158,
    "lng": 120.67022,
    "address": "402臺中市南區平和里五權南路370號"
  },
  {
    "name": "社團法人臺中市西區大忠社區發展協會",
    "lat": 24.136492,
    "lng": 120.655329,
    "address": "403臺中市西區大忠里五權五街285號"
  },
  {
    "name": "社團法人臺中市復興產業協會",
    "lat": 24.126324,
    "lng": 120.665458,
    "address": "402臺中市南區福平里復興路二段158號"
  },
  {
    "name": "臺中市南區樹德社區發展協會",
    "lat": 24.119614,
    "lng": 120.654196,
    "address": "402臺中市南區樹德里德富路100號"
  },
  {
    "name": "社團法人台灣基督教好牧人全人關顧協會(民族)",
    "lat": 24.138261,
    "lng": 120.680815,
    "address": "400臺中市中區公園里民族路59號"
  },
  {
    "name": "臺中市土庫長青關懷協會",
    "lat": 24.138152,
    "lng": 120.661245,
    "address": "403臺中市西區土庫里五權三街200號"
  },
  {
    "name": "臺中市南區南和社區發展協會",
    "lat": 24.117647,
    "lng": 120.663198,
    "address": "402臺中市南區南和里工學三街23號"
  },
  {
    "name": "台中市南區長春社區發展協會",
    "lat": 24.133405,
    "lng": 120.679263,
    "address": "402臺中市南區長春里合作街6之1號三樓"
  },
  {
    "name": "台中市西區藍興社區發展協會",
    "lat": 24.13391,
    "lng": 120.669401,
    "address": "403臺中市西區藍興里大全街61巷6之1號"
  },
  {
    "name": "臺中市工學長青協進會",
    "lat": 24.115944,
    "lng": 120.659812,
    "address": "402臺中市南區工學里工學路139巷141號"
  },
  {
    "name": "臺中市南區區福順社區發展協會",
    "lat": 24.124084,
    "lng": 120.663103,
    "address": "402臺中市南區福順里復興路二段107號之1"
  },
  {
    "name": "臺中市南區西川社區發展協會",
    "lat": 24.13143,
    "lng": 120.660583,
    "address": "402臺中市南區西川里柳川西路一段59號"
  },
  {
    "name": "財團法人天主教聖母聖心修女會(托老功能型)",
    "lat": 24.140716,
    "lng": 120.681037,
    "address": "400臺中市中區公園里市府路103號二樓"
  },
  {
    "name": "臺中市南區江川社區發展協會",
    "lat": 24.125862,
    "lng": 120.671133,
    "address": "402臺中市南區江川里1鄰建成路1775巷2之1號"
  },
  {
    "name": "社團法人臺中市紅十字會",
    "lat": 24.136363,
    "lng": 120.680228,
    "address": "403臺中市西區民生里居仁街26號"
  },
  {
    "name": "臺中市弘馨社會福利關懷協會(積善)",
    "lat": 24.124644,
    "lng": 120.675923,
    "address": "402臺中市南區積善里復新街89號四樓"
  },
  {
    "name": "臺中市藍興長青協會",
    "lat": 24.133179,
    "lng": 120.668449,
    "address": "403臺中市西區藍興里大全街99號"
  },
  {
    "name": "財團法人台中市私立哥尼流社會福利慈善事業基金會",
    "lat": 24.12683,
    "lng": 120.67216,
    "address": "402臺中市南區江川里信義南街50號"
  },
  {
    "name": "臺中市西區平和社區發展協會",
    "lat": 24.142253,
    "lng": 120.672737,
    "address": "403臺中市西區平和里民生路126巷21號一樓"
  },
  {
    "name": "財團法人環宇國際文化教育基金會",
    "lat": 24.132318,
    "lng": 120.676602,
    "address": "402臺中市南區長榮里國光路9號"
  },
  {
    "name": "臺中市婦女發展協會",
    "lat": 24.136394,
    "lng": 120.658974,
    "address": "403臺中市西區吉龍里五權五街285號"
  },
  {
    "name": "臺中市福興在地人文關懷協會",
    "lat": 24.126451,
    "lng": 120.667083,
    "address": "402臺中市南區福興里福中街39號"
  },
  {
    "name": "台中市活出美好關懷協會",
    "lat": 24.136438,
    "lng": 120.672932,
    "address": "403臺中市西區三民里三民路一段161號六樓"
  },
  {
    "name": "臺中市弘馨社會福利關懷協會(福順)",
    "lat": 24.123782,
    "lng": 120.664726,
    "address": "402臺中市南區福順里福德街157號"
  },
  {
    "name": "臺中市南區崇倫社區發展協會",
    "lat": 24.128708,
    "lng": 120.657329,
    "address": "402臺中市南區崇倫里崇倫街52之3號"
  },
  {
    "name": "財團法人臺中市私立肯納自閉症社會福利基金會",
    "lat": 24.140957,
    "lng": 120.677149,
    "address": "400臺中市中區大墩里三民路二段17巷23號"
  },
  {
    "name": "臺中市南區國光社區發展協會",
    "lat": 24.126522,
    "lng": 120.681374,
    "address": "402臺中市南區國光里正義街232號"
  },
  {
    "name": "臺中市豐富幸福社區關懷協會",
    "lat": 24.139714,
    "lng": 120.651218,
    "address": "408臺中市南屯區大誠里五權西路二段131號B1"
  },
  {
    "name": "財團法人臺中市私立永耕社會福利基金會",
    "lat": 24.114576,
    "lng": 120.669995,
    "address": "402臺中市南區永和里五權南路657號"
  },
  {
    "name": "司法院(臺中高等行政法院)",
    "lat": 24.1277648,
    "lng": 120.6691409,
    "address": "402臺中市南區五權南路99號"
  },
  {
    "name": "司法院(臺中地方法院)-1",
    "lat": 24.1342932,
    "lng": 120.6752418,
    "address": "403臺中市西區自由路一段91號1樓"
  },
  {
    "name": "司法院(臺中地方法院)-2",
    "lat": 24.1342932,
    "lng": 120.6752418,
    "address": "403臺中市西區自由路一段91號2樓"
  },
  {
    "name": "司法院(臺灣高等法院臺中分院)-1",
    "lat": 24.1277648,
    "lng": 120.6691409,
    "address": "402臺中市南區五權南路99號1樓"
  },
  {
    "name": "司法院(臺灣高等法院臺中分院)-2",
    "lat": 24.1277648,
    "lng": 120.6691409,
    "address": "402臺中市南區五權南路99號2樓"
  },
  {
    "name": "文化部文化資產園區",
    "lat": 24.13314,
    "lng": 120.681011,
    "address": "402臺中市南區復興路三段362號"
  },
  {
    "name": "臺中市車輛行車事故鑑定委員會7樓大廳服務台",
    "lat": 24.137487,
    "lng": 120.679688,
    "address": "403臺中市西區自由路一段150號7樓"
  },
  {
    "name": "交通局(原臺中市議會)",
    "lat": 24.139483,
    "lng": 120.677286,
    "address": "403臺中市西區民權路101號"
  },
  {
    "name": "中區區公所",
    "lat": 24.143889,
    "lng": 120.679552,
    "address": "400臺中市中區成功路300號3樓"
  },
  {
    "name": "西區區公所",
    "lat": 24.141207,
    "lng": 120.671222,
    "address": "403臺中市西區金山路11號"
  },
  {
    "name": "南區區公所",
    "lat": 24.117149,
    "lng": 120.663628,
    "address": "402臺中市南區工學路72號3~5樓"
  },
  {
    "name": "西區戶政事務所",
    "lat": 24.136402,
    "lng": 120.673022,
    "address": "403臺中市西區三民路一段161號3樓"
  },
  {
    "name": "南區戶政事務所",
    "lat": 24.117147,
    "lng": 120.663628,
    "address": "402臺中市南區工學路72號1樓"
  },
  {
    "name": "中山地政事務所",
    "lat": 24.136491,
    "lng": 120.673753,
    "address": "403臺中市西區三民路一段158號"
  },
  {
    "name": "大墩文化中心",
    "lat": 24.141399,
    "lng": 120.665768,
    "address": "403臺中市西區英才路600號"
  },
  {
    "name": "臺中市立圖書館中區分館",
    "lat": 24.14385,
    "lng": 120.679515,
    "address": "400臺中市中區成功路300號7樓"
  },
  {
    "name": "臺中市立圖書館南區分館",
    "lat": 24.120193,
    "lng": 120.669744,
    "address": "402臺中市南區五權南路335號"
  },
  {
    "name": "中西區衛生所",
    "lat": 24.141093,
    "lng": 120.676005,
    "address": "403臺中市西區民權路105號"
  },
  {
    "name": "南區衛生所",
    "lat": 24.117148,
    "lng": 120.663629,
    "address": "402臺中市南區工學路72號2樓"
  },
  {
    "name": "交通局-3F",
    "lat": 24.139483,
    "lng": 120.677286,
    "address": "403臺中市西區民權路101號"
  },
  {
    "name": "臺中市中山地政事務所2樓",
    "lat": 24.136709,
    "lng": 120.67372,
    "address": "403臺中市西區三民路一段158號2樓"
  },
  {
    "name": "臺中市中山地政事務所3樓",
    "lat": 24.136709,
    "lng": 120.67372,
    "address": "403臺中市西區三民路一段158號3樓"
  },
  {
    "name": "臺中市美術園道五權五街與五權西四街口",
    "lat": 24.136591,
    "lng": 120.662743,
    "address": "403臺中市西區美術園道五權五街"
  },
  {
    "name": "臺中市美術園道五權西四街114號前",
    "lat": 24.135842,
    "lng": 120.662729,
    "address": "403臺中市西區美術園道五權西四街114號前"
  },
  {
    "name": "臺中市第二市場",
    "lat": 24.1427364,
    "lng": 120.6784897,
    "address": "400臺中市中區臺灣大道一段395號第二市場管理室門口柱子"
  },
  {
    "name": "臺中市第二市場(六角亭)",
    "lat": 24.142366,
    "lng": 120.678812,
    "address": "400臺中市中區臺灣大道一段395號"
  },
  {
    "name": "大墩文化中心2F",
    "lat": 24.141499,
    "lng": 120.666024,
    "address": "403臺中市西區英才路600號"
  },
  {
    "name": "臺中市第二市場(臺灣大道一段366號)",
    "lat": 24.1427359,
    "lng": 120.6794983,
    "address": "400臺中市中區臺灣大道一段366號前(第二市場對面)(TCMC6030交接箱)"
  },
  {
    "name": "臺中市公車合作金庫站",
    "lat": 24.13817,
    "lng": 120.68036,
    "address": "400臺中市中區自由路二段2號(TCMC3100)"
  },
  {
    "name": "統一超商大里大明路永隆店(公話)",
    "lat": 24.114805,
    "lng": 120.676376,
    "address": "412臺中市大里區大明路457號"
  },
  {
    "name": "全家便利商店大里大明路永勝店(公話)",
    "lat": 24.114826,
    "lng": 120.675964,
    "address": "412臺中市大里區大明路469號"
  },
  {
    "name": "全家便利商店大里大明路新捷勝店(公話)",
    "lat": 24.115133,
    "lng": 120.674142,
    "address": "412臺中市大里區大明路512號"
  },
  {
    "name": "統一超商中區中華路鑫華新店(公話)",
    "lat": 24.143768,
    "lng": 120.675007,
    "address": "400臺中市中區中華路一段75號"
  },
  {
    "name": "臺中市公車臺中公園(自由路)站",
    "lat": 24.143328,
    "lng": 120.6737,
    "address": "400臺中市中區自由路2段90之1號(TCMC1050)"
  },
  {
    "name": "全家便利商店中區民族路日日新店(公話)",
    "lat": 24.143902,
    "lng": 120.675038,
    "address": "400臺中市中區民族路216號"
  },
  {
    "name": "統一超商南屯東興路新墩興店(公話)",
    "lat": 24.138799,
    "lng": 120.653154,
    "address": "408臺中市南屯區東興路二段98號"
  },
  {
    "name": "全家便利商店西區三民路四維店(公話)",
    "lat": 24.138062,
    "lng": 120.675134,
    "address": "403臺中市西區三民路一段172號之5"
  },
  {
    "name": "統一超商西區五權路保誠店(公話)",
    "lat": 24.139393,
    "lng": 120.665884,
    "address": "403臺中市西區五權路2號之104"
  },
  {
    "name": "統一超商西區公館路大全店(公話)",
    "lat": 24.134464,
    "lng": 120.669645,
    "address": "403臺中市西區公館路136號"
  },
  {
    "name": "臺中市公車中正國小站",
    "lat": 24.137322,
    "lng": 120.675937,
    "address": "403臺中市西區四維街24號"
  },
  {
    "name": "萊爾富便利商店西區民生路中堂店(公話)",
    "lat": 24.141128,
    "lng": 120.672814,
    "address": "403臺中市西區民生路109號"
  },
  {
    "name": "全家便利商店西區民生路全球店(公話)",
    "lat": 24.141811,
    "lng": 120.672155,
    "address": "403臺中市西區民生路131號"
  },
  {
    "name": "統一超商西區民生路新五廊店(公話)",
    "lat": 24.142624,
    "lng": 120.671201,
    "address": "403臺中市西區民生路155號"
  },
  {
    "name": "臺中市公車大墩文化中心(英才路)站",
    "lat": 24.141696,
    "lng": 120.665924,
    "address": "403臺中市西區英才路600號(公話)"
  },
  {
    "name": "統一超商西區忠明南路忠福店(公話)",
    "lat": 24.14287,
    "lng": 120.657096,
    "address": "403臺中市西區忠明南路192號"
  },
  {
    "name": "統一超商西區忠明南路吉龍店(公話)",
    "lat": 24.135252,
    "lng": 120.657093,
    "address": "403臺中市西區忠明南路410號(公話)"
  },
  {
    "name": "臺中市府後街地下停車場(公話)",
    "lat": 24.1363635,
    "lng": 120.6754863,
    "address": "403臺中市西區府後街24號(公話)"
  },
  {
    "name": "統一超商西區南屯路五權店(公話)",
    "lat": 24.132318,
    "lng": 120.665804,
    "address": "403臺中市西區南屯路一段62號"
  },
  {
    "name": "臺中市向上國中(公話亭)",
    "lat": 24.1436022,
    "lng": 120.6619665,
    "address": "403臺中市西區美村路一段389號(公話亭)"
  },
  {
    "name": "統一超商西區美村路權美店(公話)",
    "lat": 24.134191,
    "lng": 120.661541,
    "address": "403臺中市西區美村路一段736號"
  },
  {
    "name": "全家便利商店西區樂群街樂群店(公話)",
    "lat": 24.13813,
    "lng": 120.671593,
    "address": "403臺中市西區樂群街61號之4"
  },
  {
    "name": "全家便利商店南屯東興路新東二店(公話)",
    "lat": 24.136952,
    "lng": 120.653121,
    "address": "408臺中市南屯區東興路二段36號"
  },
  {
    "name": "臺中市公車東興大墩五街口站",
    "lat": 24.14214,
    "lng": 120.65288,
    "address": "408臺中市南屯區東興路二段219號前(TS1430)"
  },
  {
    "name": "臺中市公車忠明南五權南路口站(天橋下)",
    "lat": 24.119026,
    "lng": 120.67022,
    "address": "402臺中市南區忠明南路1150號"
  },
  {
    "name": "統一超商南區工學路長億店(公話)",
    "lat": 24.117006,
    "lng": 120.661906,
    "address": "402臺中市南區工學路108號"
  },
  {
    "name": "統一超商南區工學路大時代(公話)",
    "lat": 24.116694,
    "lng": 120.665892,
    "address": "402臺中市南區工學路55號"
  },
  {
    "name": "統一超商南區五權南一路法奇店(公話)",
    "lat": 24.125796,
    "lng": 120.669904,
    "address": "402臺中市南區五權南路189號"
  },
  {
    "name": "統一超商南區五權南路詠權店(公話)",
    "lat": 24.117087,
    "lng": 120.66986,
    "address": "402臺中市南區五權南路527號"
  },
  {
    "name": "民意街文創市集(信義街合作街口)(公話)",
    "lat": 24.1306286,
    "lng": 120.6811752,
    "address": "402臺中市南區合作街13號(公話)"
  },
  {
    "name": "統一超商南區忠明南路生活店(公話)",
    "lat": 24.123853,
    "lng": 120.65864,
    "address": "402臺中市南區忠明南路730巷17號"
  },
  {
    "name": "全家便利商店南區忠明南路大安店(公話)",
    "lat": 24.124357,
    "lng": 120.658737,
    "address": "402臺中市南區忠明南路730巷23號"
  },
  {
    "name": "全家便利商店南區東興路金獅店(公話)",
    "lat": 24.118407,
    "lng": 120.657648,
    "address": "402臺中市南區東興路一段16號"
  },
  {
    "name": "全家便利商店南區南屯路崇倫店(公話)",
    "lat": 24.134236,
    "lng": 120.656385,
    "address": "402臺中市南區南屯路一段273號"
  },
  {
    "name": "統一超商南區南平路南美店(公話)",
    "lat": 24.123373,
    "lng": 120.665709,
    "address": "402臺中市南區南平路182號"
  },
  {
    "name": "全家便利商店南區建國北路新高橋店(公話)",
    "lat": 24.125459,
    "lng": 120.657835,
    "address": "402臺中市南區建國北路一段250號"
  },
  {
    "name": "忠孝路商圈",
    "lat": 24.1290684,
    "lng": 120.6810109,
    "address": "402臺中市南區忠孝路118號(TCNM4080光化箱)"
  },
  {
    "name": "臺中高工(YouBike微笑單車)站",
    "lat": 24.113243,
    "lng": 120.661049,
    "address": "402臺中市南區高工路185號(TCKH3090)"
  },
  {
    "name": "統一超商南區美村路百祐店(公話)",
    "lat": 24.125446,
    "lng": 120.66307,
    "address": "402臺中市南區美村路二段190號"
  },
  {
    "name": "統一超商南區高工路台火店(公話)",
    "lat": 24.114299,
    "lng": 120.666919,
    "address": "402臺中市南區高工路355號"
  },
  {
    "name": "統一超商南區國光路興大店(公話)",
    "lat": 24.122296,
    "lng": 120.679545,
    "address": "402臺中市南區國光路301號"
  },
  {
    "name": "臺中市南區福興里活動中心(公話)",
    "lat": 24.1234977,
    "lng": 120.6674686,
    "address": "402臺中市南區福南街89號(公話)"
  },
  {
    "name": "臺中市醒修宮(公話)",
    "lat": 24.130064,
    "lng": 120.6770935,
    "address": "402臺中市南區國光路94號(公話)"
  },
  {
    "name": "臺中市公車復興文心南路口站",
    "lat": 24.115728,
    "lng": 120.6562,
    "address": "402臺中市南區復興路一段370號"
  },
  {
    "name": "全家便利商店南區復興路興美店(公話)",
    "lat": 24.124381,
    "lng": 120.662443,
    "address": "402臺中市南區復興路二段99巷18號"
  },
  {
    "name": "信義國小校門口",
    "lat": 24.1223075,
    "lng": 120.6685533,
    "address": "402臺中市南區五權南路325號(公話)"
  },
  {
    "name": "統一超商南區德富路無尾熊店(公話)",
    "lat": 24.120691,
    "lng": 120.653944,
    "address": "402臺中市南區德富路73號"
  },
  {
    "name": "臺中市公車四育國中站(公話)",
    "lat": 24.1264303,
    "lng": 120.665342,
    "address": "402臺中市南區復興路二段158號(公話)"
  },
  {
    "name": "臺中市公車文化部文化資產園區站",
    "lat": 24.133187,
    "lng": 120.680036,
    "address": "402臺中市南區復興路三段409號前MAL1609106050009(公話)"
  },
  {
    "name": "忠明南路美村南路口",
    "lat": 24.11872,
    "lng": 120.66696,
    "address": "402臺中市南區忠明南路1114號對面(TCKH2150"
  },
  {
    "name": "統一超商南區學府路興學店(公話)",
    "lat": 24.124587,
    "lng": 120.675268,
    "address": "402臺中市南區學府路64號"
  },
  {
    "name": "忠孝路學府路口",
    "lat": 24.12688,
    "lng": 120.67535,
    "address": "402臺中市南區忠孝路1號前(TCNM4180)"
  },
  {
    "name": "大慶活動中心",
    "lat": 24.1195735,
    "lng": 120.6544303,
    "address": "402臺中市南區德富路100號(公話)"
  },
  {
    "name": "統一超商南區興大路商頂橋店(公話)",
    "lat": 24.118331,
    "lng": 120.6716,
    "address": "402臺中市南區興大路340號"
  },
  {
    "name": "臺中市愛心家園",
    "lat": 24.131603,
    "lng": 120.653723,
    "address": "408臺中市南屯區東興路一段450號"
  },
  {
    "name": "臺中文學館",
    "lat": 24.139591,
    "lng": 120.672476,
    "address": "403臺中市西區樂群街46巷4號"
  },
  {
    "name": "臺中市公車臺中女中站",
    "lat": 24.135613,
    "lng": 120.677803,
    "address": "403臺中市西區自由路一段138號"
  },
  {
    "name": "臺中市公車臺中刑務所演武場站",
    "lat": 24.134438,
    "lng": 120.673402,
    "address": "403臺中市西區林森路35號(道禾六藝文化館公旁TCKK1131交接箱)"
  },
  {
    "name": "臺中市公車南區公所站",
    "lat": 24.117007,
    "lng": 120.663097,
    "address": "402臺中市南區工學路82號(公話亭)"
  },
  {
    "name": "臺中市公車興大郵局站",
    "lat": 24.122693,
    "lng": 120.679491,
    "address": "402臺中市南區國光路297號"
  },
  {
    "name": "臺中市公車宜寧中學站",
    "lat": 24.118669,
    "lng": 120.659423,
    "address": "402臺中市南區復興路二段34號"
  },
  {
    "name": "西區社會福利服務中心",
    "lat": 24.136443,
    "lng": 120.655302,
    "address": "403臺中市西區五權五街285號"
  },
  {
    "name": "OK超商中區中山路富大店(公話)",
    "lat": 24.14277,
    "lng": 120.6777,
    "address": "400臺中市中區中山路276號"
  },
  {
    "name": "全家便利商店中區民權路新市府店(公話)",
    "lat": 24.138924,
    "lng": 120.678932,
    "address": "400臺中市中區民權路86號"
  },
  {
    "name": "全家便利商店南區工學二街新時代店(公話)",
    "lat": 24.11657,
    "lng": 120.664,
    "address": "402臺中市南區工學二街95號"
  },
  {
    "name": "臺中市公車美村忠明南路口站(健康派出所)",
    "lat": 24.119906,
    "lng": 120.666888,
    "address": "402臺中市南區美村南路61號對面(TCKH2320)"
  },
  {
    "name": "統一超商西區五權路安龍店(公話)",
    "lat": 24.14281,
    "lng": 120.6689,
    "address": "403臺中市西區五權路2號之12"
  },
  {
    "name": "全家便利商店中區公園路萬代福店(公話)",
    "lat": 24.138924,
    "lng": 120.678932,
    "address": "400臺中市中區公園路42號(公話)"
  },
  {
    "name": "統一超商南屯五權西路權興店(公話)",
    "lat": 24.1403049,
    "lng": 120.6528268,
    "address": "408臺中市南屯區五權西路二段62號"
  },
  {
    "name": "豐富公園",
    "lat": 24.1293831,
    "lng": 120.654489,
    "address": "408臺中市南屯區精誠南路161號(公話電亭)"
  },
  {
    "name": "臺中市公車國光東興路口站",
    "lat": 24.11372,
    "lng": 120.67932,
    "address": "412臺中市大里區國光路2段674號前(TCNH3090)"
  },
  {
    "name": "臺中市政府交通局2樓",
    "lat": 24.1401,
    "lng": 120.6773,
    "address": "403臺中市西區民權路101號"
  },
  {
    "name": "臺中就業服務站",
    "lat": 24.1391833,
    "lng": 120.6795405,
    "address": "400臺中市中區市府路59之1號"
  }
]