[
  {
    "name": "台中工業區郵局",
    "lat": 24.168722,
    "lng": 120.606322,
    "address": "407臺中市西屯區工業區六路10號"
  },
  {
    "name": "台中工業區服務中心",
    "lat": 24.168883,
    "lng": 120.608626,
    "address": "407臺中市西屯區協和里工業區五路2號"
  },
  {
    "name": "兆豐國際商銀南台中分行",
    "lat": 24.153616,
    "lng": 120.614283,
    "address": "403臺中市西區五權西路107號"
  },
  {
    "name": "臺灣菸酒臺中酒廠",
    "lat": 24.165784,
    "lng": 120.59872,
    "address": "407臺中市西屯區工業區28路2號"
  },
  {
    "name": "臺灣銀行臺中工業區分行",
    "lat": 24.173419,
    "lng": 120.613434,
    "address": "407臺中市西屯區工業區一路196號"
  },
  {
    "name": "台中市南屯區文山社區發展協會",
    "lat": 24.14647,
    "lng": 120.61534,
    "address": "408臺中市南屯區文山里忠勇路54之5號"
  },
  {
    "name": "台中市南屯區寶山社區發展協會",
    "lat": 24.155949,
    "lng": 120.617127,
    "address": "408臺中市南屯區寶山里忠勇路82之62號"
  },
  {
    "name": "統一超商西屯工業一路工一店(公話)",
    "lat": 24.173692,
    "lng": 120.613527,
    "address": "407臺中市西屯區工業一路98號之32"
  },
  {
    "name": "統一超商南屯區工業十八路工權店(公話)",
    "lat": 24.155219,
    "lng": 120.608818,
    "address": "408臺中市南屯區工業十八路31號之1"
  },
  {
    "name": "統一超商南屯忠勇路中勇店(公話)",
    "lat": 24.151499,
    "lng": 120.615786,
    "address": "408臺中市南屯區忠勇路105號之27"
  },
  {
    "name": "全家便利商店南屯忠勇路忠勇電店(公話)",
    "lat": 24.152077,
    "lng": 120.616226,
    "address": "408臺中市南屯區忠勇路76號"
  },
  {
    "name": "臺中科技大學南屯校區(保安公園)",
    "lat": 24.1473096,
    "lng": 120.611548,
    "address": "408臺中市南屯區嶺東路680號旁(公話亭)"
  },
  {
    "name": "統一超商南屯嶺東路精科店(公話)",
    "lat": 24.1453,
    "lng": 120.610943,
    "address": "408臺中市南屯區嶺東路368號"
  },
  {
    "name": "精密機械科技創新園區勞工聯合服務中心",
    "lat": 24.147681,
    "lng": 120.606654,
    "address": "408臺中市南屯區精科路26號"
  },
  {
    "name": "全家便利商店南屯忠勇路金勇店(公話)",
    "lat": 24.1454078,
    "lng": 120.6147531,
    "address": "408臺中市南屯區忠勇路71號之1"
  }
]