[
  {
    "name": "歸仁南保郵局",
    "lat": 22.9664013,
    "lng": 120.2944702,
    "address": "711臺南市歸仁區中山路一段637號"
  },
  {
    "name": "歸仁郵局",
    "lat": 22.966703,
    "lng": 120.294595,
    "address": "711臺南市歸仁區中山路一段637號"
  },
  {
    "name": "自來水公司歸仁服務所",
    "lat": 22.966828,
    "lng": 120.293887,
    "address": "711臺南市歸仁區中山路二段6號"
  },
  {
    "name": "第一商業銀行(歸仁分行)",
    "lat": 22.9668265,
    "lng": 120.2926435,
    "address": "711臺南市歸仁區中山路二段55號"
  },
  {
    "name": "財團法人台南市私立聖功社會福利慈善事業基金會(南興里)",
    "lat": 22.97,
    "lng": 120.283,
    "address": "711臺南市歸仁區南保里文化街三段208號"
  },
  {
    "name": "臺南市歸仁區許厝里辦公處",
    "lat": 22.966,
    "lng": 120.299,
    "address": "711臺南市歸仁區許厝里中山路一段437巷9號"
  },
  {
    "name": "臺南市歸仁區歸仁社區發展協會",
    "lat": 22.971,
    "lng": 120.298,
    "address": "711臺南市歸仁區歸仁里10鄰忠孝北路221號"
  },
  {
    "name": "臺南市歸仁地政事務所",
    "lat": 22.962819,
    "lng": 120.28244,
    "address": "711臺南市歸仁區中正南路一段1203號"
  }
]