[
  {
    "name": "南投縣鹿谷鄉廣興社區發展協會",
    "lat": 23.737432,
    "lng": 120.761122,
    "address": "558南投縣鹿谷鄉廣興村光復路200號"
  },
  {
    "name": "南投縣鹿谷鄉竹豐社區發展協會",
    "lat": 23.731362,
    "lng": 120.749959,
    "address": "558南投縣鹿谷鄉竹豐村光復路92之12號"
  },
  {
    "name": "社團法人南投縣鹿谷鄉竹林社區發展協會",
    "lat": 23.727001,
    "lng": 120.755472,
    "address": "558南投縣鹿谷鄉竹林村光復路106之2號"
  },
  {
    "name": "鹿谷鄉農會茶業文化館",
    "lat": 23.741291,
    "lng": 120.756974,
    "address": "558南投縣鹿谷鄉彰雅村中正路一段231號"
  },
  {
    "name": "鹿谷鄉農會茶業推廣大樓",
    "lat": 23.741301,
    "lng": 120.756652,
    "address": "558南投縣鹿谷鄉彰雅村中正路一段231-2號"
  }
]