[
  {
    "name": "高樹郵局",
    "lat": 22.826293,
    "lng": 120.600523,
    "address": "906屏東縣高樹鄉高樹村興中路327號"
  },
  {
    "name": "自來水公司高樹營運所",
    "lat": 22.825483,
    "lng": 120.596902,
    "address": "906屏東縣高樹鄉華光路89號"
  },
  {
    "name": "臺灣土地銀行高樹分行",
    "lat": 22.824064,
    "lng": 120.601138,
    "address": "906屏東縣高樹鄉高樹村南興路99號"
  },
  {
    "name": "屏東縣高樹鄉東興社區發展協會",
    "lat": 22.824999,
    "lng": 120.589599,
    "address": "906屏東縣高樹鄉東興村武尚路28號"
  },
  {
    "name": "屏東縣高樹鄉大埔社區發展協會",
    "lat": 22.836802,
    "lng": 120.604083,
    "address": "906屏東縣高樹鄉大埔村和興路2號"
  },
  {
    "name": "屏東縣高樹鄉婦女健康協會",
    "lat": 22.852481,
    "lng": 120.615153,
    "address": "906屏東縣高樹鄉司馬村長美路172號"
  },
  {
    "name": "屏東縣高樹鄉東振社區發展協會",
    "lat": 22.82549,
    "lng": 120.60038,
    "address": "906屏東縣高樹鄉東振村民權路19號"
  }
]