[
  {
    "name": "佳冬郵局",
    "lat": 22.414342,
    "lng": 120.552084,
    "address": "931屏東縣佳冬鄉佳冬村佳和路86號"
  },
  {
    "name": "臺鐵局佳冬站候車室",
    "lat": 22.414053,
    "lng": 120.547714,
    "address": "931屏東縣佳冬鄉六根村復興路21號"
  },
  {
    "name": "華南商業銀行佳冬分行",
    "lat": 22.416107,
    "lng": 120.549674,
    "address": "931屏東縣佳冬鄉佳昌路155號"
  },
  {
    "name": "屏東縣佳冬鄉幸福關懷協會",
    "lat": 22.408929,
    "lng": 120.558228,
    "address": "931屏東縣佳冬鄉賴家村大平路18號"
  },
  {
    "name": "屏東縣枋寮戶政事務所佳冬辦公室",
    "lat": 22.414764,
    "lng": 120.54951,
    "address": "931屏東縣佳冬鄉佳和路89號"
  }
]