[
  {
    "name": "南州郵局",
    "lat": 22.48977,
    "lng": 120.511453,
    "address": "926屏東縣南州鄉仁里村三民路9號"
  },
  {
    "name": "崁頂郵局",
    "lat": 22.514782,
    "lng": 120.512937,
    "address": "924屏東縣崁頂鄉崁頂村中正路220號"
  },
  {
    "name": "臺鐵局南州站候車室",
    "lat": 22.492095,
    "lng": 120.511798,
    "address": "926屏東縣南州鄉仁里村仁里路86號"
  },
  {
    "name": "臺鐵局南州站第1月台樓梯口",
    "lat": 22.4923392,
    "lng": 120.5080058,
    "address": "926屏東縣南州鄉仁里村仁里路86號"
  },
  {
    "name": "臺鐵局崁頂站月台候車區",
    "lat": 22.513094,
    "lng": 120.5125753,
    "address": "924屏東縣崁頂鄉崁頂村"
  },
  {
    "name": "屏東縣南州鄉溪洲社區發展協會",
    "lat": 22.488599,
    "lng": 120.50534,
    "address": "926屏東縣南州鄉溪洲村人和路170號"
  },
  {
    "name": "屏東縣伯特利全人心靈關懷協會",
    "lat": 22.489299,
    "lng": 120.505778,
    "address": "926屏東縣南州鄉溪洲村三民路184號"
  },
  {
    "name": "屏東縣崁頂鄉崁頂社區發展協會",
    "lat": 22.511935,
    "lng": 120.5102,
    "address": "924屏東縣崁頂鄉崁頂村中正路99號"
  },
  {
    "name": "屏東縣南州鄉溪南社區發展協會",
    "lat": 22.487894,
    "lng": 120.507951,
    "address": "926屏東縣南州鄉溪南村人和路3巷17號"
  },
  {
    "name": "屏東縣崁頂鄉南望安社區發展協會",
    "lat": 22.495284,
    "lng": 120.509355,
    "address": "924屏東縣崁頂鄉園寮村南州路85號"
  },
  {
    "name": "屏東縣南州鄉仁里社區發展協會",
    "lat": 22.495,
    "lng": 120.511,
    "address": "926屏東縣南州鄉仁里村仁愛路6號"
  },
  {
    "name": "屏東縣東港戶政事務所崁頂辦公室",
    "lat": 22.513398,
    "lng": 120.511403,
    "address": "924屏東縣崁頂鄉中正路117之1號"
  },
  {
    "name": "屏東縣東港戶政事務所南州辦公室",
    "lat": 22.490528,
    "lng": 120.50611,
    "address": "926屏東縣南州鄉仁愛路5號"
  },
  {
    "name": "屏東縣南州鄉立圖書館",
    "lat": 22.488579,
    "lng": 120.507985,
    "address": "926屏東縣南州鄉溪南村人和路3巷15號"
  },
  {
    "name": "屏東縣來義鄉新來義社區",
    "lat": 22.50848,
    "lng": 120.508237,
    "address": "922屏東縣來義鄉義林村3鄰來新路21號"
  }
]