[
  {
    "name": "內埔豐田郵局",
    "lat": 22.631553,
    "lng": 120.544115,
    "address": "912屏東縣內埔鄉豐田村中正路310號"
  },
  {
    "name": "高速公路局南區工程處屏東工務段會議室",
    "lat": 22.6278663,
    "lng": 120.533055,
    "address": "911屏東縣竹田鄉永豐村永豐路227號"
  },
  {
    "name": "內埔工業區服務中心",
    "lat": 22.637979,
    "lng": 120.541199,
    "address": "912屏東縣內埔鄉豐田村建國路4號"
  },
  {
    "name": "屏東縣內埔鄉東寧社區發展協會",
    "lat": 22.622553,
    "lng": 120.558473,
    "address": "912屏東縣內埔鄉東寧村民善路3號"
  },
  {
    "name": "屏東縣竹田鄉永豐社區發展協會",
    "lat": 22.627337,
    "lng": 120.53761,
    "address": "911屏東縣竹田鄉永豐村永豐路5號"
  },
  {
    "name": "屏東縣竹田鄉福田社區發展協會",
    "lat": 22.614875,
    "lng": 120.536093,
    "address": "911屏東縣竹田鄉福田村瑞竹路1之5號"
  },
  {
    "name": "屏東縣內埔鄉青龍宮",
    "lat": 22.623,
    "lng": 120.55,
    "address": "912屏東縣內埔鄉大新村中央巷1號"
  }
]