[
  {
    "name": "水上回歸郵局",
    "lat": 23.454236,
    "lng": 120.408975,
    "address": "608嘉義縣水上鄉三和村新厝仔2-4號"
  },
  {
    "name": "臺中榮總嘉義分院門診部門診大樓1F大廳",
    "lat": 23.467802,
    "lng": 120.422971,
    "address": "600嘉義市西區世賢路二段600號1樓"
  },
  {
    "name": "臺中榮總嘉義分院門診部門診大樓2F候診區",
    "lat": 23.467802,
    "lng": 120.422971,
    "address": "600嘉義市西區世賢路二段600號2樓"
  },
  {
    "name": "臺中榮總嘉義分院行政大樓3F",
    "lat": 23.467596,
    "lng": 120.422978,
    "address": "600嘉義市西區世賢路二段600號"
  },
  {
    "name": "第一商業銀行(興嘉分行)",
    "lat": 23.4675709,
    "lng": 120.4351552,
    "address": "600嘉義市西區興業西路427號"
  },
  {
    "name": "嘉義市西區劉厝社區發展協會",
    "lat": 23.46368,
    "lng": 120.41756,
    "address": "600嘉義市西區劉厝里劉厝路131號"
  },
  {
    "name": "嘉義市西區福民社區發展協會",
    "lat": 23.46337,
    "lng": 120.43276,
    "address": "600嘉義市西區福民里重慶路315號"
  },
  {
    "name": "嘉義市西區車店社區發展協會",
    "lat": 23.464386,
    "lng": 120.429932,
    "address": "600嘉義市西區車店里車店街2號"
  },
  {
    "name": "嘉義市百種生活發展協會",
    "lat": 23.459,
    "lng": 120.431,
    "address": "600嘉義市西區紅瓦里重慶二街185附1號"
  },
  {
    "name": "財團法人私立天主教中華聖母社會福利慈善事業基金會-柳鄉站",
    "lat": 23.4467,
    "lng": 120.42,
    "address": "608嘉義縣水上鄉柳鄉村柳子林97號"
  },
  {
    "name": "嘉義市興嘉公園舞台西側",
    "lat": 23.467867,
    "lng": 120.435519,
    "address": "600嘉義市西區南京路與上海路交叉口"
  },
  {
    "name": "嘉義市西區區公所",
    "lat": 23.464506,
    "lng": 120.435476,
    "address": "600嘉義市西區錦州二街28號3樓"
  },
  {
    "name": "嘉義市西區戶政事務所",
    "lat": 23.464506,
    "lng": 120.435476,
    "address": "600嘉義市西區錦州二街28號2樓"
  },
  {
    "name": "嘉義市劉厝公園",
    "lat": 23.463611,
    "lng": 120.418252,
    "address": "600嘉義市西區劉厝131號(社區活動中心旁)"
  },
  {
    "name": "嘉義市興嘉公園",
    "lat": 23.46782,
    "lng": 120.434876,
    "address": "600嘉義市西區興業西路439號前交接箱(靠興業西路側公話亭對面路側立桿)"
  },
  {
    "name": "嘉義市劉厝3號公園",
    "lat": 23.461398,
    "lng": 120.416213,
    "address": "600嘉義市西區大聖路282號對面"
  },
  {
    "name": "嘉義市劉厝1號公園",
    "lat": 23.467344,
    "lng": 120.416808,
    "address": "600嘉義市西區大利街160號對面"
  },
  {
    "name": "嘉義市嘉油鐵馬道(紅瓦厝站)",
    "lat": 23.457957,
    "lng": 120.429631,
    "address": "600嘉義市西區重慶一街280號後"
  }
]