[
  {
    "name": "埔鹽郵局",
    "lat": 23.992214,
    "lng": 120.477263,
    "address": "516彰化縣埔鹽鄉埔南村彰水路二段100號"
  },
  {
    "name": "福興福工郵局",
    "lat": 24.011923,
    "lng": 120.486984,
    "address": "506彰化縣福興鄉萬豐村福工路1號"
  },
  {
    "name": "福興(兼埤頭及田中)工業區服務中心-福興",
    "lat": 24.0119229,
    "lng": 120.486984,
    "address": "506彰化縣福興鄉萬豐村福工路1號1樓"
  },
  {
    "name": "彰化縣湖埔社區大學埔鹽分校",
    "lat": 23.992266,
    "lng": 120.472617,
    "address": "516彰化縣埔鹽鄉彰水路一段74號"
  },
  {
    "name": "彰化縣溪湖鎮糖廠",
    "lat": 23.995369,
    "lng": 120.476732,
    "address": "514彰化縣溪湖鎮彰水路二段763巷8號"
  },
  {
    "name": "彰化縣警察局鹿港分局外中派出所",
    "lat": 24.017538,
    "lng": 120.47204,
    "address": "506彰化縣福興鄉外中村外中街237號"
  },
  {
    "name": "彰化縣警察局溪湖分局埔東派出所",
    "lat": 23.996741,
    "lng": 120.475452,
    "address": "516彰化縣埔鹽鄉埔鹽村中正路48號"
  }
]