[
  {
    "name": "屏東公館郵局",
    "lat": 22.638068,
    "lng": 120.485074,
    "address": "900屏東縣屏東市龍華路18號"
  },
  {
    "name": "萬丹社皮郵局",
    "lat": 22.615428,
    "lng": 120.469783,
    "address": "913屏東縣萬丹鄉社皮村社皮2-7號"
  },
  {
    "name": "國軍高雄總醫院附設屏東民診處一般診間等候處",
    "lat": 22.633664,
    "lng": 120.487487,
    "address": "900屏東縣屏東市大湖路58巷22號"
  },
  {
    "name": "國軍高雄總醫院附設屏東民診處急診室",
    "lat": 22.633664,
    "lng": 120.487487,
    "address": "900屏東縣屏東市大湖路58巷22號"
  },
  {
    "name": "屏東縣萬丹鄉社中社區發展協會",
    "lat": 22.621089,
    "lng": 120.470886,
    "address": "913屏東縣萬丹鄉社中村社上路3號"
  },
  {
    "name": "屏東縣屏東市玉成社區發展協會",
    "lat": 22.636351,
    "lng": 120.473998,
    "address": "900屏東縣屏東市玉成里公興路621號"
  },
  {
    "name": "屏東縣萬丹鄉社皮社區發展協會",
    "lat": 22.620263,
    "lng": 120.466901,
    "address": "913屏東縣萬丹鄉社皮村南北路三段195號"
  },
  {
    "name": "屏東縣屏東市龍華社區發展協會",
    "lat": 22.636634,
    "lng": 120.481643,
    "address": "900屏東縣屏東市龍華里公華街150巷8號"
  },
  {
    "name": "屏東縣萬丹鄉廈北社區發展協會",
    "lat": 22.612,
    "lng": 120.488,
    "address": "913屏東縣萬丹鄉廈北村普安路2號"
  },
  {
    "name": "國軍高雄總醫院屏東分院",
    "lat": 22.633462,
    "lng": 120.487672,
    "address": "900屏東縣屏東市大湖路58巷22號"
  }
]