[
  {
    "name": "草屯碧山郵局",
    "lat": 23.97817,
    "lng": 120.680951,
    "address": "542南投縣草屯鎮碧山南路20、22號"
  },
  {
    "name": "南投縣草屯鎮新庄社區發展協會",
    "lat": 23.990099,
    "lng": 120.675782,
    "address": "542南投縣草屯鎮新庄里芬草路二段348號"
  },
  {
    "name": "南投縣草屯鎮碧峰社區發展協會",
    "lat": 23.971891,
    "lng": 120.660573,
    "address": "542南投縣草屯鎮碧峰里碧峰路135巷6號"
  },
  {
    "name": "南投縣草屯碧洲社區發展協會",
    "lat": 23.960788,
    "lng": 120.66911,
    "address": "542南投縣草屯鎮碧洲里立人路781巷51號"
  },
  {
    "name": "南投縣草屯鎮復興社區發展協會",
    "lat": 23.96863,
    "lng": 120.668532,
    "address": "542南投縣草屯鎮復興里復興路432之1號"
  },
  {
    "name": "南投縣草屯鎮上林社區發展協會",
    "lat": 23.969079,
    "lng": 120.67635,
    "address": "542南投縣草屯鎮上林里草溪路599巷2弄8號"
  },
  {
    "name": "南投縣草屯鎮北投社區發展協會",
    "lat": 23.985,
    "lng": 120.664,
    "address": "542南投縣草屯鎮北投里史館路北勢巷54號"
  },
  {
    "name": "南投縣草屯鎮敦和社區發展協會",
    "lat": 23.982,
    "lng": 120.678,
    "address": "542南投縣草屯鎮敦和里仁愛街156號二樓"
  },
  {
    "name": "南投縣草屯鎮立圖書館",
    "lat": 23.973704,
    "lng": 120.680271,
    "address": "542南投縣草屯鎮草鞋墩一街8號"
  }
]