[
  {
    "name": "龍井茄投郵局",
    "lat": 24.182417,
    "lng": 120.531339,
    "address": "434臺中市龍井區龍東村舊車路101-2號"
  },
  {
    "name": "龍井郵局",
    "lat": 24.196586,
    "lng": 120.54705,
    "address": "434臺中市龍井區龍新路163號"
  },
  {
    "name": "臺鐵局龍井站候車室",
    "lat": 24.197418,
    "lng": 120.543299,
    "address": "434臺中市龍井區龍新路1號"
  },
  {
    "name": "臺中市龍井區田中社區發展協會",
    "lat": 24.190626,
    "lng": 120.530573,
    "address": "434臺中市龍井區田中里龍北路155號"
  },
  {
    "name": "臺中市龍井區龍東社區發展協會",
    "lat": 24.176451,
    "lng": 120.533225,
    "address": "434臺中市龍井區龍東里1鄰茄投路5號"
  },
  {
    "name": "龍井區公所",
    "lat": 24.192566,
    "lng": 120.545556,
    "address": "434臺中市龍井區沙田路四段247號"
  },
  {
    "name": "龍井區戶政事務所",
    "lat": 24.193339,
    "lng": 120.545894,
    "address": "434臺中市龍井區沙田路四段257號"
  },
  {
    "name": "[目前暫停使用施工中]臺中市立圖書館龍井分館",
    "lat": 24.19241,
    "lng": 120.545166,
    "address": "434臺中市龍井區龍泉里觀光路2號"
  },
  {
    "name": "龍井區衛生所",
    "lat": 24.19161,
    "lng": 120.545697,
    "address": "434臺中市龍井區沙田路四段243號"
  },
  {
    "name": "龍井地政事務所",
    "lat": 24.191361,
    "lng": 120.545349,
    "address": "434臺中市龍井區沙田路四段185號"
  },
  {
    "name": "全家便利商店龍井茄投路茄投店(公話)",
    "lat": 24.17835,
    "lng": 120.530365,
    "address": "434臺中市龍井區茄投路67號之1"
  },
  {
    "name": "統一超商龍井龍門路鈦譜店(公話)",
    "lat": 24.182484,
    "lng": 120.530136,
    "address": "434臺中市龍井區龍門路45號之18"
  }
]