[
  {
    "name": "新竹樹林頭郵局",
    "lat": 24.820418,
    "lng": 120.960605,
    "address": "300新竹市北區東大路二段449號"
  },
  {
    "name": "新竹市北區古賢社區發展協會",
    "lat": 24.823,
    "lng": 120.971,
    "address": "300新竹市北區古賢里東大路三段110巷15號"
  },
  {
    "name": "新竹市富美宮老人會",
    "lat": 24.82,
    "lng": 120.964,
    "address": "300新竹市北區南寮里東大路三段708巷6號"
  },
  {
    "name": "新竹市北區海濱社區發展協會",
    "lat": 24.822,
    "lng": 120.968,
    "address": "300新竹市北區海濱里聖軍路26號"
  },
  {
    "name": "社團法人新竹市福祿壽長青協會",
    "lat": 24.8198,
    "lng": 120.9643,
    "address": "300新竹市北區湳中里武陵西三路7號三樓"
  },
  {
    "name": "社團法人新竹市懷安協會(頂竹里)",
    "lat": 24.821,
    "lng": 120.96,
    "address": "300新竹市東區頂竹里東南街167巷1號"
  },
  {
    "name": "新竹市湳雅公園",
    "lat": 24.820303,
    "lng": 120.968117,
    "address": "300新竹市北區武陵路196巷2號"
  },
  {
    "name": "新竹市湳雅市民活動中心",
    "lat": 24.8205082,
    "lng": 120.9718717,
    "address": "300新竹市北區湳雅街147巷32號"
  },
  {
    "name": "新竹市武陵市民活動中心",
    "lat": 24.8197646,
    "lng": 120.9642707,
    "address": "300新竹市北區武陵西三路7號"
  }
]