[
  {
    "name": "雪霸國家公園管理處汶水遊客中心",
    "lat": 24.450099,
    "lng": 120.878159,
    "address": "364苗栗縣大湖鄉富興村水尾坪100號(遊客中心)"
  },
  {
    "name": "大湖郵局",
    "lat": 24.422304,
    "lng": 120.868028,
    "address": "364苗栗縣大湖鄉中正路42號"
  },
  {
    "name": "雪霸國家公園管理處汶水行政中心",
    "lat": 24.448458,
    "lng": 120.88058,
    "address": "364苗栗縣大湖鄉富興村水尾坪100號(汶水行政中心)"
  },
  {
    "name": "雪霸國家公園管理處遊客中心櫃台",
    "lat": 24.448458,
    "lng": 120.88058,
    "address": "364苗栗縣大湖鄉富興村水尾坪100號"
  },
  {
    "name": "雪霸國家公園管理處汶水遊客中心(戶外區)",
    "lat": 24.450099,
    "lng": 120.878159,
    "address": "364苗栗縣大湖鄉富興村水尾坪100號"
  },
  {
    "name": "大湖地政事務所",
    "lat": 24.423909,
    "lng": 120.866314,
    "address": "364苗栗縣大湖鄉明湖村博愛街35號"
  },
  {
    "name": "苗栗縣大湖鄉戶政事務所",
    "lat": 24.424126,
    "lng": 120.866135,
    "address": "364苗栗縣大湖鄉中原路56號"
  },
  {
    "name": "苗栗縣大湖鄉衛生所",
    "lat": 24.424221,
    "lng": 120.865893,
    "address": "364苗栗縣大湖鄉明湖村中原路87號"
  },
  {
    "name": "苗栗縣大湖鄉立圖書館",
    "lat": 24.423374,
    "lng": 120.869506,
    "address": "364苗栗縣大湖鄉民族路40-2號"
  }
]