[
  {
    "name": "彰化縣社頭鄉產業發展推廣中心",
    "lat": 23.909228,
    "lng": 120.580377,
    "address": "511彰化縣社頭鄉橋頭村員集路三段706巷25號"
  },
  {
    "name": "彰化縣田中戶政事務所社頭辦公室",
    "lat": 23.898718,
    "lng": 120.587853,
    "address": "511彰化縣社頭鄉員集路二段220號"
  },
  {
    "name": "彰化縣社頭鄉衛生所",
    "lat": 23.902121,
    "lng": 120.58597,
    "address": "511彰化縣社頭鄉社頭村員集路二段409號"
  },
  {
    "name": "彰化縣消防局社頭分隊",
    "lat": 23.898418,
    "lng": 120.588067,
    "address": "511彰化縣社頭鄉員集路二段204號"
  },
  {
    "name": "彰化縣警察局田中分局社頭分駐所",
    "lat": 23.898591,
    "lng": 120.588019,
    "address": "511彰化縣社頭鄉社頭村員集路二段210號"
  }
]