[
  {
    "name": "潮州新生路郵局",
    "lat": 22.551286,
    "lng": 120.538586,
    "address": "920屏東縣潮州鎮新生路115號"
  },
  {
    "name": "臺鐵局潮州站候車室",
    "lat": 22.550086,
    "lng": 120.53642,
    "address": "920屏東縣潮州鎮信義路111號"
  },
  {
    "name": "勞動部勞動力發展署高屏澎東分署潮州就業中心洽公服務櫃台",
    "lat": 22.549223,
    "lng": 120.537655,
    "address": "920屏東縣潮州鎮昌明路98號"
  },
  {
    "name": "臺灣土地銀行潮榮分行",
    "lat": 22.549381,
    "lng": 120.539859,
    "address": "920屏東縣潮州鎮中山路117號"
  },
  {
    "name": "華南商業銀行潮州分行",
    "lat": 22.549283,
    "lng": 120.538259,
    "address": "920屏東縣潮州鎮新生路71號"
  },
  {
    "name": "第一商業銀行(潮州分行)",
    "lat": 22.5496176,
    "lng": 120.5406897,
    "address": "920屏東縣潮州鎮中山路107-1號"
  },
  {
    "name": "臺鐵局潮州站第2月台行車室",
    "lat": 22.550206,
    "lng": 120.535892,
    "address": "920屏東縣潮州鎮信義路111號"
  },
  {
    "name": "臺鐵局潮州站第2月台8車位置",
    "lat": 22.550206,
    "lng": 120.535892,
    "address": "920屏東縣潮州鎮信義路111號"
  },
  {
    "name": "屏東縣潮州鎮三和社區發展協會",
    "lat": 22.559206,
    "lng": 120.538346,
    "address": "920屏東縣潮州鎮三和里中興路57號"
  },
  {
    "name": "屏東縣潮州鎮三星社區發展協會",
    "lat": 22.553019,
    "lng": 120.551317,
    "address": "920屏東縣潮州鎮三星里三林路109號"
  },
  {
    "name": "屏東縣潮州鎮三共社區發展協會",
    "lat": 22.557516,
    "lng": 120.543425,
    "address": "920屏東縣潮州鎮三共里24鄰文化路189號"
  },
  {
    "name": "屏東縣竹田鄉竹南社區發展協會",
    "lat": 22.572754,
    "lng": 120.540085,
    "address": "911屏東縣竹田鄉竹南村竹南路59號"
  },
  {
    "name": "高雄市鳳山區新忠義社區發展協會",
    "lat": 22.553,
    "lng": 120.537,
    "address": "830高雄市鳳山區忠義里中山西路360號地下一層"
  },
  {
    "name": "高雄市晨曦社會福利促進協會",
    "lat": 22.553,
    "lng": 120.537,
    "address": "843高雄市美濃區廣林里廣福街153號"
  },
  {
    "name": "屏東縣萬丹鄉廣安社區發展協會",
    "lat": 22.553,
    "lng": 120.537,
    "address": "913屏東縣萬丹鄉廣安村廣安路211巷23號"
  },
  {
    "name": "三星社區AI樂活健身俱樂部",
    "lat": 22.5528,
    "lng": 120.55093,
    "address": "920屏東縣潮州鎮三星里三林路109號"
  },
  {
    "name": "屏東縣政府稅務局潮州分局",
    "lat": 22.551215,
    "lng": 120.545424,
    "address": "920屏東縣潮州鎮光華里三華巷16號"
  },
  {
    "name": "屏東縣潮州地政事務所",
    "lat": 22.550675,
    "lng": 120.544828,
    "address": "920屏東縣潮州鎮四維路20號"
  },
  {
    "name": "屏東縣潮州戶政事務所",
    "lat": 22.55035,
    "lng": 120.542865,
    "address": "920屏東縣潮州鎮光華里35鄰中山路12號"
  },
  {
    "name": "屏東縣政府-潮州轉運站",
    "lat": 22.550919,
    "lng": 120.536371,
    "address": "920屏東縣潮州鎮信義路111號"
  }
]