[
  {
    "name": "國姓郵局",
    "lat": 24.038417,
    "lng": 120.854484,
    "address": "544南投縣國姓鄉中興路303號"
  },
  {
    "name": "南投縣國姓鄉大旗社區發展協會",
    "lat": 24.046714,
    "lng": 120.86323,
    "address": "544南投縣國姓鄉大旗村大長路688號"
  },
  {
    "name": "南投縣國姓鄉石門社區發展協會",
    "lat": 24.040065,
    "lng": 120.85685,
    "address": "544南投縣國姓鄉石門村國姓路207之19號"
  },
  {
    "name": "南投縣國姓鄉國姓社區發展協會",
    "lat": 24.037587,
    "lng": 120.855021,
    "address": "544南投縣國姓鄉國姓村民族街40號"
  },
  {
    "name": "東華醫院國姓鄉銀髮健身俱樂部",
    "lat": 24.0378,
    "lng": 120.85469,
    "address": "544南投縣國姓鄉民族街42號"
  },
  {
    "name": "南投縣國姓鄉戶政事務所",
    "lat": 24.040048,
    "lng": 120.857508,
    "address": "544南投縣國姓鄉國姓路267之1號"
  }
]