[
  {
    "name": "苗栗嘉盛郵局",
    "lat": 24.57451,
    "lng": 120.829464,
    "address": "360苗栗縣苗栗市嘉新里國華路158號"
  },
  {
    "name": "苗栗福星郵局",
    "lat": 24.585578,
    "lng": 120.825134,
    "address": "360苗栗縣苗栗市福安里中華路629號"
  },
  {
    "name": "苗栗縣苗栗市福安社區發展協會",
    "lat": 24.58651,
    "lng": 120.824318,
    "address": "360苗栗縣苗栗市福安里22鄰新村90之1號"
  },
  {
    "name": "苗栗縣苗栗市福星社區發展協會",
    "lat": 24.5817,
    "lng": 120.82456,
    "address": "360苗栗縣苗栗市福星里中華路479號三樓"
  },
  {
    "name": "苗栗縣苗栗市嘉盛社區發展協會",
    "lat": 24.577498,
    "lng": 120.83341,
    "address": "360苗栗縣苗栗市嘉盛里嘉盛街187號"
  },
  {
    "name": "苗栗縣小太禓關懷協會-苗栗站",
    "lat": 24.576637,
    "lng": 120.832645,
    "address": "360苗栗縣苗栗市嘉盛里嘉盛街165號"
  },
  {
    "name": "苗栗縣苗栗市新英社區發展協會",
    "lat": 24.582,
    "lng": 120.826,
    "address": "360苗栗縣苗栗市新英里15鄰新英108之2號"
  },
  {
    "name": "苗栗縣頭屋鄉衛生所",
    "lat": 24.5784517,
    "lng": 120.8155042,
    "address": "362苗栗縣頭屋鄉頭屋村13鄰中山街54號"
  }
]