[
  {
    "name": "屏東縣屏東市崇蘭社區發展協會",
    "lat": 22.82,
    "lng": 120.639,
    "address": "900屏東縣屏東市崇蘭里博愛路427號"
  },
  {
    "name": "屏東縣原住民部落文化藝術發展協會",
    "lat": 22.8202,
    "lng": 120.6387,
    "address": "901屏東縣三地門鄉青山村民族巷46號"
  },
  {
    "name": "屏東縣三地門鄉青山部落",
    "lat": 22.8198,
    "lng": 120.64021,
    "address": "901屏東縣三地門鄉青山村民族巷1-1號"
  },
  {
    "name": "屏東縣三地門鄉安坡部落",
    "lat": 22.797745,
    "lng": 120.637766,
    "address": "901屏東縣三地門鄉高山巷2號"
  },
  {
    "name": "屏東縣三地門鄉達來部落",
    "lat": 22.79815,
    "lng": 120.63838,
    "address": "901屏東縣三地門鄉達發達旺巷32號"
  }
]