[
  {
    "name": "神岡岸裡郵局",
    "lat": 24.248616,
    "lng": 120.697934,
    "address": "429臺中市神岡區岸裡村中山路49號"
  },
  {
    "name": "神岡社口郵局",
    "lat": 24.247116,
    "lng": 120.681902,
    "address": "429臺中市神岡區社口村中山路611號"
  },
  {
    "name": "神岡豐洲郵局",
    "lat": 24.260835,
    "lng": 120.706285,
    "address": "429臺中市神岡區豐洲路359號"
  },
  {
    "name": "豐原中山路郵局",
    "lat": 24.239804,
    "lng": 120.710915,
    "address": "420臺中市豐原區田心里大明路12號"
  },
  {
    "name": "豐原豐西街郵局",
    "lat": 24.251815,
    "lng": 120.7120836,
    "address": "420臺中市豐原區豐西街66號"
  },
  {
    "name": "行政院勞動部勞工保險局臺中市第二辦事處洽公櫃台",
    "lat": 24.254673,
    "lng": 120.706603,
    "address": "420臺中市豐原區成功路616號"
  },
  {
    "name": "台電公司豐原分處服務中心營業廳",
    "lat": 24.249942,
    "lng": 120.707893,
    "address": "420臺中市豐原區中正路599號"
  },
  {
    "name": "兆豐國際商銀豐原分行",
    "lat": 24.250344,
    "lng": 120.710242,
    "address": "420臺中市豐原區中正路519號"
  },
  {
    "name": "華南商業銀行西豐原分行",
    "lat": 24.249254,
    "lng": 120.708954,
    "address": "420臺中市豐原區圓環南路225號"
  },
  {
    "name": "臺中市神岡區社口社區發展協會",
    "lat": 24.250251,
    "lng": 120.682136,
    "address": "429臺中市神岡區社口里文政街160號"
  },
  {
    "name": "社團法人中華民國紫宸運動文教協會",
    "lat": 24.251355,
    "lng": 120.711457,
    "address": "420臺中市豐原區豐西里豐西街91號"
  },
  {
    "name": "臺中市神岡區大社社區發展協會",
    "lat": 24.250618,
    "lng": 120.698558,
    "address": "429臺中市神岡區大社里豐社一街19號"
  },
  {
    "name": "臺中市神岡區岸裡社區發展協會",
    "lat": 24.247858,
    "lng": 120.693615,
    "address": "429臺中市神岡區岸裡里大洲路383號"
  },
  {
    "name": "臺中市豐原區豐圳社區發展協會",
    "lat": 24.252802,
    "lng": 120.706409,
    "address": "420臺中市豐原區豐圳里成功路520號"
  },
  {
    "name": "臺中市神岡區三角社區發展協會",
    "lat": 24.238589,
    "lng": 120.689508,
    "address": "429臺中市神岡區三角里三社路195號"
  },
  {
    "name": "交通事件裁決處",
    "lat": 24.246828,
    "lng": 120.71198,
    "address": "420臺中市豐原區圓環南路70號"
  },
  {
    "name": "統一超商神岡五權路豐洲店(公話)",
    "lat": 24.257904,
    "lng": 120.711842,
    "address": "429臺中市神岡區五權路63號"
  },
  {
    "name": "全家便利商店神岡中山路加油店(公話)",
    "lat": 24.2487643,
    "lng": 120.6963283,
    "address": "429臺中市神岡區中山路88號(公話)"
  },
  {
    "name": "臺中市公車神岡高工站",
    "lat": 24.2470055,
    "lng": 120.6818176,
    "address": "429臺中市神岡區中山路664號對面FYSK2170"
  },
  {
    "name": "臺中市公車社口站",
    "lat": 24.24671,
    "lng": 120.68527,
    "address": "429臺中市神岡區中山路516號(FYSK2921)"
  },
  {
    "name": "全家便利商店神岡昌平路新社口店(公話)",
    "lat": 24.243666,
    "lng": 120.682623,
    "address": "429臺中市神岡區昌平路五段289號"
  },
  {
    "name": "統一超商豐原中山路新豐寶店(公話)",
    "lat": 24.23961,
    "lng": 120.711175,
    "address": "420臺中市豐原區中山路143號之2"
  },
  {
    "name": "統一超商豐原中正路瑞興店(公話)",
    "lat": 24.250327,
    "lng": 120.710828,
    "address": "420臺中市豐原區中正路497號"
  },
  {
    "name": "全家便利商店豐原中正路葫蘆墩店(公話)",
    "lat": 24.249047,
    "lng": 120.701872,
    "address": "420臺中市豐原區中正路693號"
  },
  {
    "name": "臺中市豐原區社皮公園(城隍廟廣場前)",
    "lat": 24.246217,
    "lng": 120.704848,
    "address": "420臺中市豐原區社興五街2號(公話)"
  },
  {
    "name": "統一超商豐原成功路京泰店(公話)",
    "lat": 24.245589,
    "lng": 120.708627,
    "address": "420臺中市豐原區成功路195號"
  },
  {
    "name": "全家便利商店豐原西勢路互助店(公話)",
    "lat": 24.239494,
    "lng": 120.704533,
    "address": "420臺中市豐原區西勢路411號"
  },
  {
    "name": "全家便利商店豐原社興五街社興店(公話)",
    "lat": 24.246363,
    "lng": 120.705062,
    "address": "420臺中市豐原區社興五街1號"
  },
  {
    "name": "臺中市公車臺豐社區站",
    "lat": 24.24928,
    "lng": 120.70057,
    "address": "420臺中市豐原區中正路872號前(FYFY5931)"
  },
  {
    "name": "瑞穗體育館",
    "lat": 24.2492092,
    "lng": 120.7110995,
    "address": "420臺中市豐原區西安街72號)"
  },
  {
    "name": "統一超商豐原豐原大道東洲店(公話)",
    "lat": 24.261916,
    "lng": 120.711502,
    "address": "420臺中市豐原區豐原大道七段488號"
  },
  {
    "name": "豐原就業服務站",
    "lat": 24.246481,
    "lng": 120.706045,
    "address": "420臺中市豐原區社興路37號"
  }
]