[
  {
    "name": "屏東六塊厝郵局",
    "lat": 22.669491,
    "lng": 120.476494,
    "address": "900屏東縣屏東市光復路304號"
  },
  {
    "name": "屏東民生路郵局",
    "lat": 22.670473,
    "lng": 120.491605,
    "address": "900屏東縣屏東市民生路250號"
  },
  {
    "name": "屏東永安郵局",
    "lat": 22.655809,
    "lng": 120.481559,
    "address": "900屏東縣屏東市棒球路57號1樓"
  },
  {
    "name": "屏東厚生郵局",
    "lat": 22.665513,
    "lng": 120.478982,
    "address": "900屏東縣屏東市建國路182號"
  },
  {
    "name": "臺鐵局屏東站候車室",
    "lat": 22.669306,
    "lng": 120.486203,
    "address": "900屏東縣屏東市光復路43號"
  },
  {
    "name": "國軍退除役官兵輔導委員會屏東縣榮民服務處一樓大廳",
    "lat": 22.664222,
    "lng": 120.471057,
    "address": "900屏東縣屏東市建國路300-1號"
  },
  {
    "name": "勞動部勞動力發展署高屏澎東分署屏東就業中心洽公服務櫃台",
    "lat": 22.656699,
    "lng": 120.486432,
    "address": "900屏東縣屏東市復興路446號"
  },
  {
    "name": "臺灣屏東地方法院檢察署1樓民眾侯訊區",
    "lat": 22.656331,
    "lng": 120.482615,
    "address": "900屏東縣屏東市棒球路11號"
  },
  {
    "name": "台糖公司屏東區處總務課",
    "lat": 22.662229,
    "lng": 120.48826,
    "address": "900屏東縣屏東市復興路245號"
  },
  {
    "name": "中油公司屏東直銷中心",
    "lat": 22.660946,
    "lng": 120.487895,
    "address": "900屏東縣屏東市復興路261號"
  },
  {
    "name": "水利署第七河川局1樓服務台",
    "lat": 22.65845,
    "lng": 120.469308,
    "address": "900屏東縣屏東市建國路291號"
  },
  {
    "name": "兆豐國際商銀屏東分行",
    "lat": 22.670482,
    "lng": 120.484542,
    "address": "900屏東縣屏東市民族路213號"
  },
  {
    "name": "臺灣屏東地方法院聯合服務中心",
    "lat": 22.657146,
    "lng": 120.483284,
    "address": "900屏東縣屏東市棒球路9號"
  },
  {
    "name": "臺鐵局屏東站第1月台",
    "lat": 22.669306,
    "lng": 120.486203,
    "address": "900屏東縣屏東市光復路43號"
  },
  {
    "name": "屏東縣後備指揮部",
    "lat": 22.657809,
    "lng": 120.468069,
    "address": "900屏東縣屏東市建國路239號"
  },
  {
    "name": "臺灣屏東地方法院民事庭服務中心",
    "lat": 22.655443,
    "lng": 120.483624,
    "address": "900屏東縣屏東市合作街47號"
  },
  {
    "name": "華南商業銀行屏東分行",
    "lat": 22.670178,
    "lng": 120.489335,
    "address": "900屏東縣屏東市復興路36號"
  },
  {
    "name": "臺灣屏東地方法院當事人休息區",
    "lat": 22.656586,
    "lng": 120.482998,
    "address": "900屏東縣屏東市棒球路9號"
  },
  {
    "name": "臺鐵局屏東站第1月台4車位置",
    "lat": 22.668857,
    "lng": 120.4859633,
    "address": "900屏東縣屏東市公勇路62號"
  },
  {
    "name": "臺鐵局屏東站第2月台10車位置",
    "lat": 22.668857,
    "lng": 120.4859633,
    "address": "900屏東縣屏東市公勇路62號"
  },
  {
    "name": "臺鐵局屏東站2樓東側走廊",
    "lat": 22.668857,
    "lng": 120.4859633,
    "address": "900屏東縣屏東市公勇路62號"
  },
  {
    "name": "臺鐵局屏東站1樓候車大廳東側走廊",
    "lat": 22.668857,
    "lng": 120.4859633,
    "address": "900屏東縣屏東市公勇路62號"
  },
  {
    "name": "屏東榮民總醫院",
    "lat": 22.6630438,
    "lng": 120.4753303,
    "address": "900屏東縣屏東市榮總東路1號"
  },
  {
    "name": "勞動部勞動力發展署高屏澎東分署屏東就業中心4樓大會議室",
    "lat": 22.6568687,
    "lng": 120.4863699,
    "address": "900屏東縣屏東市復興路446號"
  },
  {
    "name": "屏東縣祥和社區關懷協會(建國里)",
    "lat": 22.66775,
    "lng": 120.487976,
    "address": "900屏東縣屏東市建國里延平一路2號"
  },
  {
    "name": "屏東縣紅十字會",
    "lat": 22.667901,
    "lng": 120.485009,
    "address": "900屏東縣屏東市建國里建華三街46號"
  },
  {
    "name": "屏東縣屏東市新生社區發展協會",
    "lat": 22.653194,
    "lng": 120.484833,
    "address": "900屏東縣屏東市新生里復興南路一段108巷21弄2號"
  },
  {
    "name": "屏東縣善護協會",
    "lat": 22.662249,
    "lng": 120.491788,
    "address": "900屏東縣屏東市義勇里台糖街63號"
  },
  {
    "name": "屏東縣屏東市永安社區發展協會",
    "lat": 22.657353,
    "lng": 120.480996,
    "address": "900屏東縣屏東市永安里自立南路58號"
  },
  {
    "name": "屏東縣博愛全人關懷協會",
    "lat": 22.644865,
    "lng": 120.48515,
    "address": "900屏東縣屏東市新興里新興街8號"
  },
  {
    "name": "司法院(屏東地方法院)-1",
    "lat": 22.6568119,
    "lng": 120.4832027,
    "address": "900屏東縣屏東市棒球路9號1樓"
  },
  {
    "name": "司法院(屏東地方法院)-2",
    "lat": 22.6568119,
    "lng": 120.4832027,
    "address": "900屏東縣屏東市棒球路9號2樓"
  },
  {
    "name": "司法院(屏東地方法院-屏東簡易庭)",
    "lat": 22.6553518,
    "lng": 120.4836877,
    "address": "900屏東縣屏東市合作街47號1樓"
  },
  {
    "name": "國立屏東大學游泳池暨體適能館",
    "lat": 22.65793,
    "lng": 120.48589,
    "address": "900屏東縣屏東市民教路102號"
  },
  {
    "name": "屏東縣勞工育樂中心",
    "lat": 22.665705,
    "lng": 120.483733,
    "address": "900屏東縣屏東市自由路17號"
  },
  {
    "name": "屏東市立復興圖書館",
    "lat": 22.660478,
    "lng": 120.481162,
    "address": "900屏東縣屏東市建南路162號"
  },
  {
    "name": "屏東縣政府-屏東轉運站",
    "lat": 22.669355,
    "lng": 120.48525,
    "address": "900屏東縣屏東市光復路45號"
  }
]