[
  {
    "name": "水上南靖郵局",
    "lat": 23.419486,
    "lng": 120.389239,
    "address": "608嘉義縣水上鄉三鎮村三鎮路1號"
  },
  {
    "name": "水上郵局",
    "lat": 23.43086,
    "lng": 120.401314,
    "address": "608嘉義縣水上鄉中興路356號"
  },
  {
    "name": "臺鐵局南靖站候車室",
    "lat": 23.413602,
    "lng": 120.386615,
    "address": "608嘉義縣水上鄉三鎮村26號"
  },
  {
    "name": "嘉義縣水上鄉溪洲社區發展協會",
    "lat": 23.416,
    "lng": 120.396,
    "address": "608嘉義縣水上鄉溪洲村13鄰外溪洲82之1號"
  },
  {
    "name": "嘉義縣水上鄉龍德社區發展協會",
    "lat": 23.425,
    "lng": 120.387,
    "address": "608嘉義縣水上鄉龍德村5鄰十一指厝53之6號"
  },
  {
    "name": "嘉義縣警察局水上分局",
    "lat": 23.4323906,
    "lng": 120.3991468,
    "address": "608嘉義縣水上鄉中興路528號"
  },
  {
    "name": "嘉義縣水上戶政事務所",
    "lat": 23.4297905,
    "lng": 120.3958609,
    "address": "608嘉義縣水上鄉水上村2鄰市政街31巷23號"
  },
  {
    "name": "嘉義縣水上地政事務所",
    "lat": 23.4305424,
    "lng": 120.3957888,
    "address": "608嘉義縣水上鄉嘉朴路33號"
  },
  {
    "name": "嘉義縣水上鄉公所",
    "lat": 23.4285878,
    "lng": 120.3980798,
    "address": "608嘉義縣水上鄉正義路141號"
  }
]