[
  {
    "name": "臺鐵局崇德站候車室",
    "lat": 24.172134,
    "lng": 121.655498,
    "address": "972花蓮縣秀林鄉海濱96號"
  },
  {
    "name": "花蓮縣秀林鄉崇德村辦公處",
    "lat": 24.162358,
    "lng": 121.651704,
    "address": "972花蓮縣秀林鄉崇德村6鄰85-1號"
  },
  {
    "name": "崇德衛生室",
    "lat": 24.149841,
    "lng": 121.6419602,
    "address": "972花蓮縣秀林鄉崇德村9鄰148-1號"
  },
  {
    "name": "花蓮縣秀林鄉得吉利部落(上村)",
    "lat": 24.154,
    "lng": 121.64923,
    "address": "972花蓮縣秀林鄉崇德120號"
  },
  {
    "name": "花蓮縣秀林鄉得吉利部落(下村)",
    "lat": 24.16867,
    "lng": 121.65412,
    "address": "972花蓮縣秀林鄉海濱70號"
  }
]