[
  {
    "name": "尖石郵局",
    "lat": 24.705502,
    "lng": 121.201883,
    "address": "313新竹縣尖石鄉嘉樂村2鄰28-1號"
  },
  {
    "name": "橫山內灣郵局",
    "lat": 24.706683,
    "lng": 121.180298,
    "address": "312新竹縣橫山鄉內灣村中正路309號"
  },
  {
    "name": "臺鐵局內灣站候車室",
    "lat": 24.705424,
    "lng": 121.182471,
    "address": "312新竹縣橫山鄉中正路6號"
  },
  {
    "name": "新竹縣尖石鄉戶政事務所",
    "lat": 24.706038,
    "lng": 121.203135,
    "address": "313新竹縣尖石鄉嘉樂村麥樹仁63號"
  },
  {
    "name": "新竹縣尖石鄉衛生所",
    "lat": 24.706155,
    "lng": 121.202438,
    "address": "313新竹縣尖石鄉嘉樂村2鄰61號"
  },
  {
    "name": "新竹縣尖石鄉立圖書館",
    "lat": 24.705366,
    "lng": 121.201376,
    "address": "313新竹縣尖石鄉嘉樂村2鄰26號"
  },
  {
    "name": "新竹縣尖石鄉公所",
    "lat": 24.705167,
    "lng": 121.201341,
    "address": "313新竹縣尖石鄉嘉樂村2鄰36號"
  },
  {
    "name": "新竹縣政府內灣老街7-11路口旁",
    "lat": 24.703874,
    "lng": 121.183107,
    "address": "312新竹縣橫山鄉內灣村中正路7號"
  }
]