[
  {
    "name": "內湖東湖郵局",
    "lat": 25.0681908,
    "lng": 121.6178712,
    "address": "114臺北市內湖區康樂街16號"
  },
  {
    "name": "內湖康寧郵局",
    "lat": 25.0723409,
    "lng": 121.6076191,
    "address": "114臺北市內湖區康寧路三段22-1號"
  },
  {
    "name": "汐止社后郵局",
    "lat": 25.067972,
    "lng": 121.631186,
    "address": "221新北市汐止區康寧街426號"
  },
  {
    "name": "臺灣土地銀行東湖分行",
    "lat": 25.073875,
    "lng": 121.606339,
    "address": "114臺北市內湖區成功路五段460號"
  },
  {
    "name": "華南商業銀行東湖分行",
    "lat": 25.0742765,
    "lng": 121.6066687,
    "address": "114臺北市內湖區成功路五段456號"
  },
  {
    "name": "臺灣銀行東湖分行",
    "lat": 25.0741973,
    "lng": 121.6066834,
    "address": "114臺北市內湖區成功路五段458號"
  },
  {
    "name": "新北市汐止區湖蓮里辦公處",
    "lat": 25.076022,
    "lng": 121.632445,
    "address": "221新北市汐止區湖蓮里湖前街110巷97弄24號B2(中餐廳大廳及才藝教室)"
  },
  {
    "name": "財團法人基督教中國佈道會",
    "lat": 25.074111,
    "lng": 121.610546,
    "address": "114臺北市內湖區康寧里康寧路三段99巷39弄66號"
  },
  {
    "name": "社團法人中華民國香柏樹長者社區關懷協會-內湖老人服務中心",
    "lat": 25.070374,
    "lng": 121.618388,
    "address": "114臺北市內湖區東湖里康樂街110巷16弄20號五、六樓"
  },
  {
    "name": "臺北市內湖區安泰里社區發展協會",
    "lat": 25.074974,
    "lng": 121.617147,
    "address": "114臺北市內湖區安泰里安泰街65巷5號"
  },
  {
    "name": "新北市龍馬湖發展協進會",
    "lat": 25.078356,
    "lng": 121.624411,
    "address": "221新北市汐止區忠山里忠三街8號"
  },
  {
    "name": "捷運東湖站-南湖高中-S-康寧路三段",
    "lat": 25.0673356,
    "lng": 121.6113497,
    "address": "114臺北市內湖區康寧路三段220號候車亭"
  },
  {
    "name": "東湖國中-S-康樂街",
    "lat": 25.0728112,
    "lng": 121.6194748,
    "address": "114臺北市內湖區康樂街150號候車亭"
  },
  {
    "name": "捷運葫州站-康寧專校-W1-康寧路三段",
    "lat": 25.07261,
    "lng": 121.607597,
    "address": "114臺北市內湖區康寧路三段35號候車亭"
  },
  {
    "name": "明湖國小-公共電視台-E1-康寧路三段",
    "lat": 25.071557,
    "lng": 121.609298,
    "address": "114臺北市內湖區康寧路三段54-5號旁候車亭"
  },
  {
    "name": "捷運大湖公園-N1-成功路5段",
    "lat": 25.083616,
    "lng": 121.6027351,
    "address": "114臺北市內湖區成功路五段11號對面大湖公園站1號出口旁候車亭"
  },
  {
    "name": "明湖國小(公共電視台)-W1-康寧路三段",
    "lat": 25.071913,
    "lng": 121.6092138,
    "address": "114臺北市內湖區康寧路三段77號旁候車亭"
  },
  {
    "name": "黃石公廟-N-成功路五段",
    "lat": 25.0781197,
    "lng": 121.6071946,
    "address": "114臺北市內湖區成功路五段37號對面候車亭"
  },
  {
    "name": "康寧醫院-N-成功路五段",
    "lat": 25.07533,
    "lng": 121.607307,
    "address": "114臺北市內湖區成功路五段436號候車亭"
  },
  {
    "name": "民權隧道-W-民權東路六段",
    "lat": 25.072385,
    "lng": 121.604858,
    "address": "114臺北市內湖區民權東路六段282號對面候車亭"
  },
  {
    "name": "康寧醫院-S-成功路五段",
    "lat": 25.0759736,
    "lng": 121.6071272,
    "address": "114臺北市內湖區成功路五段404號對面候車亭"
  },
  {
    "name": "大湖公園-W-成功路五段",
    "lat": 25.083037,
    "lng": 121.6051702,
    "address": "114臺北市內湖區成功路五段168號旁候車亭"
  },
  {
    "name": "黃石公廟-E-成功路五段",
    "lat": 25.0775258,
    "lng": 121.6070246,
    "address": "114臺北市內湖區成功路五段39號旁候車亭"
  },
  {
    "name": "大湖公園-S-成功路五段",
    "lat": 25.082828,
    "lng": 121.6048199,
    "address": "114臺北市內湖區成功路五段168號對面候車亭"
  },
  {
    "name": "團管區-金湖路",
    "lat": 25.0736266,
    "lng": 121.6023868,
    "address": "114臺北市內湖區金湖路361號旁候車亭"
  },
  {
    "name": "康寧護專-S-康寧路三段",
    "lat": 25.075431,
    "lng": 121.610271,
    "address": "114臺北市內湖區康寧路三段75巷80號斜對面候車亭"
  },
  {
    "name": "南寮(忠三街口)-S-康樂街",
    "lat": 25.079078,
    "lng": 121.623527,
    "address": "114臺北市內湖區康樂街210號旁候車亭"
  },
  {
    "name": "民權隧道-E-民權東路六段",
    "lat": 25.071701,
    "lng": 121.604751,
    "address": "114臺北市內湖區民權東路六段268號前候車亭"
  },
  {
    "name": "大湖公園-游泳池門口外牆",
    "lat": 25.0825648,
    "lng": 121.6033671,
    "address": "114臺北市內湖區成功路五段31號大湖公園游泳池西南方外牆鐵柵欄上"
  },
  {
    "name": "大湖公園-南側廁所(錦帶橋)",
    "lat": 25.0806815,
    "lng": 121.6032018,
    "address": "114臺北市內湖區大湖街168巷16號對面大湖公園-南側廁所外牆"
  },
  {
    "name": "圖書館東湖分館1F服務臺後方",
    "lat": 25.0676281,
    "lng": 121.6125912,
    "address": "114臺北市內湖區五分街6號1F"
  },
  {
    "name": "圖書館東湖分館2F兒童期刊區",
    "lat": 25.0676175,
    "lng": 121.6127408,
    "address": "114臺北市內湖區五分街6號2F"
  },
  {
    "name": "圖書館東湖分館3F圖書閱覽區左側",
    "lat": 25.0676415,
    "lng": 121.6125879,
    "address": "114臺北市內湖區五分街6號3F"
  },
  {
    "name": "圖書館東湖分館4F視聽室左側",
    "lat": 25.0676062,
    "lng": 121.6128306,
    "address": "114臺北市內湖區五分街6號4F"
  },
  {
    "name": "內湖五分區民活動中心5F中央",
    "lat": 25.0676345,
    "lng": 121.6125966,
    "address": "114臺北市內湖區五分街6號5F"
  },
  {
    "name": "圖書館東湖分館B1F自修室中央",
    "lat": 25.0675912,
    "lng": 121.6129473,
    "address": "114臺北市內湖區五分街6號B1F"
  },
  {
    "name": "內湖老人服務中心5F茶水間門口上方",
    "lat": 25.0703917,
    "lng": 121.6186285,
    "address": "114臺北市內湖區康樂街110巷16弄20號5F"
  },
  {
    "name": "臺北市災害應變中心陽明山分隊1F服務台",
    "lat": 25.0676345,
    "lng": 121.6125966,
    "address": "112臺北市北投區勝利街1之2號1F"
  },
  {
    "name": "圖書館東湖分館B1F自修室後方",
    "lat": 25.0676573,
    "lng": 121.6124551,
    "address": "114臺北市內湖區五分街6號B1F"
  },
  {
    "name": "北市聯醫松德院區心湖職能工作坊3F職能訓練室中央",
    "lat": 25.0725354,
    "lng": 121.6191774,
    "address": "114臺北市內湖區康樂街130號3F"
  },
  {
    "name": "北市聯醫松德院區心湖職能工作坊3F花藝教室中央",
    "lat": 25.0727152,
    "lng": 121.6191683,
    "address": "114臺北市內湖區康樂街130號3F"
  }
]