[
  {
    "name": "內政部警政署警察廣播電臺服務中心",
    "lat": 25.0360308,
    "lng": 121.5075516,
    "address": "100臺北市中正區廣州街17號"
  },
  {
    "name": "三重中山路郵局",
    "lat": 25.061279,
    "lng": 121.487721,
    "address": "241新北市三重區中山路14號"
  },
  {
    "name": "三重中興橋郵局",
    "lat": 25.050446,
    "lng": 121.488734,
    "address": "241新北市三重區成功路52-2號"
  },
  {
    "name": "三重正義郵局",
    "lat": 25.061567,
    "lng": 121.498181,
    "address": "241新北市三重區正義南路10號"
  },
  {
    "name": "台北中山堂郵局",
    "lat": 25.0431219,
    "lng": 121.50896,
    "address": "100臺北市中正區秀山街1號"
  },
  {
    "name": "台北老松郵局",
    "lat": 25.0380929,
    "lng": 121.5041441,
    "address": "108臺北市萬華區桂林路51號"
  },
  {
    "name": "台北西園郵局",
    "lat": 25.0407723,
    "lng": 121.5010534,
    "address": "108臺北市萬華區長沙街二段156號"
  },
  {
    "name": "台北南門郵局",
    "lat": 25.0349956,
    "lng": 121.5100869,
    "address": "100臺北市中正區廣州街2號"
  },
  {
    "name": "台北迪化街郵局",
    "lat": 25.054789,
    "lng": 121.509986,
    "address": "103臺北市大同區迪化街一段38號"
  },
  {
    "name": "台北華江橋郵局",
    "lat": 25.0352842,
    "lng": 121.4930323,
    "address": "108臺北市萬華區和平西路三段310號"
  },
  {
    "name": "台北漢中街郵局",
    "lat": 25.0413279,
    "lng": 121.507015,
    "address": "108臺北市萬華區漢中街173號"
  },
  {
    "name": "台北龍山郵局",
    "lat": 25.0366019,
    "lng": 121.5046124,
    "address": "108臺北市萬華區廣州街67號"
  },
  {
    "name": "勞動部勞動力發展署北基宜花金馬分署三重就業服務站洽公櫃台",
    "lat": 25.057651,
    "lng": 121.488795,
    "address": "241新北市三重區重新路四段12號"
  },
  {
    "name": "行政院環境保護署記者室",
    "lat": 25.038515,
    "lng": 121.507644,
    "address": "100臺北市中正區中華路一段83號3樓"
  },
  {
    "name": "行政院環境保護署會客室",
    "lat": 25.038515,
    "lng": 121.507644,
    "address": "100臺北市中正區中華路一段83號1樓"
  },
  {
    "name": "行政院環境保護署會議室",
    "lat": 25.038515,
    "lng": 121.507644,
    "address": "100臺北市中正區中華路一段83號4樓"
  },
  {
    "name": "最高法院檢察署",
    "lat": 25.039341,
    "lng": 121.509531,
    "address": "100臺北市中正區貴陽街一段235號"
  },
  {
    "name": "財政部北區國稅局三重稽徵所第1辦公室",
    "lat": 25.057651,
    "lng": 121.488795,
    "address": "241新北市三重區重新路四段12號11樓"
  },
  {
    "name": "財政部北區國稅局三重稽徵所第2辦公室",
    "lat": 25.060173,
    "lng": 121.487057,
    "address": "241新北市三重區重陽路一段115號1樓"
  },
  {
    "name": "國家通訊傳播委員會北區監理處服務中心",
    "lat": 25.0362899,
    "lng": 121.5081922,
    "address": "100臺北市中正區延平南路143號2樓"
  },
  {
    "name": "行政院環境保護署第2辦公室會議室(12F)",
    "lat": 25.042787,
    "lng": 121.509309,
    "address": "100臺北市中正區秀山街4號12樓"
  },
  {
    "name": "行政院環境保護署第2辦公室會議室(13F)",
    "lat": 25.042787,
    "lng": 121.509309,
    "address": "100臺北市中正區秀山街4號13樓"
  },
  {
    "name": "行政院環境保護署第2辦公室會議室(14F)",
    "lat": 25.042787,
    "lng": 121.509309,
    "address": "100臺北市中正區秀山街4號14樓"
  },
  {
    "name": "兆豐國際商銀大稻程分行",
    "lat": 25.053081,
    "lng": 121.508504,
    "address": "103臺北市大同區西寧北路62-5號"
  },
  {
    "name": "兆豐國際商銀南三重分行",
    "lat": 25.057755,
    "lng": 121.488702,
    "address": "241新北市三重區重新路四段12號"
  },
  {
    "name": "合庫西門分行營業廳",
    "lat": 25.043214,
    "lng": 121.505043,
    "address": "108臺北市萬華區昆明街77號"
  },
  {
    "name": "第一商業銀行西門分行",
    "lat": 25.044186,
    "lng": 121.506222,
    "address": "108臺北市萬華區西寧南路52號"
  },
  {
    "name": "經濟部礦務局5樓公開閱覽室",
    "lat": 25.0433213,
    "lng": 121.5089941,
    "address": "100臺北市中正區中華路一段53號5樓"
  },
  {
    "name": "國家圖書館多媒體創意實驗中心-1",
    "lat": 25.0425328,
    "lng": 121.5094318,
    "address": "100臺北市中正區秀山街4號14樓"
  },
  {
    "name": "臺灣土地銀行三重分行",
    "lat": 25.062952,
    "lng": 121.499188,
    "address": "241新北市三重區重新路二段1-8號"
  },
  {
    "name": "臺灣土地銀行西三重分行",
    "lat": 25.0590013,
    "lng": 121.486859,
    "address": "241新北市三重區重陽路一段81號"
  },
  {
    "name": "臺灣銀行公庫部",
    "lat": 25.038992,
    "lng": 121.5084207,
    "address": "100臺北市中正區貴陽街一段120號"
  },
  {
    "name": "財政部臺北國稅局總局1F民眾服務區",
    "lat": 25.0478439,
    "lng": 121.509189,
    "address": "108臺北市萬華區中華路一段2號1樓"
  },
  {
    "name": "臺灣高等法院民事庭大廈",
    "lat": 25.039347,
    "lng": 121.509814,
    "address": "100臺北市中正區貴陽街一段233號"
  },
  {
    "name": "臺灣銀行延平分行",
    "lat": 25.0530953,
    "lng": 121.5098164,
    "address": "103臺北市大同區南京西路406號"
  },
  {
    "name": "國防部中華福利站服務台",
    "lat": 25.039147,
    "lng": 121.508032,
    "address": "100臺北市中正區貴陽街一段243號"
  },
  {
    "name": "行政院主計總處(廣博大樓)",
    "lat": 25.0349956,
    "lng": 121.5100869,
    "address": "100臺北市中正區廣州街2號"
  },
  {
    "name": "華南商業銀行西門分行",
    "lat": 25.042485,
    "lng": 121.506051,
    "address": "108臺北市萬華區西寧南路173號"
  },
  {
    "name": "華南商業銀行中華路分行",
    "lat": 25.0347806,
    "lng": 121.5062614,
    "address": "100臺北市中正區中華路二段59號"
  },
  {
    "name": "華南商業銀行萬華分行",
    "lat": 25.038628,
    "lng": 121.501921,
    "address": "108臺北市萬華區康定路149號"
  },
  {
    "name": "華南商業銀行三重分行",
    "lat": 25.062735,
    "lng": 121.498854,
    "address": "241新北市三重區重新路二段5號-1"
  },
  {
    "name": "華南商業銀行南三重分行",
    "lat": 25.061552,
    "lng": 121.487562,
    "address": "241新北市三重區新北大道一段52號"
  },
  {
    "name": "第一商業銀行大稻埕分行",
    "lat": 25.0557807,
    "lng": 121.5101501,
    "address": "103臺北市大同區迪化街一段63號"
  },
  {
    "name": "上海商銀龍山分行",
    "lat": 25.042761,
    "lng": 121.505549,
    "address": "108臺北市萬華區成都路60號"
  },
  {
    "name": "第一商業銀行(萬華分行)",
    "lat": 25.0399731,
    "lng": 121.5021164,
    "address": "108臺北市萬華區康定路87號"
  },
  {
    "name": "第一商業銀行(長泰分行)",
    "lat": 25.0617326,
    "lng": 121.4957162,
    "address": "241新北市三重區重新路二段99號"
  },
  {
    "name": "第一商業銀行(重陽分行)",
    "lat": 25.0592529,
    "lng": 121.486978,
    "address": "241新北市三重區重陽路一段89號"
  },
  {
    "name": "財政部臺北國稅局總局4F民眾服務區",
    "lat": 25.0478439,
    "lng": 121.509189,
    "address": "108臺北市萬華區中華路一段2號4樓"
  },
  {
    "name": "財政部臺北國稅局總局7F民眾服務區",
    "lat": 25.0478439,
    "lng": 121.509189,
    "address": "108臺北市萬華區中華路一段2號7樓"
  },
  {
    "name": "臺灣新北地方法院三重簡易庭",
    "lat": 25.059412,
    "lng": 121.49034,
    "address": "241新北市三重區重新路三段145號"
  },
  {
    "name": "青年職涯發展中心",
    "lat": 25.057758,
    "lng": 121.488775,
    "address": "241新北市三重區重新路四段12號3樓"
  },
  {
    "name": "內政部移民署臺北市服務站(新)",
    "lat": 25.036029,
    "lng": 121.508328,
    "address": "100臺北市中正區廣州街15號1樓及地下1樓"
  },
  {
    "name": "臺灣臺北地方法院二樓國民法官休息室",
    "lat": 25.0404,
    "lng": 121.51,
    "address": "100臺北市中正區長沙街一段27號"
  },
  {
    "name": "臺灣臺北地方法院寶慶院區孺慕堂一樓",
    "lat": 25.040419,
    "lng": 121.50968,
    "address": "100臺北市中正區長沙街一段27號"
  },
  {
    "name": "國家圖書館多媒體創意實驗中心-2",
    "lat": 25.0425328,
    "lng": 121.5094318,
    "address": "100臺北市中正區秀山街4號14樓"
  },
  {
    "name": "新北市樂來越愛你關懷協會",
    "lat": 25.063076,
    "lng": 121.496339,
    "address": "241新北市三重區重新里正義北路28巷40號"
  },
  {
    "name": "新北市三重區成功里辦公處",
    "lat": 25.051885,
    "lng": 121.491713,
    "address": "241新北市三重區成功里昌隆街36號"
  },
  {
    "name": "臺北基督徒明志禮拜堂",
    "lat": 25.063359,
    "lng": 121.489565,
    "address": "241新北市三重區重陽里明志街114號"
  },
  {
    "name": "新北市三重區光田里辦公處",
    "lat": 25.059396,
    "lng": 121.484757,
    "address": "241新北市三重區光田里中華路5號"
  },
  {
    "name": "財團法人台北市中國基督教靈糧世界佈道會台北靈糧堂",
    "lat": 25.037957,
    "lng": 121.504805,
    "address": "108臺北市萬華區仁德里桂林路27號"
  },
  {
    "name": "新北市三重區錦通里辦公處",
    "lat": 25.064323,
    "lng": 121.5008,
    "address": "241新北市三重區錦通里中央北路26號四樓"
  },
  {
    "name": "社團法人台灣多元社會福利協會(三重過田站)",
    "lat": 25.059042,
    "lng": 121.489473,
    "address": "241新北市三重區過田里過圳街7巷5號一樓"
  },
  {
    "name": "臺北市萬華區福音里辦公處",
    "lat": 25.038613,
    "lng": 121.50388,
    "address": "108臺北市萬華區福音里昆明街284號一樓"
  },
  {
    "name": "社團法人台北市艾馨公益慈善會",
    "lat": 25.035429,
    "lng": 121.501369,
    "address": "108臺北市萬華區福音里康定路229號六樓"
  },
  {
    "name": "三重靈糧堂",
    "lat": 25.062646,
    "lng": 121.490186,
    "address": "241新北市三重區錦田里中正北路2號b1"
  },
  {
    "name": "新北市三重區老人會",
    "lat": 25.064693,
    "lng": 121.498101,
    "address": "241新北市三重區文化里信義西街1號信義公園內聯歡廳"
  },
  {
    "name": "新北市愛笑瑜伽協會",
    "lat": 25.063184,
    "lng": 121.488215,
    "address": "241新北市三重區錦田里中正北路20巷3號一樓"
  },
  {
    "name": "新北市三重活躍樂齡協會",
    "lat": 25.058189,
    "lng": 121.484644,
    "address": "241新北市三重區光陽里重陽路一段60巷101號"
  },
  {
    "name": "中華躍樂齡創新服務發展協會",
    "lat": 25.052978,
    "lng": 121.487963,
    "address": "241新北市三重區福德里集美街75巷27號"
  },
  {
    "name": "新北市三峽區鳶山里辦公處",
    "lat": 25.064,
    "lng": 121.498,
    "address": "237新北市三峽區鳶山里大勇路36巷2號"
  },
  {
    "name": "新北市樹林區文林社區發展協會",
    "lat": 25.058,
    "lng": 121.491,
    "address": "238新北市樹林區潭底里保安街一段289巷8號"
  },
  {
    "name": "數位發展部延平大樓",
    "lat": 25.0365022,
    "lng": 121.508228,
    "address": "100臺北市中正區延平南路143號"
  },
  {
    "name": "司法院(臺灣高等法院-民事庭大廈)-1",
    "lat": 25.0395922,
    "lng": 121.5098482,
    "address": "100臺北市中正區貴陽街一段233號1樓"
  },
  {
    "name": "司法院(臺灣高等法院-民事庭大廈)-2",
    "lat": 25.0395922,
    "lng": 121.5098482,
    "address": "100臺北市中正區貴陽街一段233號2樓"
  },
  {
    "name": "司法院(最高法院)-1",
    "lat": 25.0402113,
    "lng": 121.5099392,
    "address": "100臺北市中正區長沙街一段6號1樓#為民服務中心"
  },
  {
    "name": "司法院(最高法院)-2",
    "lat": 25.0402113,
    "lng": 121.5099392,
    "address": "100臺北市中正區長沙街一段6號2樓"
  },
  {
    "name": "司法院(新北地方法院-三重簡易庭)",
    "lat": 25.0596633,
    "lng": 121.4903275,
    "address": "241新北市三重區重新路三段145號#為民服務處(一樓)"
  },
  {
    "name": "捷運北門站-S1-塔城街",
    "lat": 25.0490126,
    "lng": 121.5100754,
    "address": "103臺北市大同區塔城街10號捷運北門1號出口旁候車亭"
  },
  {
    "name": "中華路北站-慢車道-N-中華路一段",
    "lat": 25.0450374,
    "lng": 121.5088772,
    "address": "100臺北市中正區中華路一段41號旁候車亭"
  },
  {
    "name": "寶慶路-E1-寶慶路",
    "lat": 25.0415536,
    "lng": 121.5097684,
    "address": "100臺北市中正區寶慶路57號對面候車亭"
  },
  {
    "name": "小南門(和平院區)愛國西路",
    "lat": 25.036348,
    "lng": 121.508392,
    "address": "100臺北市中正區延平南路143號旁候車亭(愛國西路本線上)"
  },
  {
    "name": "小南門(和平院區)-延平南路",
    "lat": 25.036813,
    "lng": 121.508827,
    "address": "100臺北市中正區博愛路172號旁候車亭(愛國西路本線上)"
  },
  {
    "name": "中華路北站-S1-中華路一段",
    "lat": 25.0445626,
    "lng": 121.5086686,
    "address": "108臺北市萬華區中華路一段94號前候車亭"
  },
  {
    "name": "聯合醫院和平院區-S1-中華路二段",
    "lat": 25.03648,
    "lng": 121.50643,
    "address": "108臺北市萬華區中華路二段1號對面候車亭"
  },
  {
    "name": "小南門-N-中華路一段",
    "lat": 25.0382893,
    "lng": 121.5074389,
    "address": "100臺北市中正區中華路一段89號旁候車亭"
  },
  {
    "name": "峨嵋街口(中醫院區)-N-康定路",
    "lat": 25.0449232,
    "lng": 121.5030247,
    "address": "108臺北市萬華區康定路19號前候車亭"
  },
  {
    "name": "萬華運動中心-S-西寧南路",
    "lat": 25.0473707,
    "lng": 121.5071418,
    "address": "108臺北市萬華區西寧南路6之1號旁候車亭"
  },
  {
    "name": "老松國小-E-桂林路",
    "lat": 25.038211,
    "lng": 121.502258,
    "address": "108臺北市萬華區桂林路67號對面候車亭"
  },
  {
    "name": "小南門-S1-中華路一段",
    "lat": 25.038078,
    "lng": 121.506806,
    "address": "108臺北市萬華區中華路一段202號旁候車亭"
  },
  {
    "name": "捷運西門站-N1-中華路一段",
    "lat": 25.04095,
    "lng": 121.508201,
    "address": "100臺北市中正區中華路一段65號旁候車亭"
  },
  {
    "name": "玉泉公園-健身房-入口處",
    "lat": 25.050004,
    "lng": 121.5077115,
    "address": "103臺北市大同區西寧北路28號玉泉公園-健身房-入口處"
  },
  {
    "name": "大稻埕遊客中心",
    "lat": 25.0549405,
    "lng": 121.509988,
    "address": "103臺北市大同區迪化街一段44號1F"
  },
  {
    "name": "西門町遊客中心",
    "lat": 25.0443501,
    "lng": 121.5075447,
    "address": "108臺北市萬華區漢中街45號1樓"
  },
  {
    "name": "聯合醫院中興院區(西寧)-N-西寧北路",
    "lat": 25.0513073,
    "lng": 121.5084946,
    "address": "103臺北市大同區西寧北路32號對面候車亭"
  },
  {
    "name": "中華路北站-N-中華路一段",
    "lat": 25.04563,
    "lng": 121.50957,
    "address": "100臺北市中正區中華路一段29之4號旁候車亭"
  },
  {
    "name": "捷運西門站-N2-中華路一段",
    "lat": 25.040067,
    "lng": 121.507942,
    "address": "100臺北市中正區中華路一段69號旁候車亭"
  },
  {
    "name": "捷運龍山寺站-W-和平西路三段",
    "lat": 25.0353628,
    "lng": 121.5001114,
    "address": "108臺北市萬華區和平西路三段與和平西路三段109巷西北側候車亭"
  },
  {
    "name": "大稻埕-大稻埕碼頭貨櫃市集(碼頭售票亭)",
    "lat": 25.0566955,
    "lng": 121.5075837,
    "address": "103臺北市大同區民生西路底號五號水門"
  },
  {
    "name": "玉泉公園-游泳池南側",
    "lat": 25.0500331,
    "lng": 121.5074728,
    "address": "103臺北市大同區西寧北路28號玉泉公園-游泳池西南側"
  },
  {
    "name": "萬華艋舺夜市-廣州街170號前",
    "lat": 25.0366724,
    "lng": 121.498892,
    "address": "108臺北市萬華區廣州街170號前燈桿"
  },
  {
    "name": "萬華艋舺夜市-廣州街241號旁牌樓上",
    "lat": 25.0367678,
    "lng": 121.4982798,
    "address": "108臺北市萬華區廣州街241號旁牌樓上"
  },
  {
    "name": "萬華艋舺夜市-廣州街245號前",
    "lat": 25.0367799,
    "lng": 121.4976659,
    "address": "108臺北市萬華區廣州街245號前燈桿"
  },
  {
    "name": "臺北市憲兵隊",
    "lat": 25.0408389,
    "lng": 121.5092015,
    "address": "100臺北市中正區延平南路117號前"
  },
  {
    "name": "龍山寺地下街商場B1F商場01前",
    "lat": 25.0364376,
    "lng": 121.4999297,
    "address": "108臺北市萬華區西園路一段145號B1F"
  },
  {
    "name": "龍山寺地下街商場B1F商場03前",
    "lat": 25.0363793,
    "lng": 121.500152,
    "address": "108臺北市萬華區西園路一段145號B1F"
  },
  {
    "name": "龍山寺地下街商場B1F商場10前",
    "lat": 25.0364042,
    "lng": 121.4999941,
    "address": "108臺北市萬華區西園路一段145號B1F"
  },
  {
    "name": "龍山寺地下街商場B1F商場13前",
    "lat": 25.0363775,
    "lng": 121.5001969,
    "address": "108臺北市萬華區西園路一段145號B1F"
  },
  {
    "name": "龍山寺地下街商場B1F商場15前",
    "lat": 25.0363355,
    "lng": 121.5002248,
    "address": "108臺北市萬華區西園路一段145號B1F"
  },
  {
    "name": "龍山寺地下街商場B1F商場19前",
    "lat": 25.0359112,
    "lng": 121.5002824,
    "address": "108臺北市萬華區西園路一段145號B1F"
  },
  {
    "name": "龍山寺地下街商場B2F廣場A",
    "lat": 25.0363568,
    "lng": 121.4996377,
    "address": "108臺北市萬華區西園路一段145號B2F"
  },
  {
    "name": "龍山寺地下街商場B2F廣場B",
    "lat": 25.036235,
    "lng": 121.5002496,
    "address": "108臺北市萬華區西園路一段145號B2F"
  },
  {
    "name": "龍山寺地下街商場B2F商場46前",
    "lat": 25.0357128,
    "lng": 121.5001584,
    "address": "108臺北市萬華區西園路一段145號B2F"
  },
  {
    "name": "北市聯醫院本部1F兒童發展評估療育中心綜合治療室門口",
    "lat": 25.0508369,
    "lng": 121.5097295,
    "address": "103臺北市大同區鄭州路145號"
  },
  {
    "name": "北市聯醫院本部1F兒童發展評估療育中心護理站東側",
    "lat": 25.0510537,
    "lng": 121.5098599,
    "address": "103臺北市大同區鄭州路145號"
  },
  {
    "name": "北市聯醫本部2F兒童發展評估療育中心201會議室門口",
    "lat": 25.0508369,
    "lng": 121.5097295,
    "address": "103臺北市大同區鄭州路145號"
  },
  {
    "name": "北市聯醫本部3F301會議室門口",
    "lat": 25.0508369,
    "lng": 121.5097295,
    "address": "103臺北市大同區鄭州路145號"
  },
  {
    "name": "北市聯醫本部3F企劃行政中心大門內門口",
    "lat": 25.0508369,
    "lng": 121.5097295,
    "address": "103臺北市大同區鄭州路145號"
  },
  {
    "name": "北市聯醫本部4F健康關懷客服中心門口前",
    "lat": 25.0508369,
    "lng": 121.5097295,
    "address": "103臺北市大同區鄭州路145號"
  },
  {
    "name": "北市聯醫本部4F醫療事務室緊急出口右前方柱子旁",
    "lat": 25.0508369,
    "lng": 121.5097295,
    "address": "103臺北市大同區鄭州路145號"
  },
  {
    "name": "北市聯醫中興院區B1F藥劑科走廊",
    "lat": 25.0514331,
    "lng": 121.5094684,
    "address": "103臺北市大同區鄭州路145號"
  },
  {
    "name": "北市聯醫中興院區B1F腫瘤治療科服務台西側",
    "lat": 25.0512876,
    "lng": 121.5092666,
    "address": "103臺北市大同區鄭州路145號"
  },
  {
    "name": "北市聯醫中興院區B1F病歷室",
    "lat": 25.0513604,
    "lng": 121.5094481,
    "address": "103臺北市大同區鄭州路145號"
  },
  {
    "name": "北市聯醫中興院區B1F美食街",
    "lat": 25.0511271,
    "lng": 121.5094311,
    "address": "103臺北市大同區鄭州路145號"
  },
  {
    "name": "北市聯醫中興院區B1F解剖病理科",
    "lat": 25.0515931,
    "lng": 121.5090743,
    "address": "103臺北市大同區鄭州路145號"
  },
  {
    "name": "北市聯醫中興院區1F大廳藥局",
    "lat": 25.0511821,
    "lng": 121.5095383,
    "address": "103臺北市大同區鄭州路145號"
  },
  {
    "name": "北市聯醫中興院區1F健檢中心",
    "lat": 25.0514371,
    "lng": 121.5094711,
    "address": "103臺北市大同區鄭州路145號"
  },
  {
    "name": "北市聯醫中興院區1FX光室後方",
    "lat": 25.0517675,
    "lng": 121.5093661,
    "address": "103臺北市大同區鄭州路145號"
  },
  {
    "name": "北市聯醫中興院區1F放設科櫃台",
    "lat": 25.0515581,
    "lng": 121.5095323,
    "address": "103臺北市大同區鄭州路145號"
  },
  {
    "name": "北市聯醫中興院區1F急診大門",
    "lat": 25.0515336,
    "lng": 121.5089797,
    "address": "103臺北市大同區鄭州路145號"
  },
  {
    "name": "北市聯醫中興院區2F居家護理庫房門口",
    "lat": 25.0510962,
    "lng": 121.5095051,
    "address": "103臺北市大同區鄭州路145號"
  },
  {
    "name": "北市聯醫中興院區2F老人健康檢查服務處門口",
    "lat": 25.0515214,
    "lng": 121.5096258,
    "address": "103臺北市大同區鄭州路145號"
  },
  {
    "name": "北市聯醫中興院區2F家庭醫學科門口",
    "lat": 25.0515871,
    "lng": 121.5093575,
    "address": "103臺北市大同區鄭州路145號"
  },
  {
    "name": "北市聯醫中興院區2F小兒科門口",
    "lat": 25.0516382,
    "lng": 121.5090822,
    "address": "103臺北市大同區鄭州路145號"
  },
  {
    "name": "北市聯醫中興院區2F中醫科門口",
    "lat": 25.0516793,
    "lng": 121.5088942,
    "address": "103臺北市大同區鄭州路145號"
  },
  {
    "name": "北市聯醫中興院區2F精神科門口",
    "lat": 25.0513634,
    "lng": 121.5091402,
    "address": "103臺北市大同區鄭州路145號"
  },
  {
    "name": "北市聯醫中興院區3F運動治療室門外走廊",
    "lat": 25.0510962,
    "lng": 121.5093842,
    "address": "103臺北市大同區鄭州路145號"
  },
  {
    "name": "北市聯醫中興院區3F資訊室會議室門口",
    "lat": 25.0513529,
    "lng": 121.5094002,
    "address": "103臺北市大同區鄭州路145號"
  },
  {
    "name": "北市聯醫中興院區3F精神內科檢查室",
    "lat": 25.0516732,
    "lng": 121.5093211,
    "address": "103臺北市大同區鄭州路145號"
  },
  {
    "name": "北市聯醫中興院區3F內視鏡室門口",
    "lat": 25.0518479,
    "lng": 121.5091603,
    "address": "103臺北市大同區鄭州路145號"
  },
  {
    "name": "北市聯醫中興院區3F檢驗科中央",
    "lat": 25.0516482,
    "lng": 121.5090481,
    "address": "103臺北市大同區鄭州路145號"
  },
  {
    "name": "北市聯醫中興院區5F心導管室門口",
    "lat": 25.0513072,
    "lng": 121.5094251,
    "address": "103臺北市大同區鄭州路145號"
  },
  {
    "name": "北市聯醫中興院區5F麻醉科辦公室與恢復室中央",
    "lat": 25.0515451,
    "lng": 121.5094626,
    "address": "103臺北市大同區鄭州路145號"
  },
  {
    "name": "北市聯醫中興院區5F內科加護病房配膳室門口",
    "lat": 25.0515843,
    "lng": 121.5090227,
    "address": "103臺北市大同區鄭州路145號"
  },
  {
    "name": "北市聯醫中興院區5F家屬等候區中央",
    "lat": 25.0513895,
    "lng": 121.5091244,
    "address": "103臺北市大同區鄭州路145號"
  },
  {
    "name": "北市聯醫中興院區6F院長室門口",
    "lat": 25.0511752,
    "lng": 121.5092211,
    "address": "103臺北市大同區鄭州路145號"
  },
  {
    "name": "北市聯醫中興院區6F骨科中心外走廊中央",
    "lat": 25.0512801,
    "lng": 121.5095405,
    "address": "103臺北市大同區鄭州路145號"
  },
  {
    "name": "北市聯醫中興院區6F第一會議室旁",
    "lat": 25.0514258,
    "lng": 121.5093849,
    "address": "103臺北市大同區鄭州路145號"
  },
  {
    "name": "北市聯醫中興院區6F臨床技能中心門口",
    "lat": 25.0515619,
    "lng": 121.5096635,
    "address": "103臺北市大同區鄭州路145號"
  },
  {
    "name": "北市聯醫中興院區6F635病房門口",
    "lat": 25.0518041,
    "lng": 121.5095025,
    "address": "103臺北市大同區鄭州路145號"
  },
  {
    "name": "北市聯醫中興院區6F626病房門口",
    "lat": 25.0518818,
    "lng": 121.5092181,
    "address": "103臺北市大同區鄭州路145號"
  },
  {
    "name": "北市聯醫中興院區6F618病房門口",
    "lat": 25.0517311,
    "lng": 121.5088587,
    "address": "103臺北市大同區鄭州路145號"
  },
  {
    "name": "北市聯醫中興院區6F607病房門口",
    "lat": 25.0515951,
    "lng": 121.5087895,
    "address": "103臺北市大同區鄭州路145號"
  },
  {
    "name": "北市聯醫中興院區7F766病房門口",
    "lat": 25.0516145,
    "lng": 121.5096424,
    "address": "103臺北市大同區鄭州路145號"
  },
  {
    "name": "北市聯醫中興院區7F756病房門口",
    "lat": 25.0516145,
    "lng": 121.5096424,
    "address": "103臺北市大同區鄭州路145號"
  },
  {
    "name": "北市聯醫中興院區7F外科醫師執班室門口",
    "lat": 25.0513371,
    "lng": 121.5094064,
    "address": "103臺北市大同區鄭州路145號"
  },
  {
    "name": "北市聯醫中興院區7F745病房門口",
    "lat": 25.0515853,
    "lng": 121.5096048,
    "address": "103臺北市大同區鄭州路145號"
  },
  {
    "name": "北市聯醫中興院區7F719病房門口",
    "lat": 25.0517312,
    "lng": 121.5089442,
    "address": "103臺北市大同區鄭州路145號"
  },
  {
    "name": "北市聯醫中興院區7F707病房門口",
    "lat": 25.0516298,
    "lng": 121.5088533,
    "address": "103臺北市大同區鄭州路145號"
  },
  {
    "name": "北市聯醫中興院區8F867病房門口",
    "lat": 25.0511916,
    "lng": 121.5093312,
    "address": "103臺北市大同區鄭州路145號"
  },
  {
    "name": "北市聯醫中興院區8F853病房門口",
    "lat": 25.0512644,
    "lng": 121.5095082,
    "address": "103臺北市大同區鄭州路145號"
  },
  {
    "name": "北市聯醫中興院區8F民眾休息區中央",
    "lat": 25.0513616,
    "lng": 121.5091273,
    "address": "103臺北市大同區鄭州路145號"
  },
  {
    "name": "北市聯醫中興院區8F工友值班室門口",
    "lat": 25.0514685,
    "lng": 121.5093687,
    "address": "103臺北市大同區鄭州路145號"
  },
  {
    "name": "北市聯醫中興院區8F845病房門口",
    "lat": 25.0515944,
    "lng": 121.5095721,
    "address": "103臺北市大同區鄭州路145號"
  },
  {
    "name": "北市聯醫中興院區8F833病房門口",
    "lat": 25.0517985,
    "lng": 121.5094593,
    "address": "103臺北市大同區鄭州路145號"
  },
  {
    "name": "北市聯醫中興院區8F816病房門口",
    "lat": 25.0517241,
    "lng": 121.5090147,
    "address": "103臺北市大同區鄭州路145號中興院區8F816病房門口"
  },
  {
    "name": "北市聯醫中興院區8F807病房門口",
    "lat": 25.0515785,
    "lng": 121.5089797,
    "address": "103臺北市大同區鄭州路145號中興院區8F807病房門口"
  },
  {
    "name": "北市聯醫中興院區9F908病房門口",
    "lat": 25.0515934,
    "lng": 121.5087906,
    "address": "103臺北市大同區鄭州路145號"
  },
  {
    "name": "北市聯醫中興院區9F966病房門口",
    "lat": 25.0510953,
    "lng": 121.5094585,
    "address": "103臺北市大同區鄭州路145號"
  },
  {
    "name": "北市聯醫中興院區9F955病房門口",
    "lat": 25.0512483,
    "lng": 121.5095228,
    "address": "103臺北市大同區鄭州路145號"
  },
  {
    "name": "北市聯醫中興院區9F民眾休息區中央",
    "lat": 25.0513334,
    "lng": 121.5091473,
    "address": "103臺北市大同區鄭州路145號"
  },
  {
    "name": "北市聯醫中興院區9F神經外科主任室門口",
    "lat": 25.0514305,
    "lng": 121.5093886,
    "address": "103臺北市大同區鄭州路145號"
  },
  {
    "name": "北市聯醫中興院區9F945病房門口",
    "lat": 25.0515618,
    "lng": 121.5095737,
    "address": "103臺北市大同區鄭州路145號"
  },
  {
    "name": "北市聯醫中興院區9F932病房門口",
    "lat": 25.0517464,
    "lng": 121.5094471,
    "address": "103臺北市大同區鄭州路145號"
  },
  {
    "name": "北市聯醫中興院區9F919病房門口",
    "lat": 25.0517294,
    "lng": 121.5090801,
    "address": "103臺北市大同區鄭州路145號"
  },
  {
    "name": "北市聯醫中興院區10F1008病房門口",
    "lat": 25.0516079,
    "lng": 121.5089055,
    "address": "103臺北市大同區鄭州路145號"
  },
  {
    "name": "北市聯醫中興院區10F1019病房門口",
    "lat": 25.0517293,
    "lng": 121.5089918,
    "address": "103臺北市大同區鄭州路145號"
  },
  {
    "name": "北市聯醫中興院區10F1055病房門口",
    "lat": 25.0510952,
    "lng": 121.5093521,
    "address": "103臺北市大同區鄭州路145號"
  },
  {
    "name": "北市聯醫中興院區10F1066病房門口",
    "lat": 25.0512264,
    "lng": 121.5094808,
    "address": "103臺北市大同區鄭州路145號"
  },
  {
    "name": "北市聯醫中興院區10F民眾休息區中央",
    "lat": 25.0513114,
    "lng": 121.5091348,
    "address": "103臺北市大同區鄭州路145號"
  },
  {
    "name": "北市聯醫中興院區10F醫師值班室門口",
    "lat": 25.0513722,
    "lng": 121.5094191,
    "address": "103臺北市大同區鄭州路145號中興院區10F醫師值班室門口"
  },
  {
    "name": "北市聯醫中興院區10F1045病房門口",
    "lat": 25.0516569,
    "lng": 121.5095941,
    "address": "103臺北市大同區鄭州路145號中興院區10F1045病房門口"
  },
  {
    "name": "北市聯醫中興院區10F1032病房門口",
    "lat": 25.0517799,
    "lng": 121.5096216,
    "address": "103臺北市大同區鄭州路145號中興院區10F1032病房門口"
  },
  {
    "name": "北市聯醫和平院區A棟B2F公務室內走道",
    "lat": 25.0353294,
    "lng": 121.5067298,
    "address": "100臺北市中正區中華路二段33號"
  },
  {
    "name": "北市聯醫和平院區A棟4F恢復室等候區",
    "lat": 25.0353282,
    "lng": 121.5067523,
    "address": "100臺北市中正區中華路二段33號"
  },
  {
    "name": "北市聯醫和平院區A棟4F碎石中心男更衣室門口",
    "lat": 25.035407,
    "lng": 121.5066438,
    "address": "100臺北市中正區中華路二段33號"
  },
  {
    "name": "北市聯醫和平院區A棟B1F006藥品資訊室",
    "lat": 25.0355206,
    "lng": 121.5067146,
    "address": "100臺北市中正區中華路二段33號"
  },
  {
    "name": "北市聯醫和平院區A棟B1F營養科",
    "lat": 25.0354877,
    "lng": 121.50659,
    "address": "100臺北市中正區中華路二段33號"
  },
  {
    "name": "北市聯醫和平院區A棟B1F醫療事務課",
    "lat": 25.0354734,
    "lng": 121.5065779,
    "address": "100臺北市中正區中華路二段33號"
  },
  {
    "name": "北市聯醫和平院區A棟1F123疼痛科門口",
    "lat": 25.0356633,
    "lng": 121.5068968,
    "address": "100臺北市中正區中華路二段33號"
  },
  {
    "name": "北市聯醫和平院區A棟1F胸腔內科一診門口右方",
    "lat": 25.0353437,
    "lng": 121.5067496,
    "address": "100臺北市中正區中華路二段33號"
  },
  {
    "name": "北市聯醫和平院區A棟2F婦女健康中心等候區",
    "lat": 25.0355293,
    "lng": 121.5066832,
    "address": "100臺北市中正區中華路二段33號"
  },
  {
    "name": "北市聯醫和平院區A棟2F放射科櫃檯後方",
    "lat": 25.035407,
    "lng": 121.5066438,
    "address": "100臺北市中正區中華路二段33號"
  },
  {
    "name": "北市聯醫和平院區A棟3F耳鼻喉科右方走廊",
    "lat": 25.0357126,
    "lng": 121.5069765,
    "address": "100臺北市中正區中華路二段33號"
  },
  {
    "name": "北市聯醫和平院區A棟3F醫學美容中心雷射室門口",
    "lat": 25.0354728,
    "lng": 121.5068515,
    "address": "100臺北市中正區中華路二段33號"
  },
  {
    "name": "北市聯醫和平院區A棟3F中醫326門診門口",
    "lat": 25.0352653,
    "lng": 121.5067248,
    "address": "100臺北市中正區中華路二段33號"
  },
  {
    "name": "北市聯醫和平院區A棟5F綜合加護病房櫃台",
    "lat": 25.0357126,
    "lng": 121.5069765,
    "address": "100臺北市中正區中華路二段33號"
  },
  {
    "name": "北市聯醫和平院區A棟5F血液透析中心門口",
    "lat": 25.0355861,
    "lng": 121.506823,
    "address": "100臺北市中正區中華路二段33號"
  },
  {
    "name": "北市聯醫和平院區A棟5F綜合加護病房護理站",
    "lat": 25.0355208,
    "lng": 121.5068954,
    "address": "100臺北市中正區中華路二段33號"
  },
  {
    "name": "北市聯醫和平院區A棟6FA628病房門口左方",
    "lat": 25.03571,
    "lng": 121.50659,
    "address": "100臺北市中正區中華路二段33號"
  },
  {
    "name": "北市聯醫和平院區A棟6FA620病房門口",
    "lat": 25.0355861,
    "lng": 121.506823,
    "address": "100臺北市中正區中華路二段33號"
  },
  {
    "name": "北市聯醫和平院區A棟6FA609病房門口",
    "lat": 25.0354728,
    "lng": 121.5068515,
    "address": "100臺北市中正區中華路二段33號"
  },
  {
    "name": "北市聯醫和平院區A棟7FA726病房門口",
    "lat": 25.0357126,
    "lng": 121.5069765,
    "address": "100臺北市中正區中華路二段33號"
  },
  {
    "name": "北市聯醫和平院區A棟7F準備室",
    "lat": 25.0355293,
    "lng": 121.5066832,
    "address": "100臺北市中正區中華路二段33號"
  },
  {
    "name": "北市聯醫和平院區A棟7FA707病房門口",
    "lat": 25.0355206,
    "lng": 121.5067146,
    "address": "100臺北市中正區中華路二段33號"
  },
  {
    "name": "北市聯醫和平院區A棟8FA826病房門口",
    "lat": 25.0357126,
    "lng": 121.5069765,
    "address": "100臺北市中正區中華路二段33號和平院區A棟8FA826病房門口"
  },
  {
    "name": "北市聯醫和平院區A棟8F準備室",
    "lat": 25.0354728,
    "lng": 121.5068515,
    "address": "100臺北市中正區中華路二段33號和平院區A棟8F準備室"
  },
  {
    "name": "北市聯醫和平院區A棟8FA808病房門口",
    "lat": 25.0353628,
    "lng": 121.5068163,
    "address": "100臺北市中正區中華路二段33號和平院區A棟8FA808病房門口"
  },
  {
    "name": "北市聯醫和平院區A棟9F走廊中間",
    "lat": 25.0358805,
    "lng": 121.5068156,
    "address": "100臺北市中正區中華路二段33號和平院區A棟9F走廊中間"
  },
  {
    "name": "北市聯醫和平院區A棟9F護理站",
    "lat": 25.0359859,
    "lng": 121.5069179,
    "address": "100臺北市中正區中華路二段33號和平院區A棟9F護理站"
  },
  {
    "name": "北市聯醫和平院區A棟9FA908病房門口",
    "lat": 25.0358371,
    "lng": 121.5070118,
    "address": "100臺北市中正區中華路二段33號和平院區A棟9FA908病房門口"
  },
  {
    "name": "北市聯醫和平院區A棟10F中央走道舞台",
    "lat": 25.0355445,
    "lng": 121.5066027,
    "address": "100臺北市中正區中華路二段33號"
  },
  {
    "name": "北市聯醫和平院區A棟10F書櫃",
    "lat": 25.0354322,
    "lng": 121.5070252,
    "address": "100臺北市中正區中華路二段33號"
  },
  {
    "name": "北市聯醫和平院區A棟10F醫務長辦公室門口",
    "lat": 25.0352655,
    "lng": 121.5069018,
    "address": "100臺北市中正區中華路二段33號"
  },
  {
    "name": "北市聯醫和平院區B棟5F主任辦公室",
    "lat": 25.0353148,
    "lng": 121.5072505,
    "address": "100臺北市中正區中華路二段33號"
  },
  {
    "name": "北市聯醫和平院區B棟5F大門",
    "lat": 25.0353398,
    "lng": 121.5073323,
    "address": "100臺北市中正區中華路二段33號"
  },
  {
    "name": "北市聯醫和平院區B棟1F急診室內電梯",
    "lat": 25.0352037,
    "lng": 121.5074185,
    "address": "100臺北市中正區中華路二段33號"
  },
  {
    "name": "北市聯醫和平院區B棟1F急診藥局",
    "lat": 25.0351939,
    "lng": 121.5072723,
    "address": "100臺北市中正區中華路二段33號"
  },
  {
    "name": "北市聯醫和平院區B棟2F檢驗科辦公室門口",
    "lat": 25.0352571,
    "lng": 121.5073527,
    "address": "100臺北市中正區中華路二段33號"
  },
  {
    "name": "北市聯醫和平院區B棟2F檢體處理區門口",
    "lat": 25.0353796,
    "lng": 121.5073698,
    "address": "100臺北市中正區中華路二段33號"
  },
  {
    "name": "北市聯醫和平院區B棟3F病床電梯",
    "lat": 25.0352395,
    "lng": 121.5072639,
    "address": "100臺北市中正區中華路二段33號"
  },
  {
    "name": "北市聯醫和平院區B棟3F客用貨梯",
    "lat": 25.0354322,
    "lng": 121.5070252,
    "address": "100臺北市中正區中華路二段33號"
  },
  {
    "name": "北市聯醫和平院區B棟4F護理站",
    "lat": 25.0356368,
    "lng": 121.5073289,
    "address": "100臺北市中正區中華路二段33號"
  },
  {
    "name": "北市聯醫和平院區B棟4F電梯",
    "lat": 25.0356034,
    "lng": 121.5072532,
    "address": "100臺北市中正區中華路二段33號"
  },
  {
    "name": "北市聯醫和平院區B棟6F值班室",
    "lat": 25.0352708,
    "lng": 121.5072646,
    "address": "100臺北市中正區中華路二段33號"
  },
  {
    "name": "北市聯醫和平院區B棟6F公佈欄",
    "lat": 25.0354193,
    "lng": 121.5074292,
    "address": "100臺北市中正區中華路二段33號"
  },
  {
    "name": "北市聯醫和平院區B棟7F公佈欄",
    "lat": 25.0354239,
    "lng": 121.5074181,
    "address": "100臺北市中正區中華路二段33號"
  },
  {
    "name": "北市聯醫和平院區B棟7F值班室",
    "lat": 25.0352492,
    "lng": 121.5072518,
    "address": "100臺北市中正區中華路二段33號"
  },
  {
    "name": "北市聯醫和平院區B棟8F值班室",
    "lat": 25.0353601,
    "lng": 121.5072763,
    "address": "100臺北市中正區中華路二段33號和平院區B棟8F值班室"
  },
  {
    "name": "北市聯醫和平院區B棟8F公佈欄",
    "lat": 25.0355366,
    "lng": 121.5074352,
    "address": "100臺北市中正區中華路二段33號和平院區B棟8F公佈欄"
  },
  {
    "name": "北市聯醫和平院區B棟9F值班室",
    "lat": 25.0353358,
    "lng": 121.5071546,
    "address": "100臺北市中正區中華路二段33號"
  },
  {
    "name": "北市聯醫和平院區B棟9F公佈欄",
    "lat": 25.0354121,
    "lng": 121.5073755,
    "address": "100臺北市中正區中華路二段33號"
  },
  {
    "name": "北市聯醫和平院區B棟10F電梯",
    "lat": 25.035437,
    "lng": 121.5072072,
    "address": "100臺北市中正區中華路二段33號"
  },
  {
    "name": "萬華區行政大樓萬華戶政4F綜合受理16號櫃臺後方",
    "lat": 25.0348975,
    "lng": 121.4997748,
    "address": "108臺北市萬華區和平西路三段120號4F"
  },
  {
    "name": "萬華區行政大樓萬華戶政4F電梯門口",
    "lat": 25.0348793,
    "lng": 121.4998507,
    "address": "108臺北市萬華區和平西路三段120號4F"
  },
  {
    "name": "萬華區行政大樓萬華戶政5F會計室門口",
    "lat": 25.0349278,
    "lng": 121.4998804,
    "address": "108臺北市萬華區和平西路三段120號5F"
  },
  {
    "name": "萬華區行政大樓稅捐處萬華分處6F審核員室門口東北方",
    "lat": 25.0349122,
    "lng": 121.4998017,
    "address": "108臺北市萬華區和平西路三段120號6F"
  },
  {
    "name": "萬華區行政大樓稅捐處萬華分處6F志工服務臺後方",
    "lat": 25.0349121,
    "lng": 121.4998017,
    "address": "108臺北市萬華區和平西路三段120號6F"
  },
  {
    "name": "萬華區行政大樓建成地政7F測量課前",
    "lat": 25.0349062,
    "lng": 121.4997624,
    "address": "108臺北市萬華區和平西路三段120號7F"
  },
  {
    "name": "萬華區行政大樓建成地政7F資訊課門口前",
    "lat": 25.0347504,
    "lng": 121.4997634,
    "address": "108臺北市萬華區和平西路三段120號7F"
  },
  {
    "name": "萬華區行政大樓建成地政8F12號審查櫃臺後方",
    "lat": 25.0347243,
    "lng": 121.4998671,
    "address": "108臺北市萬華區和平西路三段120號8F"
  },
  {
    "name": "萬華區行政大樓建成地政8F7號領件櫃臺前",
    "lat": 25.0348908,
    "lng": 121.4997923,
    "address": "108臺北市萬華區和平西路三段120號8F"
  },
  {
    "name": "萬華區行政大樓建成地政9F行政課門口西北方",
    "lat": 25.0347225,
    "lng": 121.4998436,
    "address": "108臺北市萬華區和平西路三段120號9F"
  },
  {
    "name": "萬華區行政大樓建成地政9F研考室門口",
    "lat": 25.0348793,
    "lng": 121.4998507,
    "address": "108臺北市萬華區和平西路三段120號9F"
  },
  {
    "name": "萬華區行政大樓建成地政10F檔案室門口西北方",
    "lat": 25.0349909,
    "lng": 121.4995971,
    "address": "108臺北市萬華區和平西路三段120號10F"
  },
  {
    "name": "萬華區行政大樓10F里幹事服務臺前",
    "lat": 25.0353461,
    "lng": 121.4997547,
    "address": "108臺北市萬華區和平西路三段120號10F"
  },
  {
    "name": "萬華區行政大樓11F服務臺",
    "lat": 25.0355603,
    "lng": 121.4998892,
    "address": "108臺北市萬華區和平西路三段120號11F"
  },
  {
    "name": "萬華區行政大樓11F主任秘書室門口右側",
    "lat": 25.0353461,
    "lng": 121.4997547,
    "address": "108臺北市萬華區和平西路三段120號11F"
  },
  {
    "name": "萬華區行政大樓12F第二會議室門口西側",
    "lat": 25.0353087,
    "lng": 121.5000809,
    "address": "108臺北市萬華區和平西路三段120號12F"
  },
  {
    "name": "萬華區行政大樓12F秘書室門口",
    "lat": 25.0351014,
    "lng": 121.4998019,
    "address": "108臺北市萬華區和平西路三段120號12F"
  },
  {
    "name": "萬華區行政大樓13F大禮堂門口",
    "lat": 25.0348271,
    "lng": 121.5007111,
    "address": "108臺北市萬華區和平西路三段120號13F"
  },
  {
    "name": "萬華區行政大樓1F服務臺",
    "lat": 25.0349494,
    "lng": 121.4998338,
    "address": "108臺北市萬華區和平西路三段120號1F"
  },
  {
    "name": "龍山商場1F美食街右側",
    "lat": 25.0348793,
    "lng": 121.4998507,
    "address": "108臺北市萬華區和平西路三段120號1F"
  },
  {
    "name": "龍山商場1F美食街左側",
    "lat": 25.0347085,
    "lng": 121.4997534,
    "address": "108臺北市萬華區和平西路三段120號1F"
  },
  {
    "name": "萬華青山區民活動中心1F舞臺前",
    "lat": 25.0400459,
    "lng": 121.4978755,
    "address": "108臺北市萬華區環河南路二段5之1號1F"
  },
  {
    "name": "萬華柳鄉區民活動中心3F中央",
    "lat": 25.0368728,
    "lng": 121.495523,
    "address": "108臺北市萬華區環河南路二段102號3F"
  },
  {
    "name": "萬華新富區民活動中心1F門口左側",
    "lat": 25.0361461,
    "lng": 121.5005128,
    "address": "108臺北市萬華區廣州街152巷10號1F"
  },
  {
    "name": "萬華福星區民活動中心2F中央",
    "lat": 25.0467351,
    "lng": 121.5069286,
    "address": "108臺北市萬華區西寧南路14-3號2F"
  },
  {
    "name": "萬華運動中心1F社區教室前方",
    "lat": 25.0473881,
    "lng": 121.5068404,
    "address": "108臺北市萬華區西寧南路6之1號1F"
  },
  {
    "name": "萬華運動中心1F櫃臺前方",
    "lat": 25.0475108,
    "lng": 121.5068721,
    "address": "108臺北市萬華區西寧南路6之1號1F"
  },
  {
    "name": "萬華運動中心2F高爾夫球訓練區後方",
    "lat": 25.0474576,
    "lng": 121.5068673,
    "address": "108臺北市萬華區西寧南路6之1號2F"
  },
  {
    "name": "萬華運動中心2F高爾夫球訓練區櫃臺旁",
    "lat": 25.0475233,
    "lng": 121.5068861,
    "address": "108臺北市萬華區西寧南路6之1號2F"
  },
  {
    "name": "萬華運動中心3F健身房重訓區",
    "lat": 25.0474081,
    "lng": 121.5067531,
    "address": "108臺北市萬華區西寧南路6之1號3F"
  },
  {
    "name": "萬華運動中心3F健身房櫃臺旁",
    "lat": 25.0474576,
    "lng": 121.5068673,
    "address": "108臺北市萬華區西寧南路6之1號3F"
  },
  {
    "name": "萬華運動中心4F攀岩場座位區",
    "lat": 25.0474576,
    "lng": 121.5068673,
    "address": "108臺北市萬華區西寧南路6之1號4F"
  },
  {
    "name": "萬華運動中心7F室內座位區",
    "lat": 25.0474576,
    "lng": 121.5068673,
    "address": "108臺北市萬華區西寧南路6之1號7F"
  },
  {
    "name": "圖書館柳鄉民眾閱覽室4F兒童室門口",
    "lat": 25.0369303,
    "lng": 121.4953442,
    "address": "108臺北市萬華區環河南路二段102號4F"
  },
  {
    "name": "圖書館龍山分館1F兒童閱覽區",
    "lat": 25.0385554,
    "lng": 121.5024797,
    "address": "108臺北市萬華區桂林路65巷6號1F"
  },
  {
    "name": "圖書館龍山分館2F期刊區中央",
    "lat": 25.0385805,
    "lng": 121.5024929,
    "address": "108臺北市萬華區桂林路65巷6號2F"
  },
  {
    "name": "圖書館龍山分館3F自修室中央",
    "lat": 25.0385679,
    "lng": 121.5024925,
    "address": "108臺北市萬華區桂林路65巷6號3F"
  },
  {
    "name": "警察局局本部1F志工服務臺",
    "lat": 25.0439422,
    "lng": 121.5095664,
    "address": "100臺北市中正區延平南路96號1F"
  },
  {
    "name": "中山堂管理所1F服務臺",
    "lat": 25.0430478,
    "lng": 121.510052,
    "address": "100臺北市中正區延平南路98號1F"
  },
  {
    "name": "大同臺北橋區民活動中心2F門口右側",
    "lat": 25.0631466,
    "lng": 121.5091593,
    "address": "103臺北市大同區迪化街一段374號2F"
  },
  {
    "name": "就業服務處萬華就業服務臺5F服務台前",
    "lat": 25.0357915,
    "lng": 121.4948402,
    "address": "108臺北市萬華區梧州街36號5F"
  },
  {
    "name": "北市聯醫昆明院區1F批價櫃檯",
    "lat": 25.0440624,
    "lng": 121.5050214,
    "address": "108臺北市萬華區昆明街100號"
  },
  {
    "name": "北市聯醫昆明院區1F中藥局中央",
    "lat": 25.0441945,
    "lng": 121.5050065,
    "address": "108臺北市萬華區昆明街100號"
  },
  {
    "name": "北市聯醫昆明院區1F聯合服務中心櫃台",
    "lat": 25.0442027,
    "lng": 121.5050413,
    "address": "108臺北市萬華區昆明街100號"
  },
  {
    "name": "北市聯醫昆明院區2F第27門診門口",
    "lat": 25.0443746,
    "lng": 121.504812,
    "address": "108臺北市萬華區昆明街100號"
  },
  {
    "name": "北市聯醫昆明院區3F空調室門口",
    "lat": 25.0443646,
    "lng": 121.5048113,
    "address": "108臺北市萬華區昆明街100號"
  },
  {
    "name": "北市聯醫昆明院區3F第9診間門口",
    "lat": 25.0442002,
    "lng": 121.5047602,
    "address": "108臺北市萬華區昆明街100號"
  },
  {
    "name": "北市聯醫昆明院區4F團體討論室門口",
    "lat": 25.0443194,
    "lng": 121.5047331,
    "address": "108臺北市萬華區昆明街100號"
  },
  {
    "name": "北市聯醫昆明院區4F新興傳染病及藥癮防治科中央",
    "lat": 25.0440624,
    "lng": 121.5050214,
    "address": "108臺北市萬華區昆明街100號"
  },
  {
    "name": "北市聯醫昆明院區5F會議室門口外",
    "lat": 25.0444093,
    "lng": 121.5047212,
    "address": "108臺北市萬華區昆明街100號"
  },
  {
    "name": "北市聯醫昆明院區5F性病及愛滋病防治組外側走道",
    "lat": 25.0443194,
    "lng": 121.5047331,
    "address": "108臺北市萬華區昆明街100號5F(性病及愛滋病防治組門口)"
  },
  {
    "name": "北市聯醫昆明院區6F科長辦公室門口",
    "lat": 25.0444636,
    "lng": 121.5045079,
    "address": "108臺北市萬華區昆明街100號"
  },
  {
    "name": "北市聯醫昆明院區6F慢性傳染病股門口",
    "lat": 25.0440624,
    "lng": 121.5050214,
    "address": "108臺北市萬華區昆明街100號"
  },
  {
    "name": "北市聯醫昆明院區6F預防接種股門口",
    "lat": 25.0443556,
    "lng": 121.5050811,
    "address": "108臺北市萬華區昆明街100號"
  },
  {
    "name": "北市聯醫昆明院區7F會議室與結核病防治組走道中央",
    "lat": 25.0443194,
    "lng": 121.5047331,
    "address": "108臺北市萬華區昆明街100號"
  },
  {
    "name": "北市聯醫昆明院區8F標準病人休息室門口",
    "lat": 25.044422,
    "lng": 121.5046484,
    "address": "108臺北市萬華區昆明街100號"
  },
  {
    "name": "北市聯醫昆明院區9F醫務長室門口",
    "lat": 25.0442002,
    "lng": 121.5047602,
    "address": "108臺北市萬華區昆明街100號"
  },
  {
    "name": "北市聯醫昆明院區10F檢驗室",
    "lat": 25.0444681,
    "lng": 121.5049489,
    "address": "108臺北市萬華區昆明街100號"
  },
  {
    "name": "北市聯醫陽明院區5F522病房門口",
    "lat": 25.0508369,
    "lng": 121.5097295,
    "address": "111臺北市士林區雨聲街105號"
  },
  {
    "name": "文獻館本堂1F文獻資料室門口",
    "lat": 25.0401869,
    "lng": 121.5065221,
    "address": "108臺北市萬華區中華路一段174-1號1F"
  },
  {
    "name": "文獻館本堂1F展覽空間中央",
    "lat": 25.0401724,
    "lng": 121.5067385,
    "address": "108臺北市萬華區中華路一段174-1號1F"
  },
  {
    "name": "文獻館樹心會館1F會議室後門",
    "lat": 25.0396491,
    "lng": 121.5070664,
    "address": "108臺北市萬華區中華路一段174號1F"
  },
  {
    "name": "文獻館樹心會館1F大門",
    "lat": 25.0396882,
    "lng": 121.5071553,
    "address": "108臺北市萬華區中華路一段174號1F"
  },
  {
    "name": "龍山老人服務暨日間照顧中心3F第二教室門口",
    "lat": 25.0374504,
    "lng": 121.4975104,
    "address": "108臺北市萬華區梧州街36號3F"
  },
  {
    "name": "臺北市家庭暴力暨性侵害防治中心B1F多功能室正中央投影機旁",
    "lat": 25.0389103,
    "lng": 121.5089354,
    "address": "100臺北市中正區延平南路123號B1F"
  },
  {
    "name": "臺北市家庭暴力暨性侵害防治中心1F服務台正前方",
    "lat": 25.0388981,
    "lng": 121.5085535,
    "address": "100臺北市中正區延平南路123號1F"
  },
  {
    "name": "剝皮寮歷史街11號1F電信箱",
    "lat": 25.0369331,
    "lng": 121.5019905,
    "address": "108臺北市萬華區康定路173巷11號1F"
  },
  {
    "name": "剝皮寮歷史街25號1F警衛室後",
    "lat": 25.0368425,
    "lng": 121.5023542,
    "address": "108臺北市萬華區康定路173巷25號1F"
  },
  {
    "name": "剝皮寮歷史街35號1F門口",
    "lat": 25.0367466,
    "lng": 121.5026823,
    "address": "108臺北市萬華區康定路173巷35號1F"
  },
  {
    "name": "剝皮寮歷史街161號1F電信箱",
    "lat": 25.0367025,
    "lng": 121.5018435,
    "address": "108臺北市萬華區廣州街161號1F"
  },
  {
    "name": "剝皮寮歷史街137號1F電信箱",
    "lat": 25.0366841,
    "lng": 121.5023119,
    "address": "108臺北市萬華區廣州街137號1F"
  },
  {
    "name": "警察局局本部B3FB306大禮堂門口",
    "lat": 25.0438831,
    "lng": 121.5098658,
    "address": "100臺北市中正區延平南路96號B3F"
  },
  {
    "name": "警察局局本部B1FB101保安中隊門口",
    "lat": 25.0439422,
    "lng": 121.5095664,
    "address": "100臺北市中正區延平南路96號B1F"
  },
  {
    "name": "警察局局本部LF大廳2號電梯門口右側",
    "lat": 25.0440159,
    "lng": 121.5099505,
    "address": "100臺北市中正區延平南路96號1F"
  },
  {
    "name": "警察局局本部1F104外事科門口",
    "lat": 25.043911,
    "lng": 121.509769,
    "address": "100臺北市中正區延平南路96號1F"
  },
  {
    "name": "警察局局本部1F108空調室門口右側",
    "lat": 25.0439422,
    "lng": 121.5095664,
    "address": "100臺北市中正區延平南路96號1F"
  },
  {
    "name": "警察局局本部2F205後勤科財產股門口",
    "lat": 25.0440985,
    "lng": 121.50946,
    "address": "100臺北市中正區延平南路96號2F"
  },
  {
    "name": "警察局局本部2F202會計室",
    "lat": 25.0437902,
    "lng": 121.510053,
    "address": "100臺北市中正區延平南路96號2F"
  },
  {
    "name": "警察局局本部3F307主任秘書辦公室中央",
    "lat": 25.0441797,
    "lng": 121.5092125,
    "address": "100臺北市中正區延平南路96號3F"
  },
  {
    "name": "警察局局本部3F301局長室門口",
    "lat": 25.0439627,
    "lng": 121.5094338,
    "address": "100臺北市中正區延平南路96號3F"
  },
  {
    "name": "警察局局本部B3F文康室內",
    "lat": 25.0438831,
    "lng": 121.5098658,
    "address": "100臺北市中正區延平南路96號B3F"
  },
  {
    "name": "警察局局本部4F403第二會議室大門",
    "lat": 25.043812,
    "lng": 121.5095198,
    "address": "100臺北市中正區延平南路96號4F"
  },
  {
    "name": "警察局局本部4F勤務指揮中心大門",
    "lat": 25.0439627,
    "lng": 121.5094338,
    "address": "100臺北市中正區延平南路96號4F"
  },
  {
    "name": "警察局局本部5F資訊室中央",
    "lat": 25.043881,
    "lng": 121.5096209,
    "address": "100臺北市中正區延平南路96號5F"
  },
  {
    "name": "警察局局本部5F辦公室門口",
    "lat": 25.043812,
    "lng": 121.5095198,
    "address": "100臺北市中正區延平南路96號5F"
  },
  {
    "name": "警察局局本部6F保安科門口",
    "lat": 25.0439422,
    "lng": 121.5095664,
    "address": "100臺北市中正區延平南路96號6F"
  },
  {
    "name": "警察局局本部6F第一會議室",
    "lat": 25.0438765,
    "lng": 121.5097423,
    "address": "100臺北市中正區延平南路96號6F"
  },
  {
    "name": "警察局局本部7F政風室",
    "lat": 25.043812,
    "lng": 121.5095198,
    "address": "100臺北市中正區延平南路96號7F"
  },
  {
    "name": "警察局局本部7F督察室門口",
    "lat": 25.0438765,
    "lng": 121.5097423,
    "address": "100臺北市中正區延平南路96號7F"
  },
  {
    "name": "警察局局本部8F行政科門口",
    "lat": 25.0439422,
    "lng": 121.5095664,
    "address": "100臺北市中正區延平南路96號8F"
  },
  {
    "name": "警察局局本部8F人事室東方",
    "lat": 25.0438765,
    "lng": 121.5097423,
    "address": "100臺北市中正區延平南路96號8F"
  },
  {
    "name": "警察局局本部9F法規室門口",
    "lat": 25.0443636,
    "lng": 121.5091073,
    "address": "100臺北市中正區延平南路96號9F"
  },
  {
    "name": "警察局局本部9F保防科門口",
    "lat": 25.0437747,
    "lng": 121.5089282,
    "address": "100臺北市中正區延平南路96號9F"
  },
  {
    "name": "警察局局本部10F秘書室檔案股門口",
    "lat": 25.0443932,
    "lng": 121.5090466,
    "address": "100臺北市中正區延平南路96號10F"
  },
  {
    "name": "警察局局本部10F1008機務組內管理組門口",
    "lat": 25.0442782,
    "lng": 121.5088982,
    "address": "100臺北市中正區延平南路96號10F"
  },
  {
    "name": "警察局局本部11F1106犯罪預防科大門",
    "lat": 25.0444542,
    "lng": 121.5088112,
    "address": "100臺北市中正區延平南路96號11F"
  },
  {
    "name": "警察局局本部11F1103防治科內後方",
    "lat": 25.0437838,
    "lng": 121.509362,
    "address": "100臺北市中正區延平南路96號11F"
  },
  {
    "name": "中山堂管理所1F演員休息室門內",
    "lat": 25.0432665,
    "lng": 121.5096075,
    "address": "100臺北市中正區延平南路98號1F"
  },
  {
    "name": "中山堂管理所1F演員休息室門外左側",
    "lat": 25.043234,
    "lng": 121.5095843,
    "address": "100臺北市中正區延平南路98號1F"
  },
  {
    "name": "中山堂管理所2F光復廳往主任室門內上方",
    "lat": 25.0433905,
    "lng": 121.5094318,
    "address": "100臺北市中正區延平南路98號2F"
  },
  {
    "name": "中山堂管理所2F光復廳中間門外上方",
    "lat": 25.0433622,
    "lng": 121.5095713,
    "address": "100臺北市中正區延平南路98號2F"
  },
  {
    "name": "中山堂管理所2F堡壘廳後門外",
    "lat": 25.0431256,
    "lng": 121.5101077,
    "address": "100臺北市中正區延平南路98號2F"
  },
  {
    "name": "中山堂管理所3F台北書院門外",
    "lat": 25.0433099,
    "lng": 121.5096111,
    "address": "100臺北市中正區延平南路98號3F"
  },
  {
    "name": "中山堂管理所3F茶坊門外",
    "lat": 25.0433099,
    "lng": 121.5096111,
    "address": "100臺北市中正區延平南路98號3F"
  },
  {
    "name": "萬華昆明區民活動中心1F中央",
    "lat": 25.0386352,
    "lng": 121.5037431,
    "address": "108臺北市萬華區昆明街284號1F"
  },
  {
    "name": "萬華區行政大樓13F大禮堂辦公區",
    "lat": 25.0348793,
    "lng": 121.4998507,
    "address": "108臺北市萬華區和平西路三段120號13F"
  },
  {
    "name": "臺北市電影主題公園1F D棟音響設備上",
    "lat": 25.0452321,
    "lng": 121.5034672,
    "address": "108臺北市萬華區康定路19號1F"
  },
  {
    "name": "西門紅樓1F八卦型展區中央",
    "lat": 25.0420139,
    "lng": 121.5068592,
    "address": "108臺北市萬華區成都路10號1F"
  },
  {
    "name": "西門紅樓1F十字型展區中央左側梁柱",
    "lat": 25.0420209,
    "lng": 121.5064464,
    "address": "108臺北市萬華區成都路10號1F"
  },
  {
    "name": "龍山文創基地B2F三龍戲珠廣場",
    "lat": 25.0363923,
    "lng": 121.5002553,
    "address": "108臺北市萬華區西園路一段145號B2F"
  },
  {
    "name": "龍山文創基地B2F多功能展演廳旁廣場",
    "lat": 25.0363525,
    "lng": 121.4995928,
    "address": "108臺北市萬華區西園路一段145號B2F"
  },
  {
    "name": "直興市場1F 貴區22號攤位前",
    "lat": 25.0395531,
    "lng": 121.5012648,
    "address": "108臺北市萬華區康定路172巷1號1F"
  },
  {
    "name": "直興市場1F 康區05號攤位前",
    "lat": 25.0395131,
    "lng": 121.5011736,
    "address": "108臺北市萬華區康定路172巷1號1F"
  },
  {
    "name": "直興市場1F 本館28號柱子",
    "lat": 25.0393817,
    "lng": 121.5011801,
    "address": "108臺北市萬華區康定路172巷1號1F"
  },
  {
    "name": "新富市場1F 31號攤位前",
    "lat": 25.0360807,
    "lng": 121.5019374,
    "address": "108臺北市萬華區三水街70號1F"
  },
  {
    "name": "龍山商場2F 16號攤位前",
    "lat": 25.0348391,
    "lng": 121.4997957,
    "address": "108臺北市萬華區和平西路三段120號2F"
  },
  {
    "name": "龍山商場2F 5號攤位前",
    "lat": 25.0347292,
    "lng": 121.4999152,
    "address": "108臺北市萬華區和平西路三段120號2F"
  },
  {
    "name": "龍山商場3F 4號攤位前",
    "lat": 25.0347987,
    "lng": 121.4998972,
    "address": "108臺北市萬華區和平西路三段120號3F"
  },
  {
    "name": "龍山商場3F 16號攤位前",
    "lat": 25.0348793,
    "lng": 121.4998507,
    "address": "108臺北市萬華區和平西路三段120號3F"
  },
  {
    "name": "圖書館西門智慧圖書館B1F中央",
    "lat": 25.0445769,
    "lng": 121.5091837,
    "address": "100臺北市中正區中華路一段51-1號B1F"
  }
]