[
  {
    "name": "深坑草地尾郵局",
    "lat": 25.004413,
    "lng": 121.59936,
    "address": "222新北市深坑區北深路三段264號-1"
  },
  {
    "name": "臺北松德郵局",
    "lat": 25.0320543,
    "lng": 121.574243,
    "address": "110臺北市信義區松德路300號1樓"
  },
  {
    "name": "臺北市信義區挹翠社區發展協會",
    "lat": 25.018515,
    "lng": 121.575472,
    "address": "110臺北市信義區六合里紫雲街23號一樓"
  },
  {
    "name": "水塔-W-祥雲街",
    "lat": 25.0185741,
    "lng": 121.5749766,
    "address": "110臺北市信義區祥雲街37號旁候車亭"
  },
  {
    "name": "網球場-N-瑞雲街",
    "lat": 25.0164617,
    "lng": 121.5765028,
    "address": "110臺北市信義區瑞雲街11號旁候車亭"
  },
  {
    "name": "挹翠山莊-N-吳興街",
    "lat": 25.0195617,
    "lng": 121.5733723,
    "address": "110臺北市信義區祥雲路與吳興街600巷口西北側候車亭"
  },
  {
    "name": "松德大樓交通管制工程處7F秘書室門口右側",
    "lat": 25.031866,
    "lng": 121.5743724,
    "address": "110臺北市信義區松德路300號7F"
  },
  {
    "name": "松德大樓大地工程處3F主秘辦公室內",
    "lat": 25.0321978,
    "lng": 121.5741552,
    "address": "110臺北市信義區松德路300號3F"
  },
  {
    "name": "松德大樓停車管理工程處1F服務臺",
    "lat": 25.0321882,
    "lng": 121.5742751,
    "address": "110臺北市信義區松德路300號1F"
  },
  {
    "name": "松德大樓停車管理工程處5F政風室前",
    "lat": 25.0321882,
    "lng": 121.5742751,
    "address": "110臺北市信義區松德路300號5F"
  },
  {
    "name": "松德大樓停車管理工程處6F土木科前",
    "lat": 25.0321786,
    "lng": 121.5739225,
    "address": "110臺北市信義區松德路300號6F"
  },
  {
    "name": "松德大樓公共運輸處4F入口處左側",
    "lat": 25.0322609,
    "lng": 121.5742645,
    "address": "110臺北市信義區松德路300號4F"
  },
  {
    "name": "松德大樓停車管理工程處5F秘書室門口",
    "lat": 25.0322005,
    "lng": 121.5740908,
    "address": "110臺北市信義區松德路300號5F"
  },
  {
    "name": "松德大樓停車管理工程處6F營運科",
    "lat": 25.03184017,
    "lng": 121.574298,
    "address": "110臺北市信義區松德路300號6F"
  },
  {
    "name": "松德大樓大地工程處3F人事室旁",
    "lat": 25.0318733,
    "lng": 121.5742534,
    "address": "110臺北市信義區松德路300號3F"
  },
  {
    "name": "臺北市殯葬管理處富德靈骨塔1F入門口左側服務中心",
    "lat": 25.0115438,
    "lng": 121.5914025,
    "address": "116臺北市文山區木柵路五段190號1F"
  },
  {
    "name": "松德大樓大地工程處3F專門委員室門內",
    "lat": 25.0322491,
    "lng": 121.5742326,
    "address": "110臺北市信義區松德路300號3F"
  },
  {
    "name": "北市聯醫松德院區第一棟1F7號診間與8號診間中央",
    "lat": 25.0300766,
    "lng": 121.5750608,
    "address": "110臺北市信義區松德路309號第一棟1F"
  },
  {
    "name": "北市聯醫松德院區第一棟1F掛號櫃台",
    "lat": 25.0303137,
    "lng": 121.5751188,
    "address": "110臺北市信義區松德路309號第一棟1F"
  },
  {
    "name": "北市聯醫松德院區第一棟1F民眾等候區",
    "lat": 25.0304109,
    "lng": 121.5750064,
    "address": "110臺北市信義區松德路309號第一棟1F"
  },
  {
    "name": "北市聯醫松德院區第一棟2F急診護理站中央",
    "lat": 25.0306558,
    "lng": 121.5751263,
    "address": "110臺北市信義區松德路309號第一棟2F"
  },
  {
    "name": "北市聯醫松德院區第一棟2F臨床心理科門口前",
    "lat": 25.0306461,
    "lng": 121.5753844,
    "address": "110臺北市信義區松德路309號第一棟2F"
  },
  {
    "name": "北市聯醫松德院區第一棟3F社工室與檔案室中央",
    "lat": 25.0306233,
    "lng": 121.5754913,
    "address": "110臺北市信義區松德路309號第一棟3F"
  },
  {
    "name": "北市聯醫松德院區第一棟3F第二講堂後門口",
    "lat": 25.0304823,
    "lng": 121.575452,
    "address": "110臺北市信義區松德路309號第一棟3F"
  },
  {
    "name": "北市聯醫松德院區第一棟3F第一會議室門口",
    "lat": 25.0306461,
    "lng": 121.5753844,
    "address": "110臺北市信義區松德路309號第一棟3F"
  },
  {
    "name": "北市聯醫松德院區第一棟4F4D護理站討論室門口",
    "lat": 25.0296059,
    "lng": 121.5751999,
    "address": "110臺北市信義區松德路309號第一棟4F"
  },
  {
    "name": "北市聯醫松德院區第一棟4F4C護理站主任室門口",
    "lat": 25.0298916,
    "lng": 121.5752569,
    "address": "110臺北市信義區松德路309號第一棟4F"
  },
  {
    "name": "北市聯醫松德院區第一棟4F4B護理站討論室門口",
    "lat": 25.0303252,
    "lng": 121.5751784,
    "address": "110臺北市信義區松德路309號第一棟4F"
  },
  {
    "name": "北市聯醫松德院區第一棟4F4A護理站主任室門口",
    "lat": 25.0304444,
    "lng": 121.5747667,
    "address": "110臺北市信義區松德路309號第一棟4F"
  },
  {
    "name": "北市聯醫松德院區第一棟5F5D護理站討論室門口",
    "lat": 25.0295071,
    "lng": 121.5752659,
    "address": "110臺北市信義區松德路309號第一棟5F"
  },
  {
    "name": "北市聯醫松德院區第一棟5F5C護理站主任室門口",
    "lat": 25.0298641,
    "lng": 121.5752398,
    "address": "110臺北市信義區松德路309號第一棟5F"
  },
  {
    "name": "北市聯醫松德院區第一棟5F5B護理站討論室門口",
    "lat": 25.0303507,
    "lng": 121.5751553,
    "address": "110臺北市信義區松德路309號第一棟5F"
  },
  {
    "name": "北市聯醫松德院區第一棟5F5A護理站主任室門口",
    "lat": 25.0304444,
    "lng": 121.5747667,
    "address": "110臺北市信義區松德路309號第一棟5F"
  },
  {
    "name": "北市聯醫松德院區第一棟6F6C護理站主任室門口",
    "lat": 25.0304823,
    "lng": 121.575452,
    "address": "110臺北市信義區松德路309號第一棟6F"
  },
  {
    "name": "北市聯醫松德院區第一棟6F6A護理站主任室門口",
    "lat": 25.0306558,
    "lng": 121.5751263,
    "address": "110臺北市信義區松德路309號第一棟6F"
  },
  {
    "name": "北市聯醫松德院區第一棟7F7D護理站討論室門口",
    "lat": 25.0304823,
    "lng": 121.575452,
    "address": "110臺北市信義區松德路309號第一棟7F"
  },
  {
    "name": "北市聯醫松德院區第一棟7F空中花園",
    "lat": 25.0296728,
    "lng": 121.5754601,
    "address": "110臺北市信義區松德路309號第一棟7F"
  },
  {
    "name": "北市聯醫松德院區第二棟5F護理長辦公室門口",
    "lat": 25.0295481,
    "lng": 121.5738353,
    "address": "110臺北市信義區松德路309號第二棟5F"
  },
  {
    "name": "北市聯醫松德院區第二棟5F591病房與護理站中央",
    "lat": 25.0298009,
    "lng": 121.5735503,
    "address": "110臺北市信義區松德路309號第二棟5F"
  },
  {
    "name": "北市聯醫松德院區第二棟8F洗衣間前",
    "lat": 25.0296119,
    "lng": 121.5738413,
    "address": "110臺北市信義區松德路309號第二棟8F"
  },
  {
    "name": "北市聯醫松德院區第二棟6F護理站與藝術室中央",
    "lat": 25.0298565,
    "lng": 121.5739198,
    "address": "110臺北市信義區松德路309號第二棟6F"
  },
  {
    "name": "北市聯醫松德院區第二棟7F701病房門口",
    "lat": 25.0306144,
    "lng": 121.5745253,
    "address": "110臺北市信義區松德路309號第二棟7F"
  },
  {
    "name": "北市聯醫松德院區第二棟7F辦公室中央",
    "lat": 25.029954,
    "lng": 121.5739845,
    "address": "110臺北市信義區松德路309號第二棟7F"
  },
  {
    "name": "北市聯醫松德院區第二棟8F護理站中央",
    "lat": 25.0298477,
    "lng": 121.5739081,
    "address": "110臺北市信義區松德路309號第二棟8F"
  },
  {
    "name": "松德大樓公共運輸處4F綜合規畫科門口",
    "lat": 25.0318533,
    "lng": 121.5740764,
    "address": "110臺北市信義區松德路300號4F"
  },
  {
    "name": "松德大樓交通管制工程處5F工程隊門口",
    "lat": 25.0318742,
    "lng": 121.5742943,
    "address": "110臺北市信義區松德路300號5F"
  },
  {
    "name": "松德大樓停車管理工程處6F會計室門口",
    "lat": 25.0323086,
    "lng": 121.5739798,
    "address": "110臺北市信義區松德路300號6F"
  },
  {
    "name": "松德大樓交通管制工程處7F會計室門口",
    "lat": 25.0323068,
    "lng": 121.5739848,
    "address": "110臺北市信義區松德路300號7F"
  },
  {
    "name": "松德大樓交通管制工程處7F秘書室門口",
    "lat": 25.0316208,
    "lng": 121.5745279,
    "address": "110臺北市信義區松德路300號7F"
  },
  {
    "name": "松德大樓交通管制工程處7F規劃科門口",
    "lat": 25.03220871,
    "lng": 121.5741964,
    "address": "110臺北市信義區松德路300號7F"
  },
  {
    "name": "松德大樓交通管制工程處7F處長辦公室門口",
    "lat": 25.0317208,
    "lng": 121.5743671,
    "address": "110臺北市信義區松德路300號7F"
  },
  {
    "name": "公園路燈工程管理處園藝工程隊南區分隊",
    "lat": 25.0309099,
    "lng": 121.5782386,
    "address": "110臺北市信義區松山路652號"
  }
]