[
  {
    "name": "基隆南榮路郵局",
    "lat": 25.125691,
    "lng": 121.742573,
    "address": "200基隆市仁愛區南榮路20號"
  },
  {
    "name": "基隆暖暖郵局",
    "lat": 25.099253,
    "lng": 121.735542,
    "address": "205基隆市暖暖區暖暖街190號"
  },
  {
    "name": "基隆過港路郵局",
    "lat": 25.105189,
    "lng": 121.737755,
    "address": "205基隆市暖暖區過港路58號"
  },
  {
    "name": "臺鐵局八堵站候車室",
    "lat": 25.10844,
    "lng": 121.729002,
    "address": "205基隆市暖暖區八南里八堵路142號"
  },
  {
    "name": "兆豐國際商銀基隆分行",
    "lat": 25.125213,
    "lng": 121.742675,
    "address": "200基隆市仁愛區南榮路24號"
  },
  {
    "name": "臺鐵局三坑站月台5車位置",
    "lat": 25.1223436,
    "lng": 121.7420759,
    "address": "200基隆市仁愛區龍安街206號"
  },
  {
    "name": "臺鐵局八堵站第1月台8車位置",
    "lat": 25.1223431,
    "lng": 121.7420759,
    "address": "205基隆市暖暖區八南里八堵路142號"
  },
  {
    "name": "臺鐵局三坑站候車室",
    "lat": 25.1223436,
    "lng": 121.7420759,
    "address": "200基隆市仁愛區龍安街206號"
  },
  {
    "name": "新北市平溪區望古坑26號",
    "lat": 25.102294,
    "lng": 121.7392217,
    "address": "205基隆市暖暖區暖暖街51號"
  },
  {
    "name": "吉仁社區發展協會",
    "lat": 25.123321,
    "lng": 121.744242,
    "address": "200基隆市仁愛區吉仁里南新街29之6號二樓"
  },
  {
    "name": "基隆市暖暖區八南里辦公處",
    "lat": 25.100993,
    "lng": 121.725539,
    "address": "205基隆市暖暖區八南里八堵路185巷77之3號一樓"
  },
  {
    "name": "獅球里辦公處",
    "lat": 25.124441,
    "lng": 121.737638,
    "address": "200基隆市仁愛區獅球里獅球路115號"
  },
  {
    "name": "碇安里辦公處",
    "lat": 25.099011,
    "lng": 121.755496,
    "address": "205基隆市暖暖區碇安里源遠路273號"
  },
  {
    "name": "過港社區發展協會",
    "lat": 25.10487,
    "lng": 121.738265,
    "address": "205基隆市暖暖區過港里過港路54號"
  },
  {
    "name": "中興社區發展協會",
    "lat": 25.095875,
    "lng": 121.751442,
    "address": "205基隆市暖暖區碇和里暖碇路170號之1"
  },
  {
    "name": "財團法人中華基督教碇內浸信會",
    "lat": 25.098731,
    "lng": 121.753987,
    "address": "205基隆市暖暖區碇安里源遠路227巷25之1號"
  },
  {
    "name": "基隆市暖暖區八中社區發展協會",
    "lat": 25.11079,
    "lng": 121.731165,
    "address": "205基隆市暖暖區八中里金華街20號"
  },
  {
    "name": "誠仁社區發展協會",
    "lat": 25.12433,
    "lng": 121.743707,
    "address": "200基隆市仁愛區誠仁里南榮路161巷19號"
  },
  {
    "name": "基隆市仁愛區英仁里辦公處",
    "lat": 25.117995,
    "lng": 121.744217,
    "address": "200基隆市仁愛區英仁里南榮路393巷20號"
  },
  {
    "name": "基隆市仁愛區龍門里辦公處",
    "lat": 25.118876,
    "lng": 121.743057,
    "address": "200基隆市仁愛區龍門里南榮路134巷4號"
  },
  {
    "name": "碇內社區發展協會",
    "lat": 25.09582,
    "lng": 121.753761,
    "address": "205基隆市暖暖區碇內里暖碇路15巷136號"
  },
  {
    "name": "崇文社區發展協會",
    "lat": 25.123,
    "lng": 121.741,
    "address": "200基隆市仁愛區崇文里龍安街146之1號"
  },
  {
    "name": "基隆市仁愛區德厚里辦公處",
    "lat": 25.123,
    "lng": 121.7415,
    "address": "200基隆市仁愛區德厚里龍安街198巷6號"
  },
  {
    "name": "基隆市仁愛戶政事務所",
    "lat": 25.125082,
    "lng": 121.736755,
    "address": "200基隆市仁愛區光一路28號"
  },
  {
    "name": "基隆市暖暖戶政事務所",
    "lat": 25.10029,
    "lng": 121.735811,
    "address": "205基隆市暖暖區暖暖街246巷180號"
  },
  {
    "name": "基隆市市立殯葬管理所",
    "lat": 25.112706,
    "lng": 121.740854,
    "address": "200基隆市仁愛區南榮路509巷2號"
  },
  {
    "name": "基隆市暖暖區公所",
    "lat": 25.100484,
    "lng": 121.735854,
    "address": "205基隆市暖暖區東勢街2號"
  },
  {
    "name": "基隆市仁愛區公所",
    "lat": 25.125393,
    "lng": 121.736798,
    "address": "200基隆市仁愛區光一路28號2樓"
  },
  {
    "name": "基隆市仁愛圖書館",
    "lat": 25.125393,
    "lng": 121.736798,
    "address": "200基隆市仁愛區光一路28號4樓"
  }
]