[
  {
    "name": "明志科大郵局",
    "lat": 25.040678,
    "lng": 121.422189,
    "address": "243新北市泰山區工專路84號"
  },
  {
    "name": "泰山同榮郵局",
    "lat": 25.053997,
    "lng": 121.430287,
    "address": "243新北市泰山區明志路一段510、512號"
  },
  {
    "name": "泰山貴子路郵局",
    "lat": 25.041498,
    "lng": 121.425136,
    "address": "243新北市泰山區明志路三段85號"
  },
  {
    "name": "泰山郵局",
    "lat": 25.062482,
    "lng": 121.433622,
    "address": "243新北市泰山區楓江路10號"
  },
  {
    "name": "新莊新泰路郵局",
    "lat": 25.041788,
    "lng": 121.44475,
    "address": "242新北市新莊區新泰路333號"
  },
  {
    "name": "輔仁大學郵局",
    "lat": 25.034167,
    "lng": 121.434031,
    "address": "242新北市新莊區中正路510號"
  },
  {
    "name": "原住民族委員會一樓廣場",
    "lat": 25.052274,
    "lng": 121.44484,
    "address": "242新北市新莊區中平路439號北棟"
  },
  {
    "name": "行政院勞動部勞工保險局新莊合署辦公大樓(南棟1樓)",
    "lat": 25.056122,
    "lng": 121.443083,
    "address": "220新北市新莊區中平路439號南棟1樓"
  },
  {
    "name": "法務部行政執行署新北分署12樓民眾等候區",
    "lat": 25.057379,
    "lng": 121.443421,
    "address": "242新北市新莊區中平路439號北棟12樓"
  },
  {
    "name": "財政部北區國稅局新莊稽徵所第1辦公室",
    "lat": 25.037156,
    "lng": 121.444454,
    "address": "242新北市新莊區仁愛街56號7樓"
  },
  {
    "name": "中油公司新北市新莊區新莊站",
    "lat": 25.034682,
    "lng": 121.4452871,
    "address": "242新北市新莊區中正路338號"
  },
  {
    "name": "自來水公司泰山營運所",
    "lat": 25.063696,
    "lng": 121.428743,
    "address": "243新北市泰山區泰林路二段347號"
  },
  {
    "name": "臺灣土地銀行泰山分行",
    "lat": 25.039424,
    "lng": 121.424317,
    "address": "243新北市泰山區明志路三段168號"
  },
  {
    "name": "文化部-行政院新莊聯合辦公大樓13樓",
    "lat": 25.051712,
    "lng": 121.444715,
    "address": "242新北市新莊區中平路439號南棟13樓"
  },
  {
    "name": "客家委員會17樓-北側",
    "lat": 25.056808,
    "lng": 121.443352,
    "address": "242新北市新莊區中平路439號北棟17樓"
  },
  {
    "name": "客家委員會17樓-南側",
    "lat": 25.056808,
    "lng": 121.443352,
    "address": "242新北市新莊區中平路439號北棟17樓"
  },
  {
    "name": "文化部-行政院新莊聯合辦公大樓14樓",
    "lat": 25.051712,
    "lng": 121.444715,
    "address": "242新北市新莊區中平路439號南棟14樓"
  },
  {
    "name": "文化部-行政院新莊聯合辦公大樓15樓",
    "lat": 25.051712,
    "lng": 121.444715,
    "address": "242新北市新莊區中平路439號南棟15樓"
  },
  {
    "name": "文化部-行政院新莊聯合辦公大樓16樓",
    "lat": 25.051712,
    "lng": 121.444715,
    "address": "242新北市新莊區中平路439號南棟16樓"
  },
  {
    "name": "文化部-行政院新莊聯合辦公大樓17樓",
    "lat": 25.051712,
    "lng": 121.444715,
    "address": "242新北市新莊區中平路439號南棟17樓"
  },
  {
    "name": "文化部-行政院新莊聯合辦公大樓18樓",
    "lat": 25.051712,
    "lng": 121.444715,
    "address": "242新北市新莊區中平路439號南棟18樓"
  },
  {
    "name": "行政院新莊聯合辦公大樓-B1國際會議廳-1",
    "lat": 25.05177,
    "lng": 121.444715,
    "address": "242新北市新莊區中平路439號B1"
  },
  {
    "name": "行政院新莊聯合辦公大樓-B1國際會議廳-2",
    "lat": 25.05177,
    "lng": 121.444715,
    "address": "242新北市新莊區中平路439號B1"
  },
  {
    "name": "行政院新莊聯合辦公大樓-B1開放餐廳及公共區域-1",
    "lat": 25.05177,
    "lng": 121.444715,
    "address": "242新北市新莊區中平路439號B1"
  },
  {
    "name": "行政院新莊聯合辦公大樓-B1開放餐廳及公共區域-2",
    "lat": 25.05177,
    "lng": 121.444715,
    "address": "242新北市新莊區中平路439號B1"
  },
  {
    "name": "行政院新莊聯合辦公大樓-B1開放餐廳及公共區域-3",
    "lat": 25.05177,
    "lng": 121.444715,
    "address": "242新北市新莊區中平路439號B1"
  },
  {
    "name": "行政院新莊聯合辦公大樓-B1開放餐廳及公共區域-4",
    "lat": 25.05177,
    "lng": 121.444715,
    "address": "242新北市新莊區中平路439號B1"
  },
  {
    "name": "行政院新莊聯合辦公大樓-2F綠廊201會議室",
    "lat": 25.05177,
    "lng": 121.444715,
    "address": "242新北市新莊區中平路439號2樓"
  },
  {
    "name": "行政院新莊聯合辦公大樓-2F綠廊202會議室",
    "lat": 25.05177,
    "lng": 121.444715,
    "address": "242新北市新莊區中平路439號2樓"
  },
  {
    "name": "行政院新莊聯合辦公大樓-南棟10F公共會議室區-1",
    "lat": 25.05177,
    "lng": 121.444715,
    "address": "242新北市新莊區中平路439號南棟10樓"
  },
  {
    "name": "行政院新莊聯合辦公大樓-南棟10F公共會議室區-2",
    "lat": 25.05177,
    "lng": 121.444715,
    "address": "242新北市新莊區中平路439號南棟10樓"
  },
  {
    "name": "行政院新莊聯合辦公大樓-南棟10F公共會議室區-3",
    "lat": 25.05177,
    "lng": 121.444715,
    "address": "242新北市新莊區中平路439號南棟10樓"
  },
  {
    "name": "行政院新莊聯合辦公大樓-南棟10F公共會議室區-4",
    "lat": 25.05177,
    "lng": 121.444715,
    "address": "242新北市新莊區中平路439號南棟10樓"
  },
  {
    "name": "行政院新莊聯合辦公大樓-南棟10F公共會議室區-5",
    "lat": 25.05177,
    "lng": 121.444715,
    "address": "242新北市新莊區中平路439號南棟10樓"
  },
  {
    "name": "行政院新莊聯合辦公大樓-南棟10F公共會議室區-6",
    "lat": 25.05177,
    "lng": 121.444715,
    "address": "242新北市新莊區中平路439號南棟10樓"
  },
  {
    "name": "行政院新莊聯合辦公大樓-南棟2F2塊小辦公區",
    "lat": 25.05177,
    "lng": 121.444715,
    "address": "242新北市新莊區中平路439號南棟2樓"
  },
  {
    "name": "行政院新莊聯合辦公大樓-北棟1F南側展示廳-1",
    "lat": 25.05177,
    "lng": 121.444715,
    "address": "242新北市新莊區中平路439號北棟1樓"
  },
  {
    "name": "行政院新莊聯合辦公大樓-南棟1F大廳櫃臺",
    "lat": 25.05177,
    "lng": 121.444715,
    "address": "242新北市新莊區中平路439號南棟1樓"
  },
  {
    "name": "行政院新莊聯合辦公大樓-南棟1F南側展示廳-1",
    "lat": 25.05177,
    "lng": 121.444715,
    "address": "242新北市新莊區中平路439號南棟1樓"
  },
  {
    "name": "行政院新莊聯合辦公大樓-南棟1F南側展示廳-2",
    "lat": 25.05177,
    "lng": 121.444715,
    "address": "242新北市新莊區中平路439號南棟1樓"
  },
  {
    "name": "行政院新莊聯合辦公大樓-南棟1F辦公區-1",
    "lat": 25.05177,
    "lng": 121.444715,
    "address": "242新北市新莊區中平路439號南棟1樓"
  },
  {
    "name": "行政院新莊聯合辦公大樓-南棟1F辦公區-2",
    "lat": 25.05177,
    "lng": 121.444715,
    "address": "242新北市新莊區中平路439號南棟1樓"
  },
  {
    "name": "行政院新莊聯合辦公大樓-北棟10F公共會議室區-1",
    "lat": 25.05177,
    "lng": 121.444715,
    "address": "242新北市新莊區中平路439號北棟10樓"
  },
  {
    "name": "行政院新莊聯合辦公大樓-北棟10F公共會議室區-2",
    "lat": 25.05177,
    "lng": 121.444715,
    "address": "242新北市新莊區中平路439號北棟10樓"
  },
  {
    "name": "行政院新莊聯合辦公大樓-北棟10F公共會議室區-3",
    "lat": 25.05177,
    "lng": 121.444715,
    "address": "242新北市新莊區中平路439號北棟10樓"
  },
  {
    "name": "行政院新莊聯合辦公大樓-北棟10F公共會議室區-4",
    "lat": 25.05177,
    "lng": 121.444715,
    "address": "242新北市新莊區中平路439號北棟10樓"
  },
  {
    "name": "行政院新莊聯合辦公大樓-北棟10F公共會議室區-5",
    "lat": 25.05177,
    "lng": 121.444715,
    "address": "242新北市新莊區中平路439號北棟10樓"
  },
  {
    "name": "行政院新莊聯合辦公大樓-北棟10F公共會議室區-6",
    "lat": 25.05177,
    "lng": 121.444715,
    "address": "242新北市新莊區中平路439號北棟10樓"
  },
  {
    "name": "行政院新莊聯合辦公大樓-北棟2F2塊小辦公區",
    "lat": 25.05177,
    "lng": 121.444715,
    "address": "242新北市新莊區中平路439號北棟2樓"
  },
  {
    "name": "行政院新莊聯合辦公大樓-北棟2F挑高區",
    "lat": 25.05177,
    "lng": 121.444715,
    "address": "242新北市新莊區中平路439號北棟2樓"
  },
  {
    "name": "行政院新莊聯合辦公大樓-北棟1F大廳櫃臺",
    "lat": 25.05177,
    "lng": 121.444715,
    "address": "242新北市新莊區中平路439號北棟1樓"
  },
  {
    "name": "行政院新莊聯合辦公大樓-南棟2F挑高區",
    "lat": 25.05177,
    "lng": 121.444715,
    "address": "242新北市新莊區中平路439號南棟2樓"
  },
  {
    "name": "行政院新莊聯合辦公大樓-北棟1F南側展示廳-2",
    "lat": 25.05177,
    "lng": 121.444715,
    "address": "242新北市新莊區中平路439號北棟1樓"
  },
  {
    "name": "行政院新莊聯合辦公大樓-北棟1F辦公區-1",
    "lat": 25.05177,
    "lng": 121.444715,
    "address": "242新北市新莊區中平路439號北棟1樓"
  },
  {
    "name": "行政院新莊聯合辦公大樓-北棟1F辦公區-2",
    "lat": 25.05177,
    "lng": 121.444715,
    "address": "242新北市新莊區中平路439號北棟1樓"
  },
  {
    "name": "華南商業銀行泰山分行",
    "lat": 25.051911,
    "lng": 121.428441,
    "address": "243新北市泰山區明志路二段99號"
  },
  {
    "name": "原住民族委員會14樓大型會議室A",
    "lat": 25.052274,
    "lng": 121.44484,
    "address": "242新北市新莊區中平路439號北棟"
  },
  {
    "name": "原住民族委員會14樓大型會議室B",
    "lat": 25.052274,
    "lng": 121.44484,
    "address": "242新北市新莊區中平路439號北棟"
  },
  {
    "name": "原住民族委員會15樓中型會議室",
    "lat": 25.052274,
    "lng": 121.44484,
    "address": "242新北市新莊區中平路439號北棟"
  },
  {
    "name": "原住民族委員會16樓小型會議室",
    "lat": 25.052274,
    "lng": 121.44484,
    "address": "242新北市新莊區中平路439號北棟"
  },
  {
    "name": "原住民族委員會16樓原住民文物展示區A",
    "lat": 25.052274,
    "lng": 121.44484,
    "address": "242新北市新莊區中平路439號北棟"
  },
  {
    "name": "原住民族委員會16樓原住民文物展示區B",
    "lat": 25.052274,
    "lng": 121.44484,
    "address": "242新北市新莊區中平路439號北棟"
  },
  {
    "name": "法務部行政執行署新北分署12樓民眾等候區南區",
    "lat": 25.055957,
    "lng": 121.444531,
    "address": "242新北市新莊區中平路439號北棟12樓"
  },
  {
    "name": "法務部行政執行署新北分署13樓民眾等候區南區",
    "lat": 25.055957,
    "lng": 121.444531,
    "address": "242新北市新莊區中平路439號北棟13樓"
  },
  {
    "name": "第一商業銀行新莊分行",
    "lat": 25.035045,
    "lng": 121.44636,
    "address": "242新北市新莊區中正路316號"
  },
  {
    "name": "上海商銀新莊分行",
    "lat": 25.045596,
    "lng": 121.444508,
    "address": "242新北市新莊區中平路85號"
  },
  {
    "name": "客家委員會18樓-北側",
    "lat": 25.056808,
    "lng": 121.443352,
    "address": "242新北市新莊區中平路439號北棟18樓"
  },
  {
    "name": "客家委員會18樓-南側",
    "lat": 25.056808,
    "lng": 121.443352,
    "address": "242新北市新莊區中平路439號北棟18樓"
  },
  {
    "name": "第一商業銀行(泰山分行)",
    "lat": 25.0633614,
    "lng": 121.4333965,
    "address": "243新北市泰山區明志路一段135號"
  },
  {
    "name": "第一商業銀行(幸福分行)",
    "lat": 25.0555383,
    "lng": 121.4442742,
    "address": "242新北市新莊區中平路435號"
  },
  {
    "name": "愛相隨親子成長協會",
    "lat": 25.045212,
    "lng": 121.44826,
    "address": "242新北市新莊區中泰里中港一街130號"
  },
  {
    "name": "新北市泰山區同榮社區發展協會",
    "lat": 25.057056,
    "lng": 121.430525,
    "address": "243新北市泰山區同興里明志路一段427號"
  },
  {
    "name": "新北市光塩愛心關懷協會",
    "lat": 25.050411,
    "lng": 121.442117,
    "address": "242新北市新莊區立廷里立信三街25之3號"
  },
  {
    "name": "新北市泰山區貴子社區發展協會",
    "lat": 25.039866,
    "lng": 121.423627,
    "address": "243新北市泰山區貴子里工專路22號一樓"
  },
  {
    "name": "新北市泰山區山腳社區發展協會",
    "lat": 25.062661,
    "lng": 121.432334,
    "address": "243新北市泰山區山腳里福德街14號"
  },
  {
    "name": "新北市泰山區義仁社區發展協會",
    "lat": 25.04855,
    "lng": 121.428098,
    "address": "243新北市泰山區義仁里明志路二段177號一樓"
  },
  {
    "name": "新北市市敏動齡健康關懷協會(泰山全興站)",
    "lat": 25.055619,
    "lng": 121.432248,
    "address": "243新北市泰山區全興里仁義路11巷1號"
  },
  {
    "name": "國家電影及視聽文化中心1樓",
    "lat": 25.056645,
    "lng": 121.446926,
    "address": "242新北市新莊區文藝路2號1F"
  },
  {
    "name": "國家電影及視聽文化中心1樓-2",
    "lat": 25.056645,
    "lng": 121.446926,
    "address": "242新北市新莊區文藝路2號1F"
  },
  {
    "name": "國家電影及視聽文化中心2樓",
    "lat": 25.056645,
    "lng": 121.446926,
    "address": "242新北市新莊區文藝路2號2F"
  },
  {
    "name": "國家電影及視聽文化中心3樓",
    "lat": 25.056645,
    "lng": 121.446926,
    "address": "242新北市新莊區文藝路2號3F"
  },
  {
    "name": "國家電影及視聽文化中心4樓",
    "lat": 25.056645,
    "lng": 121.446926,
    "address": "242新北市新莊區文藝路2號4F"
  },
  {
    "name": "新莊副都心郵局",
    "lat": 25.0566678,
    "lng": 121.4437703,
    "address": "242新北市新莊區中平路439號北棟1樓"
  },
  {
    "name": "原住民族委員會14、15、16樓",
    "lat": 25.056683,
    "lng": 121.4434758,
    "address": "242新北市新莊區中平路439號北棟14、15、16樓"
  }
]