[
  {
    "name": "中研院郵局",
    "lat": 25.042891,
    "lng": 121.616503,
    "address": "115臺北市南港區研究院路二段108號"
  },
  {
    "name": "南港軟體園區郵局",
    "lat": 25.058506,
    "lng": 121.611877,
    "address": "115臺北市南港區園區街3-2號H棟1摟"
  },
  {
    "name": "南港郵局",
    "lat": 25.0538742,
    "lng": 121.6034144,
    "address": "115臺北市南港區南港路二段78號"
  },
  {
    "name": "臺鐵局南港站候車室",
    "lat": 25.053277,
    "lng": 121.6070467,
    "address": "115臺北市南港區南港路一段313號"
  },
  {
    "name": "財政部臺北國稅局南港稽徵所民眾服務區",
    "lat": 25.0545654,
    "lng": 121.6068639,
    "address": "115臺北市南港區南港路一段360號5樓"
  },
  {
    "name": "北區工業區管理處(南軟A棟大廳)-1",
    "lat": 25.057895,
    "lng": 121.613488,
    "address": "115臺北市南港區三重路19-10號"
  },
  {
    "name": "北區工業區管理處(南軟A棟大廳)-2",
    "lat": 25.057895,
    "lng": 121.613488,
    "address": "115臺北市南港區三重路19-10號"
  },
  {
    "name": "北區工業區管理處(南軟A棟二樓)",
    "lat": 25.057895,
    "lng": 121.613488,
    "address": "115臺北市南港區三重路19-10號"
  },
  {
    "name": "北區工業區管理處(南軟A棟二樓會議室)",
    "lat": 25.057895,
    "lng": 121.613488,
    "address": "115臺北市南港區三重路19-10號"
  },
  {
    "name": "北區工業區管理處(南軟X光棚)",
    "lat": 25.057146,
    "lng": 121.613747,
    "address": "115臺北市南港區三重路19-7號"
  },
  {
    "name": "北區工業區管理處(南軟Y光棚)",
    "lat": 25.056816,
    "lng": 121.613406,
    "address": "115臺北市南港區三重路19-4號"
  },
  {
    "name": "臺灣土地銀行南港分行1樓",
    "lat": 25.054738,
    "lng": 121.606432,
    "address": "115臺北市南港區南港路一段364號1、2、3、5樓"
  },
  {
    "name": "臺鐵局南港站2月台11車",
    "lat": 25.053704,
    "lng": 121.607065,
    "address": "115臺北市南港區南港路一段313號B3"
  },
  {
    "name": "華南商業銀行北南港分行",
    "lat": 25.058738,
    "lng": 121.611653,
    "address": "115臺北市南港區園區街3號2樓-10"
  },
  {
    "name": "臺灣土地銀行南港分行5樓",
    "lat": 25.054854,
    "lng": 121.606411,
    "address": "115臺北市南港區南港路一段364號1、2、3、5樓"
  },
  {
    "name": "上海商銀南港分行",
    "lat": 25.0575022,
    "lng": 121.6029613,
    "address": "115臺北市南港區重陽路200號"
  },
  {
    "name": "臺鐵局南港站東補票房",
    "lat": 25.052539,
    "lng": 121.6036986,
    "address": "115臺北市南港區南港路一段313號"
  },
  {
    "name": "臺鐵局南港站西補票房",
    "lat": 25.052539,
    "lng": 121.6036986,
    "address": "115臺北市南港區南港路一段313號"
  },
  {
    "name": "臺鐵局南港站第2月台1車位置",
    "lat": 25.052539,
    "lng": 121.6036986,
    "address": "115臺北市南港區南港路一段313號"
  },
  {
    "name": "臺鐵局南港站候車室(新)",
    "lat": 25.0531893,
    "lng": 121.6070639,
    "address": "115臺北市南港區南港路一段313號"
  },
  {
    "name": "台鐵局南港站第二月台第7車",
    "lat": 25.0529152,
    "lng": 121.6064958,
    "address": "115臺北市南港區南港路一段313號地下2樓"
  },
  {
    "name": "南港富康郵局",
    "lat": 25.0525237,
    "lng": 121.6163355,
    "address": "115臺北市南港區研究院路一段99號之3"
  },
  {
    "name": "財團法人台灣基督傳道會復生教會",
    "lat": 25.037888,
    "lng": 121.621955,
    "address": "115臺北市南港區舊莊里南深路21巷18號"
  },
  {
    "name": "臺北市南港舊莊社區發展協會",
    "lat": 25.041346,
    "lng": 121.619458,
    "address": "115臺北市南港區舊莊里舊莊街一段91巷11號(通訊地址：臺北市舊莊街一段145巷6弄39號)"
  },
  {
    "name": "臺北市南港區中研新村社區發展協會",
    "lat": 25.045813,
    "lng": 121.613,
    "address": "115臺北市南港區中研里研究院路二段70巷47弄4號一樓"
  },
  {
    "name": "財團法人弘道老人福利基金會(南港)",
    "lat": 25.053763,
    "lng": 121.607935,
    "address": "115臺北市南港區中南里市民大道八段588巷18號"
  },
  {
    "name": "社團法人台灣厝邊有愛關懷協會中研教會社區照顧關懷據點",
    "lat": 25.046636,
    "lng": 121.615835,
    "address": "115臺北市南港區中研里研究院路二段11巷5號"
  },
  {
    "name": "臺北市南港區久如社區發展協會",
    "lat": 25.036668,
    "lng": 121.617105,
    "address": "115臺北市南港區九如里研究院路二段208號一樓"
  },
  {
    "name": "臺北市南港區好厝邊社區發展協會",
    "lat": 25.045514,
    "lng": 121.614546,
    "address": "115臺北市南港區中研里研究院路二段70巷12號二樓(中研區民活動中心)"
  },
  {
    "name": "新富里辦公處",
    "lat": 25.053703,
    "lng": 121.617347,
    "address": "115臺北市南港區新福里富康街25號"
  },
  {
    "name": "社團法人中華基督教加倍愛全人關懷協會",
    "lat": 25.053683,
    "lng": 121.61568,
    "address": "115臺北市南港區中南里忠孝東路七段625巷16號"
  },
  {
    "name": "南港行政中心-W1-南港路一段",
    "lat": 25.0544318,
    "lng": 121.6066407,
    "address": "115臺北市南港區南港路一段360號候車亭"
  },
  {
    "name": "育成高中-E-重陽路",
    "lat": 25.058828,
    "lng": 121.60939,
    "address": "115臺北市南港區重陽路431號對面候車亭"
  },
  {
    "name": "胡適國小-N-舊莊街一段",
    "lat": 25.043378,
    "lng": 121.619056,
    "address": "115臺北市南港區舊莊街一段3巷3弄8號對面候車亭(大坑街本線)"
  },
  {
    "name": "舊莊國小-E-舊莊街一段",
    "lat": 25.039817,
    "lng": 121.620239,
    "address": "115臺北市南港區舊莊街一段147號斜對面候車亭"
  },
  {
    "name": "南港展覽館-W1-南港路一段",
    "lat": 25.0553104,
    "lng": 121.6158039,
    "address": "115臺北市南港區南港路一段67號對面候車亭"
  },
  {
    "name": "捷運南港站-W-忠孝東路七段",
    "lat": 25.0524,
    "lng": 121.608352,
    "address": "115臺北市南港區忠孝東路七段與興中路口東北側候車亭"
  },
  {
    "name": "環東大道口-經貿二路",
    "lat": 25.0594189,
    "lng": 121.6193014,
    "address": "115臺北市南港區經貿二路105巷與經貿一路交岔口東北側候車亭(經貿一路本線上)"
  },
  {
    "name": "環東大道口-經貿二路",
    "lat": 25.0601105,
    "lng": 121.6185082,
    "address": "115臺北市南港區經貿二路近157巷口候車亭"
  },
  {
    "name": "內湖焚化廠-W-安康路",
    "lat": 25.062477,
    "lng": 121.603454,
    "address": "114臺北市內湖區安康路228巷15號對面候車亭"
  },
  {
    "name": "中研院-N1-研究院路二段",
    "lat": 25.04326,
    "lng": 121.61665,
    "address": "115臺北市南港區研究院路二段77號旁候車亭"
  },
  {
    "name": "南港軟體園區北站-S-三重路",
    "lat": 25.0587,
    "lng": 121.614074,
    "address": "115臺北市南港區三重路19之12號候車亭"
  },
  {
    "name": "南軟園區北站-N-三重路",
    "lat": 25.058692,
    "lng": 121.61428,
    "address": "115臺北市南港區三重路19之12號對面候車亭"
  },
  {
    "name": "南港軟體園區南站-S1-三重路",
    "lat": 25.056531,
    "lng": 121.613899,
    "address": "115臺北市南港區三重路19之2號旁候車亭"
  },
  {
    "name": "南港軟體園區南站-N1-三重路",
    "lat": 25.056516,
    "lng": 121.614135,
    "address": "115臺北市南港區三重路19之2號對面候車亭"
  },
  {
    "name": "南港行政中心-E1-南港路一段",
    "lat": 25.0542993,
    "lng": 121.6071343,
    "address": "115臺北市南港區南港路一段356號對面候車亭"
  },
  {
    "name": "中研新村-N1-研究院路二段",
    "lat": 25.0455192,
    "lng": 121.6154142,
    "address": "115臺北市南港區研究院路二段78號候車亭"
  },
  {
    "name": "凌雲站-E-研究院路三段",
    "lat": 25.034688,
    "lng": 121.614768,
    "address": "115臺北市南港區研究院路三段50號旁候車亭"
  },
  {
    "name": "台肥新村-E-南港路二段",
    "lat": 25.0535744,
    "lng": 121.6028759,
    "address": "115臺北市南港區南港路二段31號旁候車亭"
  },
  {
    "name": "凌雲五村-S-研究院路二段",
    "lat": 25.0362079,
    "lng": 121.6168663,
    "address": "115臺北市南港區研究院路二段226號對面候車亭"
  },
  {
    "name": "巴黎春天社區-N-南深路",
    "lat": 25.037168,
    "lng": 121.620735,
    "address": "115臺北市南港區南深路31旁候車亭"
  },
  {
    "name": "東新國小-W-重陽路",
    "lat": 25.0577566,
    "lng": 121.6027208,
    "address": "115臺北市南港區重陽路237號旁候車亭"
  },
  {
    "name": "金德橋頭-N-合順街",
    "lat": 25.042655,
    "lng": 121.619857,
    "address": "115臺北市南港區合順街8巷3弄53號對面附近候車亭(大坑街本線上)"
  },
  {
    "name": "中研院-S1-研究院路二段",
    "lat": 25.0432518,
    "lng": 121.6165572,
    "address": "115臺北市南港區研究院路二段108號前候車亭"
  },
  {
    "name": "南港高工(重陽)-W-重陽路",
    "lat": 25.058084,
    "lng": 121.60588,
    "address": "115臺北市南港區重陽路323號前方候車亭"
  },
  {
    "name": "台肥新村-E1-南港路二段",
    "lat": 25.0539474,
    "lng": 121.6035978,
    "address": "115臺北市南港區南港路二段78號旁候車亭"
  },
  {
    "name": "胡適公園-N-研究院路二段",
    "lat": 25.040361,
    "lng": 121.617691,
    "address": "115臺北市南港區研究院路二段130號對面候車亭"
  },
  {
    "name": "東新國小-E-重陽路",
    "lat": 25.0575659,
    "lng": 121.6036139,
    "address": "115臺北市南港區重陽路269號對面候車亭"
  },
  {
    "name": "南港水廠-S-研究院路一段",
    "lat": 25.049547,
    "lng": 121.615615,
    "address": "115臺北市南港區研究院路一段183號對面候車亭"
  },
  {
    "name": "南港水廠-N1-研究院路二段",
    "lat": 25.0486353,
    "lng": 121.6159772,
    "address": "115臺北市南港區研究院路二段1號旁候車亭"
  },
  {
    "name": "凌雲五村-N-研究院路三段",
    "lat": 25.035625,
    "lng": 121.616912,
    "address": "115臺北市南港區研究院路三段12巷1號對面(研究院路三段本線)候車亭"
  },
  {
    "name": "國家文官學院-忠孝東路七段",
    "lat": 25.0527491,
    "lng": 121.6138451,
    "address": "115臺北市南港區忠孝東路七段574號候車亭"
  },
  {
    "name": "舊莊公園-舊莊街一段",
    "lat": 25.0410255,
    "lng": 121.620853,
    "address": "115臺北市南港區舊莊街一段145巷10號對面候車亭"
  },
  {
    "name": "福山抽水站-N-福山街",
    "lat": 25.046459,
    "lng": 121.617347,
    "address": "115臺北市南港區大坑街、研究院路二段35巷口東南側候車亭"
  },
  {
    "name": "園區街-W-園區街",
    "lat": 25.0591254,
    "lng": 121.6128274,
    "address": "115臺北市南港區園區街28號旁候車亭"
  },
  {
    "name": "南港高工一-N-興中路",
    "lat": 25.0558347,
    "lng": 121.6072711,
    "address": "115臺北市南港區興中路36號對面候車亭"
  },
  {
    "name": "南港軟體園區北站-N-三重路",
    "lat": 25.05961,
    "lng": 121.614356,
    "address": "115臺北市南港區三重路39號對面候車亭"
  },
  {
    "name": "捷運南港展覽館站(經貿二)-N-經貿二路",
    "lat": 25.0563655,
    "lng": 121.6170454,
    "address": "115臺北市南港區經貿二路1號旁候車亭"
  },
  {
    "name": "中研新村-S-研究院路二段",
    "lat": 25.0447015,
    "lng": 121.6156523,
    "address": "115臺北市南港區研究院路二段90號旁候車亭"
  },
  {
    "name": "南港展覽館-W-南港路一段",
    "lat": 25.0553104,
    "lng": 121.6158039,
    "address": "115臺北市南港區南港路一段67號對面候車亭"
  },
  {
    "name": "育成高中-W-重陽路",
    "lat": 25.0588622,
    "lng": 121.6089944,
    "address": "115臺北市南港區重陽路421號候車亭"
  },
  {
    "name": "南港展覽館-S-研究院路一段",
    "lat": 25.0547149,
    "lng": 121.6164115,
    "address": "115臺北市南港區研究院路一段2之4號旁候車亭"
  },
  {
    "name": "臺北市極限運動訓練中心-辦公室-頂樓",
    "lat": 25.0519488,
    "lng": 121.6073655,
    "address": "115臺北市南港區忠孝東路七段382號辦公室-頂樓"
  },
  {
    "name": "南港東明住宅-甲區大廳(16號1F)",
    "lat": 25.0546232,
    "lng": 121.6037855,
    "address": "115臺北市南港區南港路二段60巷16號1F甲區大廳"
  },
  {
    "name": "南港東明住宅-乙區A棟大廳(17號1F)",
    "lat": 25.0548151,
    "lng": 121.6045208,
    "address": "115臺北市南港區南港路二段60巷17號1F乙區A棟大廳"
  },
  {
    "name": "南港東明住宅-乙區A棟圖書閱覽室(17號3F)",
    "lat": 25.0547689,
    "lng": 121.6044765,
    "address": "115臺北市南港區南港路二段60巷17號3F乙區A棟圖書閱覽室"
  },
  {
    "name": "南港東明住宅-乙區A棟多功能會議室(17號3F)",
    "lat": 25.0548622,
    "lng": 121.6044528,
    "address": "115臺北市南港區南港路二段60巷17號3F乙區A棟多功能會議室"
  },
  {
    "name": "南港東明住宅-乙區B棟(19號1F大廳)",
    "lat": 25.0545612,
    "lng": 121.6046217,
    "address": "115臺北市南港區南港路二段60巷19號1F乙區B棟大廳"
  },
  {
    "name": "三重里-W-重陽路",
    "lat": 25.0593621,
    "lng": 121.6101102,
    "address": "115臺北市南港區重陽路449號旁候車亭"
  },
  {
    "name": "工程營產中心-E-忠孝東路七段",
    "lat": 25.0526171,
    "lng": 121.6110521,
    "address": "115臺北市南港區忠孝東路七段481號對面候車亭"
  },
  {
    "name": "工程營產中心-W-忠孝東路七段",
    "lat": 25.0527434,
    "lng": 121.6104877,
    "address": "115臺北市南港區忠孝東路七段506號對面號誌燈站桿東側80M候車亭"
  },
  {
    "name": "三重里-E-重陽路",
    "lat": 25.0593166,
    "lng": 121.6104823,
    "address": "115臺北市南港區重陽路386號旁候車亭"
  },
  {
    "name": "南港區行政大樓1F掛號櫃臺東北方",
    "lat": 25.0543308,
    "lng": 121.6065601,
    "address": "115臺北市南港區南港路一段360號1F"
  },
  {
    "name": "南港區行政大樓南港區健康服務中心1F會議室門內西北方",
    "lat": 25.0543308,
    "lng": 121.6065601,
    "address": "115臺北市南港區南港路一段360號1F"
  },
  {
    "name": "南港區行政大樓2F社會課與兵役課中間",
    "lat": 25.0544714,
    "lng": 121.6073487,
    "address": "115臺北市南港區南港路一段360號2F"
  },
  {
    "name": "南港區行政大樓稅捐處南港分處3F印花稅服務臺",
    "lat": 25.0542781,
    "lng": 121.6062657,
    "address": "115臺北市南港區南港路一段360號3F"
  },
  {
    "name": "南港區行政大樓南港戶政4F戶籍資料課前",
    "lat": 25.0543308,
    "lng": 121.6065601,
    "address": "115臺北市南港區南港路一段360號4F"
  },
  {
    "name": "南港區行政大樓6F收發文臺前",
    "lat": 25.0545599,
    "lng": 121.6067896,
    "address": "115臺北市南港區南港路一段360號6F"
  },
  {
    "name": "南港區行政大樓6F秘書室門口東北方",
    "lat": 25.0547059,
    "lng": 121.6066929,
    "address": "115臺北市南港區南港路一段360號6F"
  },
  {
    "name": "南港區行政大樓南港區健康服務中心7F健康服務中心門口",
    "lat": 25.0545599,
    "lng": 121.6067896,
    "address": "115臺北市南港區南港路一段360號7F"
  },
  {
    "name": "南港區行政大樓南港區健康服務中心7F會議室門口",
    "lat": 25.0547059,
    "lng": 121.6066929,
    "address": "115臺北市南港區南港路一段360號7F"
  },
  {
    "name": "南港區行政大樓8F人文課",
    "lat": 25.0547059,
    "lng": 121.6066929,
    "address": "115臺北市南港區南港路一段360號8F"
  },
  {
    "name": "南港區行政大樓9F經建課西北方",
    "lat": 25.0547059,
    "lng": 121.6066929,
    "address": "115臺北市南港區南港路一段360號9F"
  },
  {
    "name": "南港區行政大樓10F大禮堂中央",
    "lat": 25.054439,
    "lng": 121.6071689,
    "address": "115臺北市南港區南港路一段360號10F"
  },
  {
    "name": "南港南港區民活動中心2F活動空間中央",
    "lat": 25.0535935,
    "lng": 121.6080288,
    "address": "115臺北市南港區市民大道八段367號2F"
  },
  {
    "name": "圖書館南港分館1F資訊檢索區告示牌",
    "lat": 25.0548752,
    "lng": 121.6084667,
    "address": "115臺北市南港區南港路一段350號1F"
  },
  {
    "name": "南港舊莊區民活動中心1F中央",
    "lat": 25.0411041,
    "lng": 121.6193826,
    "address": "115臺北市南港區舊莊街一段91巷11號1F"
  },
  {
    "name": "南港中研區民活動中心2F中央",
    "lat": 25.0455095,
    "lng": 121.6144762,
    "address": "115臺北市南港區研究院路二段70巷12號2F"
  },
  {
    "name": "南港九如區民活動中心2F中央",
    "lat": 25.0354386,
    "lng": 121.6142593,
    "address": "115臺北市南港區研究院路三段68巷9號2F"
  },
  {
    "name": "南港三重區民活動中心2F中央",
    "lat": 25.0556358,
    "lng": 121.6130881,
    "address": "115臺北市南港區興東街1號2F"
  },
  {
    "name": "圖書館舊莊分館2F綜合服務臺",
    "lat": 25.041307,
    "lng": 121.6194827,
    "address": "115臺北市南港區舊莊街一段91巷11號2F"
  },
  {
    "name": "圖書館舊莊分館3F外文圖書區",
    "lat": 25.0413023,
    "lng": 121.6191741,
    "address": "115臺北市南港區舊莊街一段91巷11號3F"
  },
  {
    "name": "圖書館舊莊分館4F視聽資料區",
    "lat": 25.0413277,
    "lng": 121.6194384,
    "address": "115臺北市南港區舊莊街一段91巷11號4F"
  },
  {
    "name": "圖書館舊莊分館5F自修室",
    "lat": 25.0414907,
    "lng": 121.6196872,
    "address": "115臺北市南港區舊莊街一段91巷11號5F"
  },
  {
    "name": "圖書館親子美育數位分館1F服務台",
    "lat": 25.0448072,
    "lng": 121.6175305,
    "address": "115臺北市南港區研究院路二段61巷15號1F"
  },
  {
    "name": "圖書館親子美育數位分館2F兒童閱覽室中央",
    "lat": 25.0447452,
    "lng": 121.6176338,
    "address": "115臺北市南港區研究院路二段61巷15號2F"
  },
  {
    "name": "圖書館南港分館2F天井",
    "lat": 25.0547911,
    "lng": 121.6084251,
    "address": "115臺北市南港區南港路一段350號2F"
  },
  {
    "name": "圖書館南港分館3F自修室告示牌旁",
    "lat": 25.0548294,
    "lng": 121.6084133,
    "address": "115臺北市南港區南港路一段350號3F"
  },
  {
    "name": "圖書館南港分館3F消防栓前方",
    "lat": 25.054802,
    "lng": 121.6083289,
    "address": "115臺北市南港區南港路一段350號3F"
  },
  {
    "name": "中研市場1F 33攤位前",
    "lat": 25.0454973,
    "lng": 121.6144441,
    "address": "115臺北市南港區研究院路二段70巷12號1F"
  }
]