[
  {
    "name": "冬山郵局",
    "lat": 24.6344044,
    "lng": 121.791616,
    "address": "269宜蘭縣冬山鄉南興村10鄰冬山路177號"
  },
  {
    "name": "高速公路蘇澳服務區",
    "lat": 24.621617,
    "lng": 121.815237,
    "address": "270宜蘭縣蘇澳鎮蘇新路101號"
  },
  {
    "name": "大進廟",
    "lat": 24.615067,
    "lng": 121.811458,
    "address": "269宜蘭縣冬山鄉東城村冬山路一段1號"
  },
  {
    "name": "宜蘭縣冬山鄉香和社區發展協會",
    "lat": 24.628801,
    "lng": 121.797626,
    "address": "269宜蘭縣冬山鄉香和村香南路33號"
  },
  {
    "name": "宜蘭縣冬山鄉南興社區發展協會",
    "lat": 24.633076,
    "lng": 121.794619,
    "address": "269宜蘭縣冬山鄉南興村冬山路98之2號"
  },
  {
    "name": "宜蘭縣冬山鄉東城社區發展協會",
    "lat": 24.629717,
    "lng": 121.806334,
    "address": "269宜蘭縣冬山鄉東城村東城路280號"
  },
  {
    "name": "宜蘭縣長期照護及社會福祉推廣協會(冬瓜山)",
    "lat": 24.6300769,
    "lng": 121.7932931,
    "address": "269宜蘭縣冬山鄉南興村照安路56號"
  },
  {
    "name": "冬山鄉公所-2F會議室",
    "lat": 24.634506,
    "lng": 121.792181,
    "address": "269宜蘭縣冬山鄉冬山路100號"
  },
  {
    "name": "武荖坑風景區(露營登記處)",
    "lat": 24.610832,
    "lng": 121.814057,
    "address": "270宜蘭縣蘇澳鎮武荖坑路75號"
  },
  {
    "name": "武荖坑風景區(遊客中心)",
    "lat": 24.610003,
    "lng": 121.81573,
    "address": "270宜蘭縣蘇澳鎮武荖坑路75號"
  },
  {
    "name": "宜蘭縣政府警察局冬山分駐所",
    "lat": 24.634802,
    "lng": 121.79033,
    "address": "269宜蘭縣冬山鄉冬山路168號"
  },
  {
    "name": "宜蘭縣政府警察局新城派出所",
    "lat": 24.614572,
    "lng": 121.813543,
    "address": "270宜蘭縣蘇澳鎮中山路二段493號"
  },
  {
    "name": "宜蘭縣冬山鄉冬山國小活動中心面向香南路",
    "lat": 24.633189,
    "lng": 121.790314,
    "address": "269宜蘭縣冬山鄉安中路35號"
  },
  {
    "name": "宜蘭縣冬山鄉東興國小科任教室大樓2樓牆面朝東城路",
    "lat": 24.629932,
    "lng": 121.806815,
    "address": "269宜蘭縣冬山鄉東城路316號"
  },
  {
    "name": "宜蘭縣武荖坑風景區(露營登記處)",
    "lat": 24.610832,
    "lng": 121.814057,
    "address": "270宜蘭縣蘇澳鎮武荖坑路75號"
  },
  {
    "name": "宜蘭縣武荖坑風景區遊客中心",
    "lat": 24.610003,
    "lng": 121.81573,
    "address": "270宜蘭縣蘇澳鎮武荖坑路75號"
  },
  {
    "name": "冬山鄉公所-村里聯合辦公室",
    "lat": 24.634506,
    "lng": 121.792181,
    "address": "269宜蘭縣冬山鄉冬山路100號"
  }
]