[
  {
    "name": "富里東里郵局",
    "lat": 23.26807,
    "lng": 121.30437,
    "address": "983花蓮縣富里鄉東里村道化路9號"
  },
  {
    "name": "臺鐵局東里站候車室",
    "lat": 23.267935,
    "lng": 121.303716,
    "address": "983花蓮縣富里鄉東里村大莊路15-6號"
  },
  {
    "name": "花蓮縣富里鄉吳江國民小學",
    "lat": 23.27891,
    "lng": 121.321743,
    "address": "983花蓮縣富里鄉吳江村6鄰吳江52號"
  },
  {
    "name": "花蓮縣富里鄉東里國民小學",
    "lat": 23.265595,
    "lng": 121.302345,
    "address": "983花蓮縣富里鄉東里村道化路74號"
  },
  {
    "name": "花蓮縣立東里國民中學",
    "lat": 23.263742,
    "lng": 121.302087,
    "address": "983花蓮縣富里鄉東里村道化路82號"
  },
  {
    "name": "花蓮縣東里派出所鐵馬驛站",
    "lat": 23.268381,
    "lng": 121.304609,
    "address": "983花蓮縣富里鄉東里村大莊路5鄰38號"
  },
  {
    "name": "花蓮縣富里鄉吳江村辦公處",
    "lat": 23.279908,
    "lng": 121.322091,
    "address": "983花蓮縣富里鄉吳江村吳江65-3號"
  },
  {
    "name": "花蓮縣富里鄉東里村辦公處",
    "lat": 23.267724,
    "lng": 121.305309,
    "address": "983花蓮縣富里鄉東里村福安路5號"
  },
  {
    "name": "花蓮縣消防局東里消防分隊",
    "lat": 23.2684611,
    "lng": 121.3031039,
    "address": "983花蓮縣富里鄉大莊路52號"
  }
]