[
  {
    "name": "內湖大湖郵局",
    "lat": 25.084317,
    "lng": 121.6005599,
    "address": "114臺北市內湖區大湖街166巷2號"
  },
  {
    "name": "內湖文德郵局",
    "lat": 25.0782557,
    "lng": 121.5797027,
    "address": "114臺北市內湖區文德路26號"
  },
  {
    "name": "內湖江南郵局",
    "lat": 25.0765239,
    "lng": 121.574047,
    "address": "114臺北市內湖區瑞光路316巷1號"
  },
  {
    "name": "內湖金龍郵局",
    "lat": 25.086778,
    "lng": 121.589985,
    "address": "114臺北市內湖區內湖路三段131號"
  },
  {
    "name": "內湖郵局-1",
    "lat": 25.069349,
    "lng": 121.588068,
    "address": "114臺北市內湖區民權東路六段83號"
  },
  {
    "name": "內湖碧湖郵局",
    "lat": 25.0818017,
    "lng": 121.5888831,
    "address": "114臺北市內湖區內湖路二段225號"
  },
  {
    "name": "三軍總醫院1樓住出院櫃台等候區",
    "lat": 25.071987,
    "lng": 121.589956,
    "address": "114臺北市內湖區成功路二段325號"
  },
  {
    "name": "三軍總醫院1樓門診大廳",
    "lat": 25.071987,
    "lng": 121.589956,
    "address": "114臺北市內湖區成功路二段325號"
  },
  {
    "name": "中油公司台北市內湖區內湖站",
    "lat": 25.0684665,
    "lng": 121.5841059,
    "address": "114臺北市內湖區民權東路六段50號"
  },
  {
    "name": "兆豐國際商銀內湖分行",
    "lat": 25.082808,
    "lng": 121.5930038,
    "address": "114臺北市內湖區成功路四段68號"
  },
  {
    "name": "兆豐國際商銀東內湖分行",
    "lat": 25.0757792,
    "lng": 121.5743539,
    "address": "114臺北市內湖區港墘路202號"
  },
  {
    "name": "內湖郵局-2",
    "lat": 25.069349,
    "lng": 121.588068,
    "address": "114臺北市內湖區民權東路六段83號"
  },
  {
    "name": "臺灣土地銀行內湖分行",
    "lat": 25.0688554,
    "lng": 121.5900983,
    "address": "114臺北市內湖區民權東路六段156號"
  },
  {
    "name": "臺灣土地銀行西湖分行",
    "lat": 25.075924,
    "lng": 121.575033,
    "address": "114臺北市內湖區港墘路185號"
  },
  {
    "name": "財政部臺北國稅局內湖稽徵所民眾服務區",
    "lat": 25.0688286,
    "lng": 121.5871038,
    "address": "114臺北市內湖區民權東路六段114號5樓"
  },
  {
    "name": "華南商業銀行西湖分行",
    "lat": 25.080578,
    "lng": 121.572691,
    "address": "114臺北市內湖區內湖路一段392號"
  },
  {
    "name": "華南商業銀行內湖分行",
    "lat": 25.0832262,
    "lng": 121.594109,
    "address": "114臺北市內湖區成功路四段157號"
  },
  {
    "name": "第一商業銀行內湖分行",
    "lat": 25.0796003,
    "lng": 121.5901103,
    "address": "114臺北市內湖區成功路三段145號"
  },
  {
    "name": "上海商銀內湖分行",
    "lat": 25.0829861,
    "lng": 121.5932051,
    "address": "114臺北市內湖區成功路四段166號"
  },
  {
    "name": "上海商銀西湖分行",
    "lat": 25.07368,
    "lng": 121.576697,
    "address": "114臺北市內湖區瑞光路188巷48號"
  },
  {
    "name": "高速公路局北區工程處內湖工務段",
    "lat": 25.065156,
    "lng": 121.597602,
    "address": "114臺北市內湖區民權東路六段206巷143弄93號"
  },
  {
    "name": "第一商業銀行(內科園區分行)",
    "lat": 25.0806849,
    "lng": 121.572341,
    "address": "114臺北市內湖區內湖路一段388號"
  },
  {
    "name": "第一商業銀行(新湖分行)",
    "lat": 25.0648403,
    "lng": 121.5799147,
    "address": "114臺北市內湖區行愛路159號"
  },
  {
    "name": "臺灣銀行內湖分行",
    "lat": 25.080687,
    "lng": 121.573197,
    "address": "114臺北市內湖區內湖路一段396號"
  },
  {
    "name": "臺灣士林地方法院-內湖民事辦公大樓",
    "lat": 25.069701,
    "lng": 121.588532,
    "address": "114臺北市內湖區民權東路六段91號"
  },
  {
    "name": "內湖三總郵局",
    "lat": 25.0723501,
    "lng": 121.5923846,
    "address": "114臺北市內湖區成功路二段325號2樓(三軍總醫院內)"
  },
  {
    "name": "財團法人基督教台灣信義會內湖思恩堂",
    "lat": 25.080102,
    "lng": 121.592168,
    "address": "114臺北市內湖區紫星里康寧路一段62號"
  },
  {
    "name": "台北市內湖紳士協會",
    "lat": 25.078724,
    "lng": 121.57699,
    "address": "114臺北市內湖區港墘里內湖路一段552號(港墘區民活動中心)"
  },
  {
    "name": "臺北市內湖社區安全與健康協進會",
    "lat": 25.067638,
    "lng": 121.596696,
    "address": "114臺北市內湖區寶湖里民權東路六段208號"
  },
  {
    "name": "財團法人台灣基督教恩惠福音會",
    "lat": 25.078544,
    "lng": 121.578434,
    "address": "114臺北市內湖區港墘里內湖路一段608號"
  },
  {
    "name": "臺北市內湖區紫雲社區發展協會",
    "lat": 25.078251,
    "lng": 121.596052,
    "address": "114臺北市內湖區紫雲里康寧路一段228號"
  },
  {
    "name": "台北市內湖區碧湖社區發展協會",
    "lat": 25.085788,
    "lng": 121.589997,
    "address": "114臺北市內湖區金龍里金龍路136之1號二樓"
  },
  {
    "name": "臺北市內湖區大湖里辦公處",
    "lat": 25.086045,
    "lng": 121.601744,
    "address": "114臺北市內湖區大湖里大湖山莊街117號四樓"
  },
  {
    "name": "中華民國天使之家全人關懷協會",
    "lat": 25.065794,
    "lng": 121.590132,
    "address": "114臺北市內湖區湖興里成功路二段240之242號一樓"
  },
  {
    "name": "財團法人台北市基督教台灣貴格會內湖慈光堂",
    "lat": 25.077215,
    "lng": 121.582049,
    "address": "114臺北市內湖區瑞陽里文德路66巷49弄5號"
  },
  {
    "name": "財團法人台北市基督教台灣貴格會忠湖教會",
    "lat": 25.068258,
    "lng": 121.585297,
    "address": "114臺北市內湖區湖元里民權東路六段56巷5弄8號一樓"
  },
  {
    "name": "臺北市內湖區清白社區發展協會",
    "lat": 25.080026,
    "lng": 121.59696,
    "address": "114臺北市內湖區清白里星雲街一六八巷29號一樓/星雲街161巷3(清白區民活動中心)"
  },
  {
    "name": "財團法人福智慈善基金會(285)",
    "lat": 25.086,
    "lng": 121.59,
    "address": "114臺北市內湖區內湖里內湖路二段486號三樓"
  },
  {
    "name": "臺北市麗山社區關懷協會",
    "lat": 25.068,
    "lng": 121.597,
    "address": "114臺北市內湖區港都里麗山街348巷22號(麗山禮拜堂)"
  },
  {
    "name": "司法院(士林地方法院-內湖簡易庭)",
    "lat": 25.0699062,
    "lng": 121.5884983,
    "address": "114臺北市內湖區民權東路六段91號"
  },
  {
    "name": "麗山高中-W-環山路二段",
    "lat": 25.0841074,
    "lng": 121.5769101,
    "address": "114臺北市內湖區環山路二段133號對面候車亭"
  },
  {
    "name": "內湖高中-E1-文德路",
    "lat": 25.0786536,
    "lng": 121.5875823,
    "address": "114臺北市內湖區文德路220巷口旁候車亭"
  },
  {
    "name": "上灣仔-N1-成功路二段",
    "lat": 25.0669934,
    "lng": 121.5907832,
    "address": "114臺北市內湖區成功路二段與成功路二段193巷口北側候車亭"
  },
  {
    "name": "達人女中-W-內湖路二段",
    "lat": 25.081333,
    "lng": 121.58715,
    "address": "114臺北市內湖區內湖路二段308號斜對面候車亭"
  },
  {
    "name": "瑞光路-E1-瑞光路",
    "lat": 25.0747811,
    "lng": 121.5774754,
    "address": "114臺北市內湖區瑞光路196號前候車亭"
  },
  {
    "name": "國防醫學院-W-民權東路六段",
    "lat": 25.06833,
    "lng": 121.596023,
    "address": "114臺北市內湖區民權東路六段173號旁候車亭"
  },
  {
    "name": "瑞光港墘路口-E-瑞光路",
    "lat": 25.0771935,
    "lng": 121.5732556,
    "address": "114臺北市內湖區瑞光路356號對面候車亭"
  },
  {
    "name": "大湖國小-S-大湖山莊街",
    "lat": 25.088167,
    "lng": 121.599563,
    "address": "114臺北市內湖區大湖山莊街217號旁候車亭"
  },
  {
    "name": "方濟中學-S1-成功路三段",
    "lat": 25.07703,
    "lng": 121.58992,
    "address": "114臺北市內湖區成功路三段61號對面候車亭"
  },
  {
    "name": "國立台灣戲曲學院-S-內湖路二段",
    "lat": 25.0815894,
    "lng": 121.5874391,
    "address": "114臺北市內湖區內湖路二段179巷口北方西側候車亭"
  },
  {
    "name": "公館山-W-瑞光路",
    "lat": 25.0720056,
    "lng": 121.5811299,
    "address": "114臺北市內湖區瑞光路106號對面候車亭"
  },
  {
    "name": "內湖高中-W1-文德路",
    "lat": 25.0789606,
    "lng": 121.588278,
    "address": "114臺北市內湖區文德路230號對面候車亭"
  },
  {
    "name": "內湖國中-W-陽光街",
    "lat": 25.077028,
    "lng": 121.587821,
    "address": "114臺北市內湖區陽光街、文德路220巷口西北側候車亭"
  },
  {
    "name": "國防醫學院(網球中心)-E-民權東路六段",
    "lat": 25.0677168,
    "lng": 121.5968141,
    "address": "114臺北市內湖區民權東路六段208號前方候車亭"
  },
  {
    "name": "捷運文德站(碧湖公園)-E1-文德路",
    "lat": 25.078411,
    "lng": 121.584411,
    "address": "114臺北市內湖區文德路212號前方候車亭"
  },
  {
    "name": "上灣仔-成功路二段",
    "lat": 25.066976,
    "lng": 121.590484,
    "address": "114臺北市內湖區成功路二段276號旁候車亭"
  },
  {
    "name": "內湖運動公園-N-舊宗路二段",
    "lat": 25.0668658,
    "lng": 121.5747761,
    "address": "114臺北市內湖區舊宗路二段11號旁候車亭"
  },
  {
    "name": "內湖運動公園-S-舊宗路二段",
    "lat": 25.0678455,
    "lng": 121.5745759,
    "address": "114臺北市內湖區舊宗路二段95號對面候車亭"
  },
  {
    "name": "民權東路六段-E-民權東路六段",
    "lat": 25.067016,
    "lng": 121.5984169,
    "address": "114臺北市內湖區民權東路六段216號旁候車亭"
  },
  {
    "name": "瑞陽三號公園-W-文德路",
    "lat": 25.074998,
    "lng": 121.582233,
    "address": "114臺北市內湖區文德路66巷口旁候車亭"
  },
  {
    "name": "文德2號公園-N-文德路",
    "lat": 25.0769242,
    "lng": 121.5836592,
    "address": "114臺北市內湖區文德路208巷40號對面候車亭"
  },
  {
    "name": "碧湖山莊-W-內湖路二段",
    "lat": 25.0846381,
    "lng": 121.5842993,
    "address": "114臺北市內湖區內湖路二段179巷238號對面候車亭"
  },
  {
    "name": "麗山新村-W-環山路二段",
    "lat": 25.085227,
    "lng": 121.574226,
    "address": "114臺北市內湖區環山路二段69號對面候車亭"
  },
  {
    "name": "福華商場-E-民權東路六段",
    "lat": 25.068735,
    "lng": 121.593383,
    "address": "114臺北市內湖區民權東路六段186之1號旁候車亭"
  },
  {
    "name": "民權東路六段-W-民權東路六段",
    "lat": 25.067247,
    "lng": 121.598449,
    "address": "114臺北市內湖區民權東路六段201號旁候車亭"
  },
  {
    "name": "湖光國宅-E-文德路",
    "lat": 25.0784298,
    "lng": 121.5815701,
    "address": "114臺北市內湖區文德路74號候車亭"
  },
  {
    "name": "西湖圖書館-E-內湖路一段",
    "lat": 25.0790298,
    "lng": 121.5777104,
    "address": "114臺北市內湖區內湖路一段596號旁候車亭"
  },
  {
    "name": "大湖-W-成功路四段",
    "lat": 25.084752,
    "lng": 121.6002051,
    "address": "114臺北市內湖區成功路四段362號旁候車亭"
  },
  {
    "name": "公館山-E-瑞光路",
    "lat": 25.07181,
    "lng": 121.58107,
    "address": "114臺北市內湖區瑞光路104號候車亭"
  },
  {
    "name": "民權隧道二-E-民權東路六段",
    "lat": 25.0672858,
    "lng": 121.6012445,
    "address": "114臺北市內湖區民權東路六段246號前候車亭"
  },
  {
    "name": "金龍隧道口-S1-金龍路",
    "lat": 25.0863009,
    "lng": 121.5889774,
    "address": "114臺北市內湖區金龍路157號對面候車亭"
  },
  {
    "name": "福華商場-W-民權東路六段",
    "lat": 25.0690162,
    "lng": 121.5932625,
    "address": "114臺北市內湖區民權東路六段127號前候車亭"
  },
  {
    "name": "康寧派出所-N-金湖路",
    "lat": 25.081148,
    "lng": 121.597938,
    "address": "114臺北市內湖區金湖路95號對面候車亭"
  },
  {
    "name": "麗寶大樓-W-瑞光路",
    "lat": 25.070528,
    "lng": 121.582717,
    "address": "114臺北市內湖區瑞光路32號對面候車"
  },
  {
    "name": "美國在臺協會-W-金湖路",
    "lat": 25.0795208,
    "lng": 121.5990602,
    "address": "114臺北市內湖區金湖路175號旁候車亭"
  },
  {
    "name": "美國在臺協會-E-金湖路",
    "lat": 25.0794305,
    "lng": 121.5993448,
    "address": "114臺北市內湖區金湖路179號對面候車亭"
  },
  {
    "name": "內湖行政大樓-民權東路六段",
    "lat": 25.0691624,
    "lng": 121.5884218,
    "address": "114臺北市內湖區民權東路六段95號旁候車亭"
  },
  {
    "name": "金城春曉-康寧路一段",
    "lat": 25.078807,
    "lng": 121.598495,
    "address": "114臺北市內湖區康寧路一段265號前候車亭"
  },
  {
    "name": "國防醫學中心-N1-成功路二段",
    "lat": 25.0711579,
    "lng": 121.5901141,
    "address": "114臺北市內湖區成功路二段412號對面候車亭"
  },
  {
    "name": "將軍嶺-N-成功路二段",
    "lat": 25.073801,
    "lng": 121.590057,
    "address": "114臺北市內湖區成功路二段367號前候車亭"
  },
  {
    "name": "將軍嶺-S-成功路二段",
    "lat": 25.073392,
    "lng": 121.589752,
    "address": "114臺北市內湖區成功路二段492號旁候車亭"
  },
  {
    "name": "捷運內湖站-成功路四段",
    "lat": 25.083276,
    "lng": 121.594169,
    "address": "114臺北市內湖區成功路四段155號旁候車亭"
  },
  {
    "name": "清白里-金湖路",
    "lat": 25.083251,
    "lng": 121.595733,
    "address": "114臺北市內湖區金湖路23號旁候車亭"
  },
  {
    "name": "湖光國宅-W1-文德路",
    "lat": 25.078607,
    "lng": 121.580635,
    "address": "114臺北市內湖區文德路25號旁候車亭"
  },
  {
    "name": "湖興-S1-成功路二段",
    "lat": 25.0679699,
    "lng": 121.5906371,
    "address": "114臺北市內湖區成功路二段322號前方候車亭"
  },
  {
    "name": "民權大橋-W1-民權東路六段",
    "lat": 25.0669372,
    "lng": 121.5789774,
    "address": "114臺北市內湖區民權東路六段13之15號旁候車亭"
  },
  {
    "name": "紫雲里-N-金湖路",
    "lat": 25.07761,
    "lng": 121.600395,
    "address": "114臺北市內湖區金湖路200號旁候車亭"
  },
  {
    "name": "紫雲里-S-金湖路",
    "lat": 25.078045,
    "lng": 121.6000107,
    "address": "114臺北市內湖區金湖路200號對面候車亭"
  },
  {
    "name": "環山路-E-環山路二段",
    "lat": 25.0861157,
    "lng": 121.5717033,
    "address": "114臺北市內湖區環山路二段19號旁候車亭"
  },
  {
    "name": "碧湖公園-閱覽室頂樓",
    "lat": 25.0827855,
    "lng": 121.5829203,
    "address": "114臺北市內湖區內湖路二段175號1F閱覽室輕鋼架上"
  },
  {
    "name": "內湖高中-E2-文德路",
    "lat": 25.0786642,
    "lng": 121.5876269,
    "address": "114臺北市內湖區文德路220巷口旁候車亭"
  },
  {
    "name": "內湖國小-W-內湖路二段",
    "lat": 25.079345,
    "lng": 121.5813388,
    "address": "114臺北市內湖區內湖路二段94號對面候車亭"
  },
  {
    "name": "康寧派出所-E-金湖路",
    "lat": 25.080989,
    "lng": 121.597747,
    "address": "114臺北市內湖區金湖路95號前候車亭"
  },
  {
    "name": "捷運內湖站(內湖)",
    "lat": 25.0844718,
    "lng": 121.5933157,
    "address": "114臺北市內湖區內湖路二段411號對面"
  },
  {
    "name": "內湖區行政大樓1F女廁右側外後方",
    "lat": 25.0690269,
    "lng": 121.5894337,
    "address": "114臺北市內湖區民權東路六段99號1F"
  },
  {
    "name": "內湖區行政大樓1F志工服務櫃臺後",
    "lat": 25.0691353,
    "lng": 121.588566,
    "address": "114臺北市內湖區民權東路六段99號1F"
  },
  {
    "name": "內湖區行政大樓1F調解室門外西北方",
    "lat": 25.0690555,
    "lng": 121.5895179,
    "address": "114臺北市內湖區民權東路六段99號1F"
  },
  {
    "name": "內湖區行政大樓內湖區健康服務中心2F女廁右外側",
    "lat": 25.0689687,
    "lng": 121.5891773,
    "address": "114臺北市內湖區民權東路六段99號2F"
  },
  {
    "name": "內湖區行政大樓稅捐處內湖分處2F志工服務臺西北方",
    "lat": 25.06929,
    "lng": 121.588949,
    "address": "114臺北市內湖區民權東路六段99號2F"
  },
  {
    "name": "內湖區行政大樓稅捐處內湖分處2F主任室門外西北方",
    "lat": 25.0694214,
    "lng": 121.5888637,
    "address": "114臺北市內湖區民權東路六段99號2F"
  },
  {
    "name": "內湖區行政大樓內湖戶政3F資訊室門口",
    "lat": 25.0693282,
    "lng": 121.5888714,
    "address": "114臺北市內湖區民權東路六段99號3F"
  },
  {
    "name": "內湖區行政大樓內湖戶政3F人事室門外西北方",
    "lat": 25.0693458,
    "lng": 121.5892325,
    "address": "114臺北市內湖區民權東路六段99號3F"
  },
  {
    "name": "內湖區行政大樓4F會計室門口",
    "lat": 25.06901,
    "lng": 121.58852,
    "address": "114臺北市內湖區民權東路六段99號4F"
  },
  {
    "name": "內湖區行政大樓4F電梯西北方",
    "lat": 25.06915,
    "lng": 121.58898,
    "address": "114臺北市內湖區民權東路六段99號4F"
  },
  {
    "name": "內湖區行政大樓4F里幹事櫃臺前",
    "lat": 25.0692392,
    "lng": 121.5891283,
    "address": "114臺北市內湖區民權東路六段99號4F"
  },
  {
    "name": "內湖區行政大樓5F秘書室門口",
    "lat": 25.0692143,
    "lng": 121.5889179,
    "address": "114臺北市內湖區民權東路六段99號5F"
  },
  {
    "name": "內湖區行政大樓5F貴賓室外",
    "lat": 25.0692635,
    "lng": 121.5891665,
    "address": "114臺北市內湖區民權東路六段99號5F"
  },
  {
    "name": "內湖區行政大樓5F人事室外",
    "lat": 25.0693458,
    "lng": 121.5892325,
    "address": "114臺北市內湖區民權東路六段99號5F"
  },
  {
    "name": "內湖區行政大樓圖書館內湖分館6F自修室",
    "lat": 25.0692816,
    "lng": 121.5887651,
    "address": "114臺北市內湖區民權東路六段99號6F"
  },
  {
    "name": "內湖區行政大樓圖書館內湖分館6F期刊室中央",
    "lat": 25.0694105,
    "lng": 121.5884755,
    "address": "114臺北市內湖區民權東路六段99號6F"
  },
  {
    "name": "內湖區行政大樓圖書館內湖分館6F兒童閱覽室中央",
    "lat": 25.06915,
    "lng": 121.58898,
    "address": "114臺北市內湖區民權東路六段99號6F"
  },
  {
    "name": "內湖區行政大樓7F會議室",
    "lat": 25.0692987,
    "lng": 121.5891658,
    "address": "114臺北市內湖區民權東路六段99號7F"
  },
  {
    "name": "內湖區行政大樓8F大禮堂門口",
    "lat": 25.0692392,
    "lng": 121.5891283,
    "address": "114臺北市內湖區民權東路六段99號8F"
  },
  {
    "name": "內湖港墘區民活動中心1F中央",
    "lat": 25.0786631,
    "lng": 121.5769679,
    "address": "114臺北市內湖區內湖路一段552號1F"
  },
  {
    "name": "圖書館西湖分館1F期刊合訂本區",
    "lat": 25.0787082,
    "lng": 121.5772937,
    "address": "114臺北市內湖區內湖路一段594號1F"
  },
  {
    "name": "圖書館西湖分館2F宗教類與語文類中央",
    "lat": 25.0786852,
    "lng": 121.5772424,
    "address": "114臺北市內湖區內湖路一段594號2F"
  },
  {
    "name": "圖書館西湖分館3F視聽資料閱覽區",
    "lat": 25.0786852,
    "lng": 121.5772424,
    "address": "114臺北市內湖區內湖路一段594號3F"
  },
  {
    "name": "圖書館西湖分館4F音樂廳舞臺左側",
    "lat": 25.07868,
    "lng": 121.5771465,
    "address": "114臺北市內湖區內湖路一段594號4F"
  },
  {
    "name": "圖書館西湖分館B1F自修室",
    "lat": 25.0787172,
    "lng": 121.5772693,
    "address": "114臺北市內湖區內湖路一段594號B1F"
  },
  {
    "name": "內湖碧山區民活動中心B1F中央",
    "lat": 25.0865794,
    "lng": 121.5920624,
    "address": "114臺北市內湖區內湖路三段60巷6-8號B1F"
  },
  {
    "name": "內湖陽光區民活動中心1F中央",
    "lat": 25.0754641,
    "lng": 121.5812889,
    "address": "114臺北市內湖區文德路66巷38弄14號1F"
  },
  {
    "name": "新工處養護隊第二分隊1F右側辦公室內",
    "lat": 25.0653212,
    "lng": 121.5739989,
    "address": "114臺北市內湖區民權東路六段臨8-1號1F"
  },
  {
    "name": "內湖湖興區民活動中心3F中央",
    "lat": 25.0677015,
    "lng": 121.5899906,
    "address": "114臺北市內湖區成功路二段320巷19號3F"
  },
  {
    "name": "內湖金龍區民活動中心2F中央",
    "lat": 25.0857306,
    "lng": 121.5900906,
    "address": "114臺北市內湖區金龍路136-1號2F"
  },
  {
    "name": "內湖清白區民活動中心1F中央",
    "lat": 25.0812942,
    "lng": 121.5961307,
    "address": "114臺北市內湖區星雲街161巷3號1F"
  },
  {
    "name": "內湖紫星區民活動中心1F教室門口",
    "lat": 25.0804663,
    "lng": 121.5913439,
    "address": "114臺北市內湖區康寧路一段20號1F"
  },
  {
    "name": "內湖港華區民活動中心2F入口左側",
    "lat": 25.086715,
    "lng": 121.575105,
    "address": "114臺北市內湖區環山路二段68巷14號2F"
  },
  {
    "name": "內湖社會福利服務中心4F會議室門口",
    "lat": 25.0811573,
    "lng": 121.5961812,
    "address": "114臺北市內湖區星雲街161巷3號4F"
  },
  {
    "name": "內湖社會福利服務中心4F辦公室中央",
    "lat": 25.0811791,
    "lng": 121.5960068,
    "address": "114臺北市內湖區星雲街161巷3號4F"
  },
  {
    "name": "內湖運動中心B1F韻律教室門口",
    "lat": 25.0786536,
    "lng": 121.5746038,
    "address": "114臺北市內湖區洲子街12號B1F"
  },
  {
    "name": "內湖運動中心1F大廳中央",
    "lat": 25.0785522,
    "lng": 121.5748141,
    "address": "114臺北市內湖區洲子街12號1F"
  },
  {
    "name": "內湖運動中心5F體適能中心中央",
    "lat": 25.0786536,
    "lng": 121.5746038,
    "address": "114臺北市內湖區洲子街12號5F"
  },
  {
    "name": "網球中心2F北側走道交叉口",
    "lat": 25.0665257,
    "lng": 121.5971585,
    "address": "114臺北市內湖區民權東路六段208號2F"
  },
  {
    "name": "網球中心2F服務台",
    "lat": 25.0676636,
    "lng": 121.5971275,
    "address": "114臺北市內湖區民權東路六段208號2F"
  },
  {
    "name": "防災科學教育館1F服務台左側",
    "lat": 25.0694251,
    "lng": 121.5903965,
    "address": "114臺北市內湖區成功路二段376號1F"
  },
  {
    "name": "防災科學教育館4F女廁門外",
    "lat": 25.06943158,
    "lng": 121.5903213,
    "address": "114臺北市內湖區成功路二段376號4F"
  },
  {
    "name": "防災科學教育館10F女廁門外",
    "lat": 25.0694333,
    "lng": 121.5902461,
    "address": "114臺北市內湖區成功路二段376號10F"
  },
  {
    "name": "內湖大湖區民活動中心4F中央",
    "lat": 25.0860734,
    "lng": 121.6017872,
    "address": "114臺北市內湖區大湖山莊街117號4F"
  },
  {
    "name": "內湖湖濱區民活動中心1F門口",
    "lat": 25.0817546,
    "lng": 121.5899732,
    "address": "114臺北市內湖區內湖路二段346號1F"
  },
  {
    "name": "內湖內湖區民活動中心1F教室前",
    "lat": 25.0844717,
    "lng": 121.5924677,
    "address": "114臺北市內湖區內湖路二段355巷21號1F"
  },
  {
    "name": "瑞光社會住宅1F大廳",
    "lat": 25.0733724,
    "lng": 121.5786606,
    "address": "114臺北市內湖區陽光街321巷1號1F"
  },
  {
    "name": "瑞光社會住宅1F東側梯廳",
    "lat": 25.0737301,
    "lng": 121.5792148,
    "address": "114臺北市內湖區陽光街321巷1號1F"
  },
  {
    "name": "瑞光社會住宅3F會議室",
    "lat": 25.0735855,
    "lng": 121.5793607,
    "address": "114臺北市內湖區陽光街321巷1號3F"
  },
  {
    "name": "圖書館西湖分館B1F自修室中央",
    "lat": 25.0789084,
    "lng": 121.577292,
    "address": "114臺北市內湖區內湖路一段594號B1F"
  },
  {
    "name": "圖書館西湖分館2F空調室右前方",
    "lat": 25.0786994,
    "lng": 121.5771636,
    "address": "114臺北市內湖區內湖路一段594號2F"
  },
  {
    "name": "內湖運動中心5F健身中心櫃檯",
    "lat": 25.0786536,
    "lng": 121.5746038,
    "address": "114臺北市內湖區洲子街12號5F"
  },
  {
    "name": "內湖運動中心7F游泳池櫃檯",
    "lat": 25.0779436,
    "lng": 121.5744838,
    "address": "114臺北市內湖區洲子街12號7F"
  },
  {
    "name": "公園路燈工程管理處路燈工程隊東區分隊-園藝工程隊辦公室",
    "lat": 25.06724937,
    "lng": 121.5727778,
    "address": "114臺北市內湖區堤頂大道一段389號2F"
  },
  {
    "name": "公園路燈工程管理處路燈工程隊東區分隊-園藝工程隊會議室",
    "lat": 25.06729473,
    "lng": 121.5727263,
    "address": "114臺北市內湖區堤頂大道一段389號2F"
  },
  {
    "name": "公園路燈工程管理處路燈工程隊東區分隊-路燈工程隊辦公室",
    "lat": 25.06735078,
    "lng": 121.5729178,
    "address": "114臺北市內湖區堤頂大道一段389號1F"
  },
  {
    "name": "公園路燈工程管理處花卉試驗中心內湖分隊-辦公區1",
    "lat": 25.0827246,
    "lng": 121.5828388,
    "address": "114臺北市內湖區內湖路二段175號2F"
  },
  {
    "name": "公園路燈工程管理處花卉試驗中心內湖分隊-辦公區2",
    "lat": 25.0827228,
    "lng": 121.5828489,
    "address": "114臺北市內湖區內湖路二段175號2F"
  },
  {
    "name": "公園路燈工程管理處花卉試驗中心內湖分隊-辦公區3",
    "lat": 25.0828663,
    "lng": 121.5828465,
    "address": "114臺北市內湖區內湖路二段175號2F"
  },
  {
    "name": "公園路燈工程管理處花卉試驗中心內湖分隊-主任室",
    "lat": 25.0827295,
    "lng": 121.5828734,
    "address": "114臺北市內湖區內湖路二段175號2F"
  }
]