[
  {
    "name": "大溪郵局",
    "lat": 24.879326,
    "lng": 121.288397,
    "address": "335桃園市大溪區康莊路210號"
  },
  {
    "name": "自來水公司大溪營運所",
    "lat": 24.876643,
    "lng": 121.289972,
    "address": "335桃園市大溪區文化路211巷5號"
  },
  {
    "name": "財團法人雙福社會福利慈善事業基金會",
    "lat": 24.877785,
    "lng": 121.290627,
    "address": "335桃園市大溪區一心里文化路161號一樓"
  },
  {
    "name": "桃園市大溪區戶政事務所",
    "lat": 24.879731,
    "lng": 121.288652,
    "address": "335桃園市大溪區康莊路181號4樓"
  },
  {
    "name": "桃園市大溪區公所民眾休息區",
    "lat": 24.880597,
    "lng": 121.287131,
    "address": "335桃園市大溪區普濟路11號"
  },
  {
    "name": "桃園市政府警察局大溪分局",
    "lat": 24.88029,
    "lng": 121.287263,
    "address": "335桃園市大溪區普濟路9號"
  }
]