[
  {
    "name": "宜蘭縣北投社文化發展協會",
    "lat": 24.674075,
    "lng": 121.751721,
    "address": "265宜蘭縣羅東鎮北成里北投街62巷65號"
  },
  {
    "name": "宜蘭縣羅東鎮北成社區發展協會",
    "lat": 24.679003,
    "lng": 121.754564,
    "address": "265宜蘭縣羅東鎮北成里北成路二段21號"
  },
  {
    "name": "宜蘭縣冬山鄉柯林社區發展協會",
    "lat": 24.67656,
    "lng": 121.729876,
    "address": "269宜蘭縣冬山鄉柯林村光華路209號"
  },
  {
    "name": "宜蘭縣冬山鄉廣興社區發展協會",
    "lat": 24.669183,
    "lng": 121.749287,
    "address": "269宜蘭縣冬山鄉廣興村永興路二段916號"
  },
  {
    "name": "宜蘭縣三星鄉大洲社區關懷據點",
    "lat": 24.69247,
    "lng": 121.73063,
    "address": "266宜蘭縣三星鄉大洲村五分路二段180號"
  },
  {
    "name": "羅東運動公園老街碼頭",
    "lat": 24.681822,
    "lng": 121.752959,
    "address": "265宜蘭縣羅東鎮公正路666號"
  },
  {
    "name": "宜蘭縣政府警察局廣興派出所",
    "lat": 24.669749,
    "lng": 121.749278,
    "address": "269宜蘭縣冬山鄉廣興路193號"
  },
  {
    "name": "宜蘭縣政府警察局大洲派出所",
    "lat": 24.692987,
    "lng": 121.728908,
    "address": "266宜蘭縣三星鄉上將路二段468號"
  },
  {
    "name": "宜蘭縣冬山鄉柯林國小教學大樓一樓走廊牆面",
    "lat": 24.676424,
    "lng": 121.731348,
    "address": "269宜蘭縣冬山鄉光華路158號"
  },
  {
    "name": "宜蘭縣羅東運動公園老街碼頭前",
    "lat": 24.681822,
    "lng": 121.752959,
    "address": "265宜蘭縣羅東鎮公正路666號"
  },
  {
    "name": "宜蘭縣羅東運動公園老街碼頭後",
    "lat": 24.681822,
    "lng": 121.752959,
    "address": "265宜蘭縣羅東鎮公正路666號"
  },
  {
    "name": "宜蘭縣立體育場羅東體育場辦公室",
    "lat": 24.681532,
    "lng": 121.752813,
    "address": "265宜蘭縣羅東鎮公正路666號"
  },
  {
    "name": "廣興消防分隊",
    "lat": 24.67111,
    "lng": 121.743882,
    "address": "269宜蘭縣冬山鄉復興路382號"
  }
]