[
  {
    "name": "八德高城郵局",
    "lat": 24.975368,
    "lng": 121.271452,
    "address": "334桃園市八德區永豐路581號"
  },
  {
    "name": "桃園中路郵局",
    "lat": 24.989793,
    "lng": 121.293084,
    "address": "330桃園市桃園區壽昌街20巷27-1、27-2號"
  },
  {
    "name": "桃園茄苳郵局",
    "lat": 24.9872955,
    "lng": 121.2818817,
    "address": "330桃園市桃園區龍安街12號"
  },
  {
    "name": "桃園療養院-1樓大廳",
    "lat": 24.9789509,
    "lng": 121.269171,
    "address": "330桃園市桃園區龍壽街71號"
  },
  {
    "name": "桃園療養院-1樓成人門診候診區",
    "lat": 24.9789509,
    "lng": 121.269171,
    "address": "330桃園市桃園區龍壽街71號"
  },
  {
    "name": "桃園療養院-1樓兒童門診候診區",
    "lat": 24.9789509,
    "lng": 121.269171,
    "address": "330桃園市桃園區龍壽街71號"
  },
  {
    "name": "桃園醫院-門、急診候診區",
    "lat": 24.9779469,
    "lng": 121.269341,
    "address": "330桃園市桃園區中山路1492號"
  },
  {
    "name": "桃園醫院-開刀房家屬休息區",
    "lat": 24.9779469,
    "lng": 121.269341,
    "address": "330桃園市桃園區中山路1492號"
  },
  {
    "name": "中油公司桃園縣桃園市武陵站",
    "lat": 24.988224,
    "lng": 121.2851684,
    "address": "330桃園市桃園區中山路1020號"
  },
  {
    "name": "臺灣土地銀行南桃園分行",
    "lat": 24.989367,
    "lng": 121.288088,
    "address": "330桃園市桃園區中山路835號"
  },
  {
    "name": "桃園市桃園區龍岡里辦公處",
    "lat": 24.990912,
    "lng": 121.283043,
    "address": "330桃園市桃園區龍岡里江南九街53號"
  },
  {
    "name": "桃園市八德區愛心關懷發展協會",
    "lat": 24.97588,
    "lng": 121.271986,
    "address": "334桃園市八德區高明里永豐路572巷19號"
  },
  {
    "name": "桃園市龍祥關愛協會",
    "lat": 24.985512,
    "lng": 121.274071,
    "address": "330桃園市桃園區龍祥里中山路1308巷281號一樓"
  },
  {
    "name": "桃園市桃園區龍壽里辦公處",
    "lat": 24.983744,
    "lng": 121.27156,
    "address": "330桃園市桃園區龍壽里龍泉六街68號一樓"
  },
  {
    "name": "桃園市桃園區中原里辦公處",
    "lat": 24.986669,
    "lng": 121.294398,
    "address": "330桃園市桃園區泰昌六街45號1樓及18鄰宏昌七街74號"
  },
  {
    "name": "桃園市桃園區五中社區發展協會",
    "lat": 24.986684,
    "lng": 121.292754,
    "address": "330桃園市桃園區中山里中平路118號"
  },
  {
    "name": "桃園市新生活文化推廣協會",
    "lat": 24.986832,
    "lng": 121.28889,
    "address": "330桃園市桃園區中聖里宏昌六街316號"
  },
  {
    "name": "桃園市向陽社會服務協會",
    "lat": 24.99358,
    "lng": 121.294964,
    "address": "330桃園市桃園區中正里廈門街62號"
  },
  {
    "name": "桃園市八德區茄明社區發展協會",
    "lat": 24.986235,
    "lng": 121.281855,
    "address": "334桃園市八德區茄明里中華路27號"
  },
  {
    "name": "桃園市八德區高城社區發展協會",
    "lat": 24.978647,
    "lng": 121.276192,
    "address": "334桃園市八德區高城里高城路47號"
  },
  {
    "name": "桃園地政事務所",
    "lat": 24.99077,
    "lng": 121.27879,
    "address": "330桃園市桃園區國豐三街123號"
  },
  {
    "name": "桃園市政府消防局保養場",
    "lat": 24.990103,
    "lng": 121.277905,
    "address": "330桃園市桃園區國豐六街96號"
  },
  {
    "name": "桃園市政府消防局中路分隊",
    "lat": 24.990103,
    "lng": 121.277905,
    "address": "330桃園市桃園區國豐六街96號"
  },
  {
    "name": "桃園市政府消防局茄苳分隊",
    "lat": 24.976955,
    "lng": 121.279449,
    "address": "334桃園市八德區茄苳路950號"
  },
  {
    "name": "桃園市桃園區衛生所",
    "lat": 24.991095,
    "lng": 121.27887,
    "address": "330桃園市桃園區國豐三街123號4樓"
  },
  {
    "name": "桃園捷運紅線先導公車智慧站牌-武陵高中",
    "lat": 24.988587,
    "lng": 121.285199,
    "address": "330桃園市桃園區中山路1004號"
  },
  {
    "name": "桃園市桃園區戶政事務所",
    "lat": 24.99038,
    "lng": 121.278649,
    "address": "330桃園市桃園區國豐三街123號"
  }
]