[
  {
    "name": "瑞芳郵局",
    "lat": 25.1069679,
    "lng": 121.80828,
    "address": "224新北市瑞芳區中正路13號"
  },
  {
    "name": "臺鐵局瑞芳站候車室",
    "lat": 25.108681,
    "lng": 121.806033,
    "address": "224新北市瑞芳區龍潭里明燈路三段82號"
  },
  {
    "name": "財政部北區國稅局汐止稽徵所瑞芳服務處",
    "lat": 25.1078809,
    "lng": 121.807612,
    "address": "224新北市瑞芳區明燈路三段42號4樓"
  },
  {
    "name": "自來水公司瑞芳營運所",
    "lat": 25.106297,
    "lng": 121.814937,
    "address": "224新北市瑞芳區三爪子坑路13巷5號"
  },
  {
    "name": "臺鐵局瑞芳站第一月台",
    "lat": 25.108917,
    "lng": 121.806021,
    "address": "224新北市瑞芳區龍潭里明燈路三段82號"
  },
  {
    "name": "臺鐵局瑞芳站第二月台",
    "lat": 25.108917,
    "lng": 121.806021,
    "address": "224新北市瑞芳區龍潭里明燈路三段82號"
  },
  {
    "name": "第一商業銀行(瑞芳分行)",
    "lat": 25.1081542,
    "lng": 121.8063144,
    "address": "224新北市瑞芳區明燈路三段76號"
  },
  {
    "name": "台電公司基隆區處瑞芳服務所",
    "lat": 25.1064329,
    "lng": 121.8012569,
    "address": "224新北市瑞芳區東和里中山路50號"
  },
  {
    "name": "臺鐵局瑞芳站第3月台7車位置",
    "lat": 25.1087066,
    "lng": 121.8060954,
    "address": "224新北市瑞芳區龍潭里明燈路三段82號"
  },
  {
    "name": "臺鐵局瑞芳站行李房",
    "lat": 25.1087066,
    "lng": 121.8060954,
    "address": "224新北市瑞芳區龍潭里明燈路三段82號"
  },
  {
    "name": "新北市瑞芳區傑魚社區發展協會",
    "lat": 25.106478,
    "lng": 121.788035,
    "address": "224新北市瑞芳區傑魚里魚坑路245巷2-1號"
  },
  {
    "name": "新北市瑞芳區爪峰社區發展協會",
    "lat": 25.105788,
    "lng": 121.813536,
    "address": "224新北市瑞芳區爪峰里三爪子坑路279之1號"
  },
  {
    "name": "中華民國治療師暨輔助科技推動協會",
    "lat": 25.109689,
    "lng": 121.806119,
    "address": "224新北市瑞芳區龍安里瑞芳街38號"
  },
  {
    "name": "財團法人私立廣恩老人養護中心(瑞芳明燈站)",
    "lat": 25.108698,
    "lng": 121.805533,
    "address": "224新北市瑞芳區龍興里明燈路三段2號三樓"
  },
  {
    "name": "社團法人愛福家協會",
    "lat": 25.106369,
    "lng": 121.810562,
    "address": "224新北市瑞芳區爪峰里三爪子坑路18號"
  },
  {
    "name": "東和里辦公處",
    "lat": 25.106376,
    "lng": 121.804286,
    "address": "224新北市瑞芳區東和里中山路20號"
  },
  {
    "name": "新北市瑞芳區老人會",
    "lat": 25.107796,
    "lng": 121.808939,
    "address": "224新北市瑞芳區龍興里明燈路三段2號三樓"
  }
]