[
  {
    "name": "台北三張犁郵局",
    "lat": 25.0334299,
    "lng": 121.556385,
    "address": "106臺北市大安區信義路四段337號"
  },
  {
    "name": "台北六張犁郵局",
    "lat": 25.0228652,
    "lng": 121.553841,
    "address": "106臺北市大安區和平東路三段208號"
  },
  {
    "name": "台北世貿郵局",
    "lat": 25.033317,
    "lng": 121.562303,
    "address": "110臺北市信義區信義路五段5號"
  },
  {
    "name": "台北安和郵局",
    "lat": 25.0307681,
    "lng": 121.5525815,
    "address": "106臺北市大安區安和路二段61、63號"
  },
  {
    "name": "台北成功郵局",
    "lat": 25.026504,
    "lng": 121.545929,
    "address": "106臺北市大安區四維路198巷38弄12號"
  },
  {
    "name": "台北吳興郵局",
    "lat": 25.0270985,
    "lng": 121.5663467,
    "address": "110臺北市信義區莊敬路418號-1"
  },
  {
    "name": "台北信義郵局",
    "lat": 25.033806,
    "lng": 121.567224,
    "address": "110臺北市信義區松廉路76號"
  },
  {
    "name": "台北信維郵局",
    "lat": 25.03343,
    "lng": 121.54771,
    "address": "106臺北市大安區信義路四段101號"
  },
  {
    "name": "台灣科大郵局",
    "lat": 25.013289,
    "lng": 121.541119,
    "address": "106臺北市大安區基隆路四段43號"
  },
  {
    "name": "國道新建工程局局本部1樓",
    "lat": 25.0251452,
    "lng": 121.547065,
    "address": "106臺北市大安區四維路236巷6號1樓"
  },
  {
    "name": "科技部科技大樓2樓會議中心東側",
    "lat": 25.0249151,
    "lng": 121.5419694,
    "address": "106臺北市大安區和平東路二段106號2樓"
  },
  {
    "name": "智慧局3樓民眾服務台",
    "lat": 25.021517,
    "lng": 121.54164,
    "address": "106臺北市大安區辛亥路二段185號3樓"
  },
  {
    "name": "科技部科技大樓1樓會客室",
    "lat": 25.0249151,
    "lng": 121.5419694,
    "address": "106臺北市大安區和平東路二段106號1樓"
  },
  {
    "name": "科技部科技大樓2樓會議中心西側",
    "lat": 25.0249151,
    "lng": 121.5419694,
    "address": "106臺北市大安區和平東路二段106號2樓"
  },
  {
    "name": "國立臺灣科技大學國際大樓1樓大廳",
    "lat": 25.013279,
    "lng": 121.541088,
    "address": "106臺北市大安區基隆路四段43號"
  },
  {
    "name": "兆豐國際商銀安和分行",
    "lat": 25.030489,
    "lng": 121.5521653,
    "address": "106臺北市大安區安和路二段62號"
  },
  {
    "name": "兆豐國際商銀敦南分行",
    "lat": 25.0301143,
    "lng": 121.5483886,
    "address": "106臺北市大安區敦化南路二段62號"
  },
  {
    "name": "兆豐國際商銀信義分行",
    "lat": 25.0307829,
    "lng": 121.5584418,
    "address": "110臺北市信義區基隆路二段65號"
  },
  {
    "name": "兆豐國際商銀大安分行",
    "lat": 25.0332095,
    "lng": 121.5424825,
    "address": "106臺北市大安區信義路三段182號"
  },
  {
    "name": "第一商業銀行大安分行",
    "lat": 25.032903,
    "lng": 121.556142,
    "address": "106臺北市大安區信義路四段382號"
  },
  {
    "name": "臺灣土地銀行和平分行",
    "lat": 25.0248782,
    "lng": 121.5475022,
    "address": "106臺北市大安區和平東路三段15號"
  },
  {
    "name": "臺灣土地銀行敦化分行",
    "lat": 25.02912,
    "lng": 121.548226,
    "address": "106臺北市大安區敦化南路二段76號"
  },
  {
    "name": "臺灣土地銀行信義分行",
    "lat": 25.0336486,
    "lng": 121.5595312,
    "address": "110臺北市信義區基隆路一段436號"
  },
  {
    "name": "臺灣土地銀行大安分行",
    "lat": 25.031793,
    "lng": 121.546223,
    "address": "106臺北市大安區大安路二段37號"
  },
  {
    "name": "臺灣銀行大安分行",
    "lat": 25.0306449,
    "lng": 121.549205,
    "address": "106臺北市大安區敦化南路二段69號1樓"
  },
  {
    "name": "兆豐國際商業銀行資訊處信義大樓8樓",
    "lat": 25.0332095,
    "lng": 121.5424825,
    "address": "106臺北市大安區信義路三段182號"
  },
  {
    "name": "科技部科技大樓17樓",
    "lat": 25.0249151,
    "lng": 121.5419694,
    "address": "106臺北市大安區和平東路二段106號17樓"
  },
  {
    "name": "科技部科技大樓18樓",
    "lat": 25.0249151,
    "lng": 121.5419694,
    "address": "106臺北市大安區和平東路二段106號18樓"
  },
  {
    "name": "科技部科技大樓19樓",
    "lat": 25.0249151,
    "lng": 121.5419694,
    "address": "106臺北市大安區和平東路二段106號19樓"
  },
  {
    "name": "科技部科技大樓20樓",
    "lat": 25.0249151,
    "lng": 121.5419694,
    "address": "106臺北市大安區和平東路二段106號20樓"
  },
  {
    "name": "科技部科技大樓21樓",
    "lat": 25.0249151,
    "lng": 121.5419694,
    "address": "106臺北市大安區和平東路二段106號21樓"
  },
  {
    "name": "科技部科技大樓22樓",
    "lat": 25.0249151,
    "lng": 121.5419694,
    "address": "106臺北市大安區和平東路二段106號22樓"
  },
  {
    "name": "科技部科技大樓16樓",
    "lat": 25.0249151,
    "lng": 121.5419694,
    "address": "106臺北市大安區和平東路二段106號16樓"
  },
  {
    "name": "國道新建工程局局本部5樓",
    "lat": 25.0253792,
    "lng": 121.5473427,
    "address": "106臺北市大安區和平東路三段1巷1號5樓"
  },
  {
    "name": "國道新建工程局局本部7樓",
    "lat": 25.0253792,
    "lng": 121.5473427,
    "address": "106臺北市大安區和平東路三段1巷1號7樓"
  },
  {
    "name": "華南商業銀行敦化分行",
    "lat": 25.032948,
    "lng": 121.548381,
    "address": "106臺北市大安區敦化南路二段2號"
  },
  {
    "name": "華南商業銀行敦和分行",
    "lat": 25.028312,
    "lng": 121.549081,
    "address": "106臺北市大安區敦化南路二段107號"
  },
  {
    "name": "華南商業銀行信維分行",
    "lat": 25.033211,
    "lng": 121.544163,
    "address": "106臺北市大安區信義路四段6號2樓"
  },
  {
    "name": "華南商業銀行世貿分行",
    "lat": 25.032943,
    "lng": 121.558525,
    "address": "110臺北市信義區信義路四段458號"
  },
  {
    "name": "第一商業銀行敦化分行",
    "lat": 25.0252273,
    "lng": 121.5491414,
    "address": "106臺北市大安區敦化南路二段267號"
  },
  {
    "name": "第一商業銀行和平分行",
    "lat": 25.0253916,
    "lng": 121.5412489,
    "address": "106臺北市大安區和平東路二段151號"
  },
  {
    "name": "交通部航港局",
    "lat": 25.0253792,
    "lng": 121.5473427,
    "address": "106臺北市大安區和平東路三段1巷1號"
  },
  {
    "name": "上海商銀信義分行",
    "lat": 25.0316059,
    "lng": 121.548313,
    "address": "106臺北市大安區敦化南路二段40號"
  },
  {
    "name": "上海商銀松南分行",
    "lat": 25.0333804,
    "lng": 121.5546364,
    "address": "106臺北市大安區信義路四段275號"
  },
  {
    "name": "第一商業銀行(安和分行)",
    "lat": 25.0330126,
    "lng": 121.5513333,
    "address": "106臺北市大安區信義路四段184號"
  },
  {
    "name": "第一商業銀行(世貿分行)",
    "lat": 25.0308014,
    "lng": 121.5491828,
    "address": "106臺北市大安區敦化南路二段65號"
  },
  {
    "name": "臺北市信義區嘉興里辦公處",
    "lat": 25.027587,
    "lng": 121.557578,
    "address": "110臺北市信義區嘉興里嘉興街175巷6號"
  },
  {
    "name": "台北市紅十字會",
    "lat": 25.033304,
    "lng": 121.559235,
    "address": "110臺北市信義區中興里信義路四段415號五樓之3"
  },
  {
    "name": "臺北市大安區群英里社區照顧關懷據點",
    "lat": 25.026442,
    "lng": 121.545899,
    "address": "106臺北市大安區群英里四維路198巷30弄9號一樓"
  },
  {
    "name": "臺北市信義區黎順里辦公處",
    "lat": 25.024415,
    "lng": 121.553494,
    "address": "110臺北市信義區黎順里崇德街15號"
  },
  {
    "name": "臺北市大安區群賢里辦公處",
    "lat": 25.025558,
    "lng": 121.545971,
    "address": "106臺北市大安區群賢里和平東路二段311巷43弄36號"
  },
  {
    "name": "臺北市大安區臨江里辦公處",
    "lat": 25.028425,
    "lng": 121.555956,
    "address": "106臺北市大安區臨江里通化街143巷33號一樓"
  },
  {
    "name": "社團法人臺北市信義區雙和社區發展協會",
    "lat": 25.024315,
    "lng": 121.563103,
    "address": "110臺北市信義區雙和里吳興街284巷24弄12號(雙和社區發展協會)"
  },
  {
    "name": "財團法人台北醫學大學(信義展齡中心)",
    "lat": 25.028891,
    "lng": 121.560879,
    "address": "110臺北市信義區景勤里吳興街156巷16弄7號一樓"
  },
  {
    "name": "臺北市大安區通化里辦公處",
    "lat": 25.031739,
    "lng": 121.555311,
    "address": "106臺北市大安區通化里通化街19巷19號"
  },
  {
    "name": "財團法人台北市基督教全人福利事業基金會(吳興教會)",
    "lat": 25.027095,
    "lng": 121.56477,
    "address": "110臺北市信義區三張里吳興街269巷18弄8號"
  },
  {
    "name": "財團法人台灣基督長老教會大安教會",
    "lat": 25.026602,
    "lng": 121.546909,
    "address": "106臺北市大安區群賢里和平東路三段1巷51號"
  },
  {
    "name": "臺北市信義區泰和社區發展協會",
    "lat": 25.021292,
    "lng": 121.570423,
    "address": "110臺北市信義區泰和里松仁路三０八巷60號一樓;松仁路308巷61"
  },
  {
    "name": "財團法人台北市中華基督教信義會(復興堂)",
    "lat": 25.033283,
    "lng": 121.557734,
    "address": "110臺北市信義區中興里信義路四段375號十樓之2"
  },
  {
    "name": "臺北市大安區全安里辦公處",
    "lat": 25.02609,
    "lng": 121.55137,
    "address": "106臺北市大安區全安里和平東路三段119巷25號一樓"
  },
  {
    "name": "臺北醫學大學高齡健康管理學系(大我新舍)",
    "lat": 25.014715,
    "lng": 121.56224,
    "address": "110臺北市信義區黎安里和平東路三段599號"
  },
  {
    "name": "臺北市大安區臥龍里辦公處",
    "lat": 25.023069,
    "lng": 121.543564,
    "address": "106臺北市大安區臥龍里復興南路二段355號一樓"
  },
  {
    "name": "臺北市大安區法治里辦公處",
    "lat": 25.026171,
    "lng": 121.552922,
    "address": "106臺北市大安區法治里通化街192號"
  },
  {
    "name": "臺北市大安區住安社區發展協會",
    "lat": 25.032155,
    "lng": 121.545635,
    "address": "106臺北市大安區住安里信義路四段30巷27弄24號"
  },
  {
    "name": "臺北市文山區興昌里辦公處",
    "lat": 25.006549,
    "lng": 121.559668,
    "address": "116臺北市文山區興昌里辛亥路四段101巷85之8號一樓"
  },
  {
    "name": "台北市信義區三犁里辦公處",
    "lat": 25.028412,
    "lng": 121.569424,
    "address": "110臺北市信義區三犁里信義路五段150巷14弄6號一樓"
  },
  {
    "name": "台北市永健長青促進協會",
    "lat": 25.028,
    "lng": 121.541,
    "address": "106臺北市大安區龍陣里瑞安街71巷5弄1號一樓"
  },
  {
    "name": "台北市大安區龍陣里辦公處",
    "lat": 25.028,
    "lng": 121.541,
    "address": "106臺北市大安區龍陣里瑞安街75號三樓(瑞安區民活動中心)"
  },
  {
    "name": "臺北市大安區臺北龍雲社區發展協會",
    "lat": 25.029,
    "lng": 121.541,
    "address": "106臺北市大安區龍雲里大安路二段160巷24號"
  },
  {
    "name": "臺北市信義區正和里辦公處",
    "lat": 25.026,
    "lng": 121.557,
    "address": "110臺北市信義區正和里仁愛路四段452巷3號(正和區民活動中心)"
  },
  {
    "name": "青峰活動中心-N-辛亥路三段",
    "lat": 25.0160322,
    "lng": 121.5507474,
    "address": "106臺北市大安區辛亥路三段223號候車亭"
  },
  {
    "name": "和平高中-基隆路三段",
    "lat": 25.0197188,
    "lng": 121.5476431,
    "address": "106臺北市大安區臥龍街100號旁(基隆路三段本線上)候車亭"
  },
  {
    "name": "名門社區-S-和平東路四段",
    "lat": 25.005203,
    "lng": 121.567504,
    "address": "116臺北市文山區和平東路四段81號對面候車亭"
  },
  {
    "name": "辛亥國小-辛亥路四段",
    "lat": 25.0070492,
    "lng": 121.5585363,
    "address": "116臺北市文山區辛亥路四段87號對面候車亭"
  },
  {
    "name": "自來水處(辛亥)-S-辛亥路三段",
    "lat": 25.017543,
    "lng": 121.547889,
    "address": "106臺北市大安區辛亥路三段200號旁候車亭"
  },
  {
    "name": "自來水事業處-S-長興街",
    "lat": 25.015333,
    "lng": 121.5475705,
    "address": "106臺北市大安區長興街131號對面候車亭"
  },
  {
    "name": "大我新舍-N-臥龍街",
    "lat": 25.0143066,
    "lng": 121.5623065,
    "address": "106臺北市大安區和平東路三段590號對面候車亭"
  },
  {
    "name": "臺北教育大學-S-復興南路二段",
    "lat": 25.0244328,
    "lng": 121.5433409,
    "address": "106臺北市大安區復興南路二段280號旁候車亭"
  },
  {
    "name": "臥龍街-E-和平東路三段",
    "lat": 25.0245102,
    "lng": 121.54771,
    "address": "106臺北市大安區和平東路三段40號前候車亭"
  },
  {
    "name": "麟光站-N-臥龍街",
    "lat": 25.0158862,
    "lng": 121.5607978,
    "address": "106臺北市大安區臥龍街324號對面候車亭"
  },
  {
    "name": "文昌街口-S-安和路二段",
    "lat": 25.031183,
    "lng": 121.552268,
    "address": "106臺北市大安區安和路二段48號旁候車亭"
  },
  {
    "name": "捷運科技大樓站-S-復興南路二段",
    "lat": 25.0269074,
    "lng": 121.5432837,
    "address": "106臺北市大安區復興南路二段198號候車亭"
  },
  {
    "name": "第二殯儀館-辛亥路三段",
    "lat": 25.0136386,
    "lng": 121.5532536,
    "address": "106臺北市大安區辛亥路三段330號旁候車亭"
  },
  {
    "name": "臺大計資中心-辛亥路二段",
    "lat": 25.0210322,
    "lng": 121.5409238,
    "address": "106臺北市大安區辛亥路二段169號對面候車亭"
  },
  {
    "name": "自來水處(辛亥)-N-辛亥路三段",
    "lat": 25.018054,
    "lng": 121.548271,
    "address": "106臺北市大安區辛亥路三段200號對面候車亭"
  },
  {
    "name": "芳蘭路-N-芳蘭路",
    "lat": 25.012737,
    "lng": 121.545433,
    "address": "106臺北市大安區芳蘭路66號對面候車亭"
  },
  {
    "name": "全安里-N-安和路二段",
    "lat": 25.0255808,
    "lng": 121.5502358,
    "address": "106臺北市大安區安和路二段225號旁候車亭"
  },
  {
    "name": "名門社區-E-和平東路四段",
    "lat": 25.004629,
    "lng": 121.56797,
    "address": "116臺北市文山區萬寧街223號東南側候車亭(140高地公園旁)"
  },
  {
    "name": "名門社區-W-和平東路四段",
    "lat": 25.0047882,
    "lng": 121.5678872,
    "address": "116臺北市文山區和平東路四段97號前候車亭(萬寧街本線北側上)"
  },
  {
    "name": "松平路口-S-松仁路",
    "lat": 25.030965,
    "lng": 121.568199,
    "address": "110臺北市信義區松仁路151巷對面候車亭"
  },
  {
    "name": "芳和國中-S-辛亥路三段",
    "lat": 25.018146,
    "lng": 121.550254,
    "address": "106臺北市大安區辛亥路三段157巷22號對面候車亭"
  },
  {
    "name": "芳蘭路-S-基隆路三段",
    "lat": 25.0130175,
    "lng": 121.5453744,
    "address": "106臺北市大安區芳蘭路66號候車亭"
  },
  {
    "name": "青峰活動中心-S-辛亥路三段",
    "lat": 25.015132,
    "lng": 121.551345,
    "address": "106臺北市大安區辛亥路三段與辛亥路三段284巷口西北側候車亭"
  },
  {
    "name": "信義國中(松仁)-N-松仁路",
    "lat": 25.0288815,
    "lng": 121.568313,
    "address": "110臺北市信義區松仁路155號前候車亭"
  },
  {
    "name": "萬美社區-E-萬美街二段",
    "lat": 25.0034534,
    "lng": 121.5630518,
    "address": "116臺北市文山區萬美街二段11號候車亭"
  },
  {
    "name": "萬寧山莊-E1-萬寧街",
    "lat": 25.0041842,
    "lng": 121.5704011,
    "address": "116臺北市文山區萬寧街161號前方候車亭"
  },
  {
    "name": "捷運象山站-E-信義路五段",
    "lat": 25.0329886,
    "lng": 121.5700619,
    "address": "110臺北市信義區信義路五段59號候車亭"
  },
  {
    "name": "捷運象山站-W-信義路五段",
    "lat": 25.03264,
    "lng": 121.568984,
    "address": "110臺北市信義區信義路五段124號前候車亭"
  },
  {
    "name": "敦南大地-福興路",
    "lat": 25.004794,
    "lng": 121.5486789,
    "address": "116臺北市文山區福興路95巷21號旁候車亭"
  },
  {
    "name": "世界山莊-W-萬美街二段",
    "lat": 25.00553,
    "lng": 121.56421,
    "address": "116臺北市文山區萬美街二段51號對面候車亭"
  },
  {
    "name": "信義行政中心(信義)-E-信義路五段",
    "lat": 25.032716,
    "lng": 121.5674898,
    "address": "110臺北市信義區信義路五段108號旁候車亭"
  },
  {
    "name": "泰和公園-S-吳興街",
    "lat": 25.0190265,
    "lng": 121.5708031,
    "address": "110臺北市信義區吳興街600巷67弄78號對面候車亭"
  },
  {
    "name": "吳興國小-S-松仁路",
    "lat": 25.0262119,
    "lng": 121.5686141,
    "address": "110臺北市信義區松仁路227號對面候車亭"
  },
  {
    "name": "世貿新城-松智路",
    "lat": 25.0308787,
    "lng": 121.5654065,
    "address": "110臺北市信義區松智路31號旁候車亭"
  },
  {
    "name": "松仁路-N-松仁路",
    "lat": 25.0245321,
    "lng": 121.5696651,
    "address": "110臺北市信義區松仁路277號旁候車亭"
  },
  {
    "name": "黎雙公園-E-吳興街",
    "lat": 25.0243003,
    "lng": 121.5605738,
    "address": "110臺北市信義區吳興街284巷22弄92之1號西北側候車亭(台北醫學大學拇山學苑旁)"
  },
  {
    "name": "松平路口-N-松仁路",
    "lat": 25.030965,
    "lng": 121.568199,
    "address": "110臺北市信義區松仁路151巷1號(松仁路本線)候車亭"
  },
  {
    "name": "立人國際國中小學-S-安和路二段",
    "lat": 25.028785,
    "lng": 121.5504112,
    "address": "106臺北市大安區安和路二段92號旁候車亭"
  },
  {
    "name": "文昌街AP5-文昌街167號",
    "lat": 25.0324864,
    "lng": 121.5536597,
    "address": "106臺北市大安區文昌街167號"
  },
  {
    "name": "信義公民會館-廣場",
    "lat": 25.0314332,
    "lng": 121.5621343,
    "address": "110臺北市信義區松勤街50號(眷村文物館入口左側外牆)"
  },
  {
    "name": "信義公民會館-眷村文物館",
    "lat": 25.0317597,
    "lng": 121.561926,
    "address": "110臺北市信義區松勤街50號(廣場旁紅色門上方)"
  },
  {
    "name": "信義公民會館-D館-景新里社區活動中心",
    "lat": 25.0311157,
    "lng": 121.5616976,
    "address": "110臺北市信義區松勤街50號(D館外牆)"
  },
  {
    "name": "信義公民會館-D館-景新公園",
    "lat": 25.0307344,
    "lng": 121.5619478,
    "address": "110臺北市信義區松勤街50號(教室外牆靠近景新公園)"
  },
  {
    "name": "地震研究中心-N-長興街",
    "lat": 25.0159987,
    "lng": 121.5480283,
    "address": "106臺北市大安區長興街131號旁候車亭(芳蘭路本線上)"
  },
  {
    "name": "臺北醫學大學附設醫院-S-吳興街",
    "lat": 25.0269301,
    "lng": 121.5637686,
    "address": "110臺北市信義區吳興街265號對面候車亭"
  },
  {
    "name": "臺大公館醫院(一)-E-基隆路三段",
    "lat": 25.0143276,
    "lng": 121.54367,
    "address": "106臺北市大安區基隆路三段155巷57號對面候車亭"
  },
  {
    "name": "萬美社區-E-萬美街二段",
    "lat": 25.005423,
    "lng": 121.5641056,
    "address": "116臺北市文山區萬美街二段2巷與萬美街口候車亭"
  },
  {
    "name": "三興國小(臨江街觀光夜市)-N-基隆路二段",
    "lat": 25.028569,
    "lng": 121.5570871,
    "address": "110臺北市信義區基隆路二段115號旁候車亭"
  },
  {
    "name": "信安街候車亭",
    "lat": 25.0235326,
    "lng": 121.5555755,
    "address": "110臺北市信義區信安街137號候車亭"
  },
  {
    "name": "信義大安路口-E-信義路四段",
    "lat": 25.0333372,
    "lng": 121.546276,
    "address": "106臺北市大安區信義路四段89號前分隔島候車亭"
  },
  {
    "name": "信義大安路口-W-信義路四段",
    "lat": 25.0333008,
    "lng": 121.5456378,
    "address": "106臺北市大安區信義路四段60之18號前分隔島候車亭"
  },
  {
    "name": "信義光復路口-E-信義路四段",
    "lat": 25.0330575,
    "lng": 121.5571297,
    "address": "106臺北市大安區信義路四段418號前分隔島候車亭"
  },
  {
    "name": "信義光復路口-W-信義路四段",
    "lat": 25.0331179,
    "lng": 121.5578145,
    "address": "110臺北市信義區信義路四段375號前分隔島候車亭"
  },
  {
    "name": "信義通化街口-E-信義路四段",
    "lat": 25.0331134,
    "lng": 121.5539253,
    "address": "106臺北市大安區信義路四段258號前分隔島候車亭"
  },
  {
    "name": "信義通化街口-W-信義路四段",
    "lat": 25.0331951,
    "lng": 121.5546196,
    "address": "106臺北市大安區信義路四段279號前分隔島候車亭"
  },
  {
    "name": "信義敦化路口-E-信義路四段",
    "lat": 25.0332613,
    "lng": 121.5483329,
    "address": "106臺北市大安區信義路四段115號前分隔島候車亭"
  },
  {
    "name": "信義敦化路口-W-信義路四段",
    "lat": 25.0332902,
    "lng": 121.5496081,
    "address": "106臺北市大安區信義路四段137號前分隔島候車亭"
  },
  {
    "name": "信義敦化路口-S-敦化南路一段",
    "lat": 25.0336422,
    "lng": 121.548713,
    "address": "106臺北市大安區敦化南路一段376號前分隔島候車亭"
  },
  {
    "name": "師大附中-W-信義路三段",
    "lat": 25.0333886,
    "lng": 121.5422831,
    "address": "106臺北市大安區信義路三段149號前分隔島候車亭"
  },
  {
    "name": "捷運大安站(信義)-E-信義路三段",
    "lat": 25.033292,
    "lng": 121.543266,
    "address": "106臺北市大安區信義路三段200號前分隔島候車亭"
  },
  {
    "name": "捷運大安站(信義)-W-信義路四段",
    "lat": 25.0333646,
    "lng": 121.5440755,
    "address": "106臺北市大安區信義路四段1之10號前分隔島候車亭"
  },
  {
    "name": "捷運信義安和站-E-信義路四段",
    "lat": 25.0331666,
    "lng": 121.5512268,
    "address": "106臺北市大安區信義路四段184號前分隔島候車亭"
  },
  {
    "name": "捷運信義安和站-W-信義路四段",
    "lat": 25.0332716,
    "lng": 121.5529151,
    "address": "106臺北市大安區信義路四段225號旁前分隔島候車亭"
  },
  {
    "name": "鳳雛公園-S-敦化南路二段",
    "lat": 25.0264194,
    "lng": 121.5484546,
    "address": "106臺北市大安區敦化南路二段126號旁候車亭"
  },
  {
    "name": "大安國中-N-敦化南路二段",
    "lat": 25.0296502,
    "lng": 121.5490359,
    "address": "106臺北市大安區敦化南路二段93號旁公園候車亭"
  },
  {
    "name": "成功國宅-N-敦化南路二段",
    "lat": 25.0274972,
    "lng": 121.5489793,
    "address": "106臺北市大安區敦化南路二段113號旁候車亭"
  },
  {
    "name": "和平高中-S-基隆路三段",
    "lat": 25.0202214,
    "lng": 121.5476724,
    "address": "106臺北市大安區基隆路三段16號旁候車亭"
  },
  {
    "name": "臥龍街-W-和平東路三段",
    "lat": 25.0247424,
    "lng": 121.5474786,
    "address": "106臺北市大安區和平東路三段15號前候車亭"
  },
  {
    "name": "三興國小(臨江街觀光夜市)-S-基隆路二段",
    "lat": 25.0282859,
    "lng": 121.5566464,
    "address": "106臺北市大安區基隆路二段138號前候車亭"
  },
  {
    "name": "成功國宅-S-敦化南路二段",
    "lat": 25.0290083,
    "lng": 121.5484583,
    "address": "106臺北市大安區敦化南路二段76號旁候車亭"
  },
  {
    "name": "捷運六張犁站(基隆路)-S-基隆路二段",
    "lat": 25.0235907,
    "lng": 121.5515294,
    "address": "106臺北市大安區基隆路二段222號前候車亭"
  },
  {
    "name": "復興南路口-E-和平東路二段",
    "lat": 25.0249092,
    "lng": 121.5422044,
    "address": "106臺北市大安區和平東路二段106號候車亭"
  },
  {
    "name": "敦化和平路口-N-敦化南路二段",
    "lat": 25.0237334,
    "lng": 121.5489883,
    "address": "106臺北市大安區敦化南路二段293巷口左側候車亭"
  },
  {
    "name": "國立臺北教育大學-E-和平東路二段",
    "lat": 25.0246698,
    "lng": 121.5453633,
    "address": "106臺北市大安區和平東路二段323號對面候車亭"
  },
  {
    "name": "敦化和平路口-S-敦化南路二段",
    "lat": 25.0235612,
    "lng": 121.5484358,
    "address": "106臺北市大安區敦化南路二段182號前候車亭"
  },
  {
    "name": "喬治商職-S-基隆路二段",
    "lat": 25.0268793,
    "lng": 121.5552728,
    "address": "106臺北市大安區基隆路二段170號候車亭"
  },
  {
    "name": "捷運六張犁站(和平)-E-和平東路三段",
    "lat": 25.0232258,
    "lng": 121.5536151,
    "address": "106臺北市大安區和平東路三段215號對面候車亭"
  },
  {
    "name": "開平餐飲學校-N-復興南路二段",
    "lat": 25.0288327,
    "lng": 121.5435813,
    "address": "106臺北市大安區復興南路二段133號前候車亭"
  },
  {
    "name": "大安高工-N-復興南路二段",
    "lat": 25.0317166,
    "lng": 121.5436786,
    "address": "106臺北市大安區復興南路二段33-1號前候車亭"
  },
  {
    "name": "開平餐飲學校-S-復興南路二段",
    "lat": 25.0295557,
    "lng": 121.5433922,
    "address": "106臺北市大安區復興南路二段108號前候車亭"
  },
  {
    "name": "自來水事業處-N-長興街",
    "lat": 25.0152449,
    "lng": 121.5476965,
    "address": "106臺北市大安區長興街131號候車亭"
  },
  {
    "name": "廣安宮",
    "lat": 25.0232361,
    "lng": 121.5631306,
    "address": "110臺北市信義區吳興街284巷30弄交叉口"
  },
  {
    "name": "綠光101",
    "lat": 25.0225096,
    "lng": 121.5635272,
    "address": "110臺北市信義區吳興街284巷59弄1號對面"
  },
  {
    "name": "松山寺",
    "lat": 25.0245467,
    "lng": 121.5634783,
    "address": "110臺北市信義區吳興街284巷18弄2號"
  },
  {
    "name": "松山地政1F服務臺",
    "lat": 25.0288455,
    "lng": 121.5661533,
    "address": "110臺北市信義區莊敬路391巷11弄2號1F"
  },
  {
    "name": "松山地政1F登記課24號櫃臺後方",
    "lat": 25.0290678,
    "lng": 121.5662272,
    "address": "110臺北市信義區莊敬路391巷11弄2號1F"
  },
  {
    "name": "松山地政1F地籍資料庫門口",
    "lat": 25.0288456,
    "lng": 121.5661533,
    "address": "110臺北市信義區莊敬路391巷11弄2號1F"
  },
  {
    "name": "松山地政2F公文檔案室門口",
    "lat": 25.0289447,
    "lng": 121.5662476,
    "address": "110臺北市信義區莊敬路391巷11弄2號2F"
  },
  {
    "name": "松山地政2F測量課西南方",
    "lat": 25.0288679,
    "lng": 121.566253,
    "address": "110臺北市信義區莊敬路391巷11弄2號2F"
  },
  {
    "name": "松山地政2F測量課1號櫃臺前",
    "lat": 25.0288679,
    "lng": 121.566253,
    "address": "110臺北市信義區莊敬路391巷11弄2號2F"
  },
  {
    "name": "松山地政2F行政課門口",
    "lat": 25.0288679,
    "lng": 121.566253,
    "address": "110臺北市信義區莊敬路391巷11弄2號3F"
  },
  {
    "name": "群英里社區關懷據點1F門口",
    "lat": 25.0265674,
    "lng": 121.5454409,
    "address": "106臺北市大安區四維路198巷30弄9號1F"
  },
  {
    "name": "群英里社區關懷據點1F中央",
    "lat": 25.0267656,
    "lng": 121.5455519,
    "address": "106臺北市大安區四維路198巷30弄9號1F"
  },
  {
    "name": "大安成功區民活動中心1F中央",
    "lat": 25.0265154,
    "lng": 121.5460981,
    "address": "106臺北市大安區四維路198巷30弄9號1F"
  },
  {
    "name": "圖書館道藩分館3F綜合服務臺前",
    "lat": 25.0216105,
    "lng": 121.5440558,
    "address": "106臺北市大安區辛亥路三段11號3F"
  },
  {
    "name": "圖書館道藩分館3F閱覽區後方",
    "lat": 25.0215769,
    "lng": 121.544274,
    "address": "106臺北市大安區辛亥路三段11號3F"
  },
  {
    "name": "臺北市殯葬管理處第二殯儀館2F咖啡吧臺",
    "lat": 25.0118562,
    "lng": 121.5529729,
    "address": "106臺北市大安區辛亥路三段330號2F"
  },
  {
    "name": "臺北市殯葬管理處第二殯儀館1F火葬場內櫃臺旁",
    "lat": 25.0125432,
    "lng": 121.5529101,
    "address": "106臺北市大安區辛亥路三段330號1F"
  },
  {
    "name": "臺北市殯葬管理處第二殯儀館景仰樓1F第二廳電子輓聯",
    "lat": 25.0131591,
    "lng": 121.5530495,
    "address": "106臺北市大安區辛亥路三段330號1F"
  },
  {
    "name": "臺北市殯葬管理處第二殯儀館景仰樓1F聯合服務中心",
    "lat": 25.0138584,
    "lng": 121.5532219,
    "address": "106臺北市大安區辛亥路三段330號1F"
  },
  {
    "name": "臺北市殯葬管理處第二殯儀館景仰樓2F第五廳電子輓聯",
    "lat": 25.013088,
    "lng": 121.5532215,
    "address": "106臺北市大安區辛亥路三段330號2F"
  },
  {
    "name": "臺北市殯葬管理處第二殯儀館景仰樓3F第十廳電子輓聯",
    "lat": 25.0133702,
    "lng": 121.5529563,
    "address": "106臺北市大安區辛亥路三段330號3F"
  },
  {
    "name": "大安運動中心4樓壁球室2前",
    "lat": 25.0206689,
    "lng": 121.5458495,
    "address": "106臺北市大安區辛亥路三段55號1F"
  },
  {
    "name": "大安運動中心1F服務臺前方左側",
    "lat": 25.0206689,
    "lng": 121.5458495,
    "address": "106臺北市大安區辛亥路三段55號1F"
  },
  {
    "name": "大安運動中心2F廁所前",
    "lat": 25.0205717,
    "lng": 121.5457975,
    "address": "106臺北市大安區辛亥路三段55號2F"
  },
  {
    "name": "大安運動中心2F韻律教室1前",
    "lat": 25.0207194,
    "lng": 121.5459631,
    "address": "106臺北市大安區辛亥路三段55號2F"
  },
  {
    "name": "大安運動中心2F韻律教室4前",
    "lat": 25.0204207,
    "lng": 121.5461207,
    "address": "106臺北市大安區辛亥路三段55號2F"
  },
  {
    "name": "大安運動中心3F廁所前",
    "lat": 25.0206507,
    "lng": 121.5457757,
    "address": "106臺北市大安區辛亥路三段55號3F"
  },
  {
    "name": "大安運動中心3F撞球室",
    "lat": 25.0204961,
    "lng": 121.5461646,
    "address": "106臺北市大安區辛亥路三段55號3F"
  },
  {
    "name": "大安運動中心4F廁所前",
    "lat": 25.0207039,
    "lng": 121.5456882,
    "address": "106臺北市大安區辛亥路三段55號4F"
  },
  {
    "name": "圖書館成功民眾閱覽室4F中央",
    "lat": 25.0255462,
    "lng": 121.545361,
    "address": "106臺北市大安區和平東路二段311巷29號"
  },
  {
    "name": "自來水事業處客服中心1F服務臺",
    "lat": 25.0145442,
    "lng": 121.5473861,
    "address": "106臺北市大安區長興街131號1F"
  },
  {
    "name": "大安通安區民活動中心1F中央",
    "lat": 25.0297982,
    "lng": 121.5528326,
    "address": "106臺北市大安區通安街98號1F"
  },
  {
    "name": "大安瑞安區民活動中心3F中央",
    "lat": 25.0280247,
    "lng": 121.5411634,
    "address": "106臺北市大安區71巷2號3F"
  },
  {
    "name": "自來水事業處西區營業分處1F櫃臺",
    "lat": 25.0145263,
    "lng": 121.5474986,
    "address": "100臺北市中正區牯嶺街38號1F"
  },
  {
    "name": "圖書館三興分館4F兒童閱讀區",
    "lat": 25.0290318,
    "lng": 121.5612688,
    "address": "110臺北市信義區吳興街156巷6號4F"
  },
  {
    "name": "圖書館三興分館5F閱覽室中央",
    "lat": 25.0291181,
    "lng": 121.5614344,
    "address": "110臺北市信義區吳興街156巷6號5F"
  },
  {
    "name": "信義景勤區民活動中心6F門口",
    "lat": 25.0291181,
    "lng": 121.5614344,
    "address": "110臺北市信義區吳興街156巷6號6F"
  },
  {
    "name": "信義黎忠里區民活動中心2F門口",
    "lat": 25.0203432,
    "lng": 121.5581638,
    "address": "110臺北市信義區和平東路三段391巷16號2F"
  },
  {
    "name": "信義三張里區民活動中心1F門口",
    "lat": 25.0288679,
    "lng": 121.566253,
    "address": "110臺北市信義區莊敬路391巷11弄2號1F"
  },
  {
    "name": "信義六合區民活動中心3F門口",
    "lat": 25.0244333,
    "lng": 121.5686912,
    "address": "110臺北市信義區松仁路240巷19號3F"
  },
  {
    "name": "圖書館六合分館3F自修室",
    "lat": 25.0244144,
    "lng": 121.5685972,
    "address": "110臺北市信義區松仁路240巷19號3F"
  },
  {
    "name": "圖書館六合分館4F兒童閱覽區",
    "lat": 25.0244594,
    "lng": 121.5687802,
    "address": "110臺北市信義區松仁路240巷19號4F"
  },
  {
    "name": "圖書館六合分館5F哺乳室",
    "lat": 25.0244158,
    "lng": 121.5687643,
    "address": "110臺北市信義區松仁路240巷19號5F"
  },
  {
    "name": "信義運動中心1F販賣區前",
    "lat": 25.0318107,
    "lng": 121.5669477,
    "address": "110臺北市信義區松勤街100號"
  },
  {
    "name": "信義運動中心1F服務臺",
    "lat": 25.0318038,
    "lng": 121.5666302,
    "address": "110臺北市信義區松勤街100號1F"
  },
  {
    "name": "信義運動中心4F游泳池櫃台前",
    "lat": 25.0318016,
    "lng": 121.5665381,
    "address": "110臺北市信義區松勤街100號"
  },
  {
    "name": "信義運動中心2F社區教室前",
    "lat": 25.0318524,
    "lng": 121.5669226,
    "address": "110臺北市信義區松勤街100號2F"
  },
  {
    "name": "信義運動中心2F健身房後門",
    "lat": 25.0318518,
    "lng": 121.5668907,
    "address": "110臺北市信義區松勤街100號2F"
  },
  {
    "name": "信義運動中心3F桌球室前",
    "lat": 25.0317616,
    "lng": 121.5669943,
    "address": "110臺北市信義區松勤街100號3F"
  },
  {
    "name": "信義運動中心3F壁球室前",
    "lat": 25.0318448,
    "lng": 121.5665961,
    "address": "110臺北市信義區松勤街100號"
  },
  {
    "name": "信義運動中心6F籃球與羽球室後",
    "lat": 25.0318423,
    "lng": 121.5669964,
    "address": "110臺北市信義區松勤街100號6F"
  },
  {
    "name": "公務人員訓練處E棟1F公共電腦區門外",
    "lat": 25.0040863,
    "lng": 121.5616629,
    "address": "116臺北市文山區萬美街二段21巷20號E棟1F"
  },
  {
    "name": "公務人員訓練處E棟1F國際會議廳門左側",
    "lat": 25.0042121,
    "lng": 121.5617225,
    "address": "116臺北市文山區萬美街二段21巷20號E棟1F"
  },
  {
    "name": "公務人員訓練處E棟1F教務組門外",
    "lat": 25.0040863,
    "lng": 121.5616629,
    "address": "116臺北市文山區萬美街二段21巷20號E棟1F"
  },
  {
    "name": "公務人員訓練處E棟2F203普通教門外",
    "lat": 25.0042483,
    "lng": 121.561588,
    "address": "116臺北市文山區萬美街二段21巷20號E棟2F"
  },
  {
    "name": "公務人員訓練處E棟2F202普通教室外走廊",
    "lat": 25.0040052,
    "lng": 121.5618509,
    "address": "116臺北市文山區萬美街二段21巷20號E棟2F"
  },
  {
    "name": "公務人員訓練處E棟3F301電腦教室外",
    "lat": 25.0042374,
    "lng": 121.5615541,
    "address": "116臺北市文山區萬美街二段21巷20號E棟3F"
  },
  {
    "name": "公務人員訓練處E棟3F308電腦教室外走廊",
    "lat": 25.0040058,
    "lng": 121.5618086,
    "address": "116臺北市文山區萬美街二段21巷20號E棟3F"
  },
  {
    "name": "公務人員訓練處E棟4F401教室外走廊",
    "lat": 25.0042304,
    "lng": 121.5615501,
    "address": "116臺北市文山區萬美街二段21巷20號E棟4F"
  },
  {
    "name": "公務人員訓練處C棟1F大禮堂左側",
    "lat": 25.004695,
    "lng": 121.5614063,
    "address": "116臺北市文山區萬美街二段21巷20號C棟1F"
  },
  {
    "name": "公務人員訓練處E棟5F圖書館逃生門口",
    "lat": 25.0040863,
    "lng": 121.5616629,
    "address": "116臺北市文山區萬美街二段21巷20號E棟5F"
  },
  {
    "name": "大安地政1F綜合謄本6號櫃臺前",
    "lat": 25.0338085,
    "lng": 121.5564318,
    "address": "106臺北市大安區信義路四段335巷6號1F"
  },
  {
    "name": "大安地政1F19號審查櫃臺前",
    "lat": 25.0335988,
    "lng": 121.556465,
    "address": "106臺北市大安區信義路四段335巷6號1F"
  },
  {
    "name": "大安地政2F205製圖室門口右側",
    "lat": 25.0337893,
    "lng": 121.5564997,
    "address": "106臺北市大安區信義路四段335巷6號2F"
  },
  {
    "name": "大安地政2F203儲藏室門口左側",
    "lat": 25.0335636,
    "lng": 121.556519,
    "address": "106臺北市大安區信義路四段335巷6號2F"
  },
  {
    "name": "大安地政3F301行政課門口",
    "lat": 25.0336921,
    "lng": 121.5564834,
    "address": "106臺北市大安區信義路四段335巷6號3F"
  },
  {
    "name": "大安地政3F304文物用品室門口",
    "lat": 25.0338085,
    "lng": 121.5564318,
    "address": "106臺北市大安區信義路四段335巷6號3F"
  },
  {
    "name": "大安地政4F402地籍資料課門口",
    "lat": 25.0338085,
    "lng": 121.5564318,
    "address": "106臺北市大安區信義路四段335巷6號4F"
  },
  {
    "name": "大安區健康服務中心1F民眾休息區中央",
    "lat": 25.0215769,
    "lng": 121.544274,
    "address": "106臺北市大安區辛亥路三段15號1F"
  },
  {
    "name": "大安區健康服務中心2F會計室門口",
    "lat": 25.0215769,
    "lng": 121.544274,
    "address": "106臺北市大安區辛亥路三段15號2F"
  },
  {
    "name": "大安區健康服務中心2F茶水間門口",
    "lat": 25.0217064,
    "lng": 121.5442837,
    "address": "106臺北市大安區辛亥路三段15號2F"
  },
  {
    "name": "信義惠安區民活動中心1F活動教室舞台",
    "lat": 25.0230319,
    "lng": 121.5684939,
    "address": "110臺北市信義區吳興街506巷21號1F"
  },
  {
    "name": "圖書館六合分館4F視聽資料與期刊區交界處",
    "lat": 25.0244513,
    "lng": 121.5687292,
    "address": "110臺北市信義區松仁路240巷19號4F"
  },
  {
    "name": "圖書館六合分館5F視聽室",
    "lat": 25.0243025,
    "lng": 121.5688751,
    "address": "110臺北市信義區松仁路240巷19號5F"
  },
  {
    "name": "大安社會福利中心2F服務台",
    "lat": 25.0264913,
    "lng": 121.5461311,
    "address": "106臺北市大安區四維路198巷30弄5號2F"
  },
  {
    "name": "土地開發總隊3F區段徵收科",
    "lat": 25.0287783,
    "lng": 121.5660723,
    "address": "110臺北市信義區莊敬路391巷11弄2號3F"
  },
  {
    "name": "土地開發總隊3F土木工程科",
    "lat": 25.0287242,
    "lng": 121.5659059,
    "address": "110臺北市信義區莊敬路391巷11弄2號3F"
  },
  {
    "name": "土地開發總隊3F控制測量科西側",
    "lat": 25.0288509,
    "lng": 121.565727,
    "address": "110臺北市信義區莊敬路391巷11弄2號3F"
  },
  {
    "name": "土地開發總隊3F圖籍申請區左後方",
    "lat": 25.0287242,
    "lng": 121.5659059,
    "address": "110臺北市信義區莊敬路391巷11弄2號3F"
  },
  {
    "name": "土地開發總隊4F副總隊長室門口",
    "lat": 25.028874,
    "lng": 121.5654957,
    "address": "110臺北市信義區莊敬路391巷11弄2號4F"
  },
  {
    "name": "土地開發總隊4F人事室門口",
    "lat": 25.0287978,
    "lng": 121.5656331,
    "address": "110臺北市信義區莊敬路391巷11弄2號4F"
  },
  {
    "name": "臺北市災害應變中心5F台北電台廣播室門口",
    "lat": 25.0289943,
    "lng": 121.5657877,
    "address": "110臺北市信義區莊敬路391巷11弄2號5F"
  },
  {
    "name": "臺北市災害應變中心5F整備應變科門口",
    "lat": 25.0290381,
    "lng": 121.5658293,
    "address": "110臺北市信義區莊敬路391巷11弄2號5F"
  },
  {
    "name": "臺北市災害應變中心5F減災規劃科門口",
    "lat": 25.0290098,
    "lng": 121.5658671,
    "address": "110臺北市信義區莊敬路391巷11弄2號5F"
  },
  {
    "name": "臺北市災害應變中心6F621幕僚備勤室門口",
    "lat": 25.0290499,
    "lng": 121.5660505,
    "address": "110臺北市信義區莊敬路391巷11弄2號6F"
  },
  {
    "name": "臺北市災害應變中心6F609首長備勤室門口",
    "lat": 25.0289642,
    "lng": 121.5659982,
    "address": "110臺北市信義區莊敬路391巷11弄2號6F"
  },
  {
    "name": "臺北市災害應變中心6F媒體休息區門口",
    "lat": 25.0288679,
    "lng": 121.566253,
    "address": "110臺北市信義區莊敬路391巷11弄2號6F"
  },
  {
    "name": "公務人員訓練處E棟5F504教室外",
    "lat": 25.0040863,
    "lng": 121.5616629,
    "address": "116臺北市文山區萬美街二段21巷20號E棟5F"
  },
  {
    "name": "公務人員訓練處B棟1F102教室外走廊",
    "lat": 25.0042437,
    "lng": 121.5611076,
    "address": "116臺北市文山區萬美街二段21巷20號B棟1F"
  },
  {
    "name": "公務人員訓練處B棟2F203普通教室外",
    "lat": 25.0040411,
    "lng": 121.5610164,
    "address": "116臺北市文山區萬美街二段21巷20號B棟2F"
  },
  {
    "name": "公務人員訓練處B棟3F302階梯教室外樓梯處",
    "lat": 25.0040912,
    "lng": 121.560949,
    "address": "116臺北市文山區萬美街二段21巷20號B棟3F"
  },
  {
    "name": "公務人員訓練處C棟1F大禮堂外面走道",
    "lat": 25.0044546,
    "lng": 121.5613895,
    "address": "116臺北市文山區萬美街二段21巷20號C棟1F"
  },
  {
    "name": "公務人員訓練處C棟1F大禮堂右側",
    "lat": 25.0042766,
    "lng": 121.5611595,
    "address": "116臺北市文山區萬美街二段21巷20號C棟1F"
  },
  {
    "name": "公務人員訓練處C棟2F處長室外",
    "lat": 25.0040912,
    "lng": 121.560949,
    "address": "116臺北市文山區萬美街二段21巷20號C棟2F"
  },
  {
    "name": "大安嘉興區民活動中心B1F側門",
    "lat": 25.0213177,
    "lng": 121.5518932,
    "address": "106臺北市大安區樂業街97號B1F"
  },
  {
    "name": "安東市場1F 137攤位",
    "lat": 25.0281385,
    "lng": 121.5411858,
    "address": "106臺北市大安區瑞安街75號1F"
  },
  {
    "name": "成功中繼市場1F 047與048攤位中間",
    "lat": 25.0265415,
    "lng": 121.5483959,
    "address": "106臺北市大安區敦化南路二段120號1F"
  },
  {
    "name": "成功中繼市場1F 085攤位前",
    "lat": 25.0264613,
    "lng": 121.5483513,
    "address": "106臺北市大安區敦化南路二段120號1F"
  },
  {
    "name": "成功中繼市場2F 24攤位前",
    "lat": 25.0265491,
    "lng": 121.5482286,
    "address": "106臺北市大安區敦化南路二段120號2F"
  },
  {
    "name": "成功中繼市場2F 136攤位前",
    "lat": 25.0264373,
    "lng": 121.5483107,
    "address": "106臺北市大安區敦化南路二段120號2F"
  }
]