[
  {
    "name": "新店十四份郵局",
    "lat": 24.97199,
    "lng": 121.51739,
    "address": "231新北市新店區安民街206號"
  },
  {
    "name": "新店頂城郵局",
    "lat": 24.961024,
    "lng": 121.530635,
    "address": "231新北市新店區安康路一段50-1號"
  },
  {
    "name": "新店碧潭郵局",
    "lat": 24.957143,
    "lng": 121.538369,
    "address": "231新北市新店區北宜路一段47號"
  },
  {
    "name": "水利署台北水源特定區管理局4樓服務台",
    "lat": 24.959042,
    "lng": 121.537415,
    "address": "231新北市新店區北新路一段45巷5號4樓"
  },
  {
    "name": "行政院農業委員會水土保持局臺北分局_1F_服務台",
    "lat": 24.958649,
    "lng": 121.532857,
    "address": "231新北市新店區精忠路10號"
  },
  {
    "name": "行政院農業委員會水土保持局臺北分局_1F_走廊1",
    "lat": 24.958649,
    "lng": 121.532857,
    "address": "231新北市新店區精忠路10號"
  },
  {
    "name": "行政院農業委員會水土保持局臺北分局_1F_走廊2",
    "lat": 24.958649,
    "lng": 121.532857,
    "address": "231新北市新店區精忠路10號"
  },
  {
    "name": "行政院農業委員會水土保持局臺北分局_1F_走廊3",
    "lat": 24.958649,
    "lng": 121.532857,
    "address": "231新北市新店區精忠路10號"
  },
  {
    "name": "行政院農業委員會水土保持局臺北分局_B棟_走廊1",
    "lat": 24.958649,
    "lng": 121.532857,
    "address": "231新北市新店區精忠路10號"
  },
  {
    "name": "行政院農業委員會水土保持局臺北分局_B棟_走廊2",
    "lat": 24.958649,
    "lng": 121.532857,
    "address": "231新北市新店區精忠路10號"
  },
  {
    "name": "行政院農業委員會水土保持局臺北分局_會議室1",
    "lat": 24.958649,
    "lng": 121.532857,
    "address": "231新北市新店區精忠路10號"
  },
  {
    "name": "行政院農業委員會水土保持局臺北分局_會議室2",
    "lat": 24.958649,
    "lng": 121.532857,
    "address": "231新北市新店區精忠路10號"
  },
  {
    "name": "行政院農業委員會水土保持局臺北分局_防災中心1",
    "lat": 24.958649,
    "lng": 121.532857,
    "address": "231新北市新店區精忠路10號"
  },
  {
    "name": "行政院農業委員會水土保持局臺北分局_防災中心2",
    "lat": 24.958649,
    "lng": 121.532857,
    "address": "231新北市新店區精忠路10號"
  },
  {
    "name": "新北市新店區下城社區發展協會",
    "lat": 24.96278,
    "lng": 121.523652,
    "address": "231新北市新店區下城里8鄰安康路一段281巷6號"
  },
  {
    "name": "新北市新店區美城里辦公處",
    "lat": 24.948849,
    "lng": 121.530493,
    "address": "231新北市新店區美城里6鄰永業路81巷7弄1號B1"
  },
  {
    "name": "新北市新店區張南里辦公處",
    "lat": 24.956646,
    "lng": 121.537091,
    "address": "231新北市新店區新店里11鄰新店路207號三樓"
  },
  {
    "name": "財團法人福智慈善基金會(新店教室)",
    "lat": 24.96794,
    "lng": 121.539943,
    "address": "231新北市新店區新德里中華路53號一樓"
  },
  {
    "name": "財團法人台灣省私立建順老人養護中心(新店柴埕站)",
    "lat": 24.96894,
    "lng": 121.518333,
    "address": "231新北市新店區柴埕里安民街79號五樓"
  },
  {
    "name": "社團法人新北市新店區喜樂心靈關懷協會",
    "lat": 24.962335,
    "lng": 121.525761,
    "address": "231新北市新店區下城里4鄰一段207巷8-1號"
  },
  {
    "name": "新店中華路郵局",
    "lat": 24.970548,
    "lng": 121.539156,
    "address": "231新北市新店區中華路74號(法務部調查局內)"
  }
]