[
  {
    "name": "宜蘭大坡路郵局",
    "lat": 24.779434,
    "lng": 121.740716,
    "address": "260宜蘭縣宜蘭市大坡路二段225號"
  },
  {
    "name": "宜蘭中山路郵局",
    "lat": 24.7585151,
    "lng": 121.752915,
    "address": "260宜蘭縣宜蘭市中山路三段130號"
  },
  {
    "name": "國立陽明大學附設醫院C棟1F門診",
    "lat": 24.758036,
    "lng": 121.754093,
    "address": "260宜蘭縣宜蘭市新民路152號"
  },
  {
    "name": "台電公司宜蘭區處服務中心營業廳",
    "lat": 24.760009,
    "lng": 121.750318,
    "address": "260宜蘭縣宜蘭市舊城西路111號"
  },
  {
    "name": "華南商業銀行宜蘭分行",
    "lat": 24.758731,
    "lng": 121.75349,
    "address": "260宜蘭縣宜蘭市中山路三段140號"
  },
  {
    "name": "宜蘭縣失智症照顧服務協會",
    "lat": 24.761679,
    "lng": 121.750564,
    "address": "260宜蘭縣宜蘭市西門里同慶街95號"
  },
  {
    "name": "私立宏仁老人長期照顧中心(養護型)(禮仁)",
    "lat": 24.7616529,
    "lng": 121.7508414,
    "address": "260宜蘭縣宜蘭市同慶街95號4樓"
  },
  {
    "name": "私立德仁社區式服務類長期照顧服務機構",
    "lat": 24.7582827,
    "lng": 121.7510547,
    "address": "260宜蘭縣宜蘭市文昌路66-1號"
  },
  {
    "name": "禾樂居居家護理所",
    "lat": 24.7620837,
    "lng": 121.7296598,
    "address": "264宜蘭縣員山鄉同樂村同新路182號1樓"
  },
  {
    "name": "財團法人宜蘭縣私立蘭陽仁愛之家",
    "lat": 24.783532,
    "lng": 121.7432647,
    "address": "262宜蘭縣礁溪鄉龍泉路31號"
  },
  {
    "name": "宜蘭縣政府社會處(社會福利館)-1F行政中心",
    "lat": 24.762108,
    "lng": 121.750853,
    "address": "260宜蘭縣宜蘭市同慶街95號"
  },
  {
    "name": "宜蘭縣政府警察局龍潭派出所",
    "lat": 24.779919,
    "lng": 121.740573,
    "address": "262宜蘭縣礁溪鄉龍潭村大坡路134號"
  },
  {
    "name": "宜蘭縣宜蘭市力行國小英才館一樓風雨教室牆面",
    "lat": 24.764252,
    "lng": 121.755252,
    "address": "260宜蘭縣宜蘭市力行街2號"
  },
  {
    "name": "宜蘭縣宜蘭市新生國小英語村二樓牆面朝大坡路",
    "lat": 24.770486,
    "lng": 121.754866,
    "address": "260宜蘭縣宜蘭市大坡路一段100號"
  },
  {
    "name": "宜蘭縣宜蘭市中山國小學校北側門臨光復路",
    "lat": 24.75846,
    "lng": 121.754265,
    "address": "260宜蘭縣宜蘭市崇聖街4號"
  },
  {
    "name": "宜蘭縣政府社會處(社會福利館)-多功能劇場4F",
    "lat": 24.762108,
    "lng": 121.750853,
    "address": "260宜蘭縣宜蘭市同慶街95號"
  },
  {
    "name": "宜蘭縣政府社會處(社會福利館)-第二會議6F",
    "lat": 24.762108,
    "lng": 121.750853,
    "address": "260宜蘭縣宜蘭市同慶街95號"
  },
  {
    "name": "宜蘭縣政府社會處(社會福利館)-第三會議6F",
    "lat": 24.762108,
    "lng": 121.750853,
    "address": "260宜蘭縣宜蘭市同慶街95號"
  },
  {
    "name": "宜蘭縣政府社會處(社會福利館)-勞工育樂中心6F",
    "lat": 24.762108,
    "lng": 121.750853,
    "address": "260宜蘭縣宜蘭市同慶街95號"
  },
  {
    "name": "宜蘭縣政府社會處(社會福利館)-資商室-團輔室5F",
    "lat": 24.762108,
    "lng": 121.750853,
    "address": "260宜蘭縣宜蘭市同慶街95號"
  },
  {
    "name": "衛生局-長照大樓-1F",
    "lat": 24.75864,
    "lng": 121.75469,
    "address": "260宜蘭縣宜蘭市聖後街141號"
  },
  {
    "name": "衛生局-長照大樓-2F",
    "lat": 24.75864,
    "lng": 121.75469,
    "address": "260宜蘭縣宜蘭市聖後街141號"
  }
]