[
  {
    "name": "礁溪四城郵局",
    "lat": 24.786959,
    "lng": 121.762209,
    "address": "262宜蘭縣礁溪鄉吳沙村站前路19號"
  },
  {
    "name": "臺鐵局四城站候車室",
    "lat": 24.786826,
    "lng": 121.76275,
    "address": "262宜蘭縣礁溪鄉吳沙村站前路24號"
  },
  {
    "name": "宜蘭縣宜蘭市七張社區發展協會",
    "lat": 24.764193,
    "lng": 121.769568,
    "address": "260宜蘭縣宜蘭市七張里七張路537號"
  },
  {
    "name": "宜蘭縣宜蘭市東園社區發展協會",
    "lat": 24.761266,
    "lng": 121.756979,
    "address": "260宜蘭縣宜蘭市菜園里崇聖街192號"
  },
  {
    "name": "宜蘭河濱公園",
    "lat": 24.764398,
    "lng": 121.75613,
    "address": "260宜蘭縣宜蘭市環河路"
  },
  {
    "name": "宜蘭縣政府警察局新生派出所",
    "lat": 24.769672,
    "lng": 121.756853,
    "address": "260宜蘭縣宜蘭市中山路五段156號"
  },
  {
    "name": "宜蘭縣政府警察局四城派出所",
    "lat": 24.7878,
    "lng": 121.761466,
    "address": "262宜蘭縣礁溪鄉礁溪路一段157號"
  },
  {
    "name": "宜蘭縣教育資訊網路中心2樓",
    "lat": 24.762771,
    "lng": 121.758385,
    "address": "260宜蘭縣宜蘭市樹人路37號"
  },
  {
    "name": "宜蘭縣立宜蘭國中樹人路門口警衛室面對路口外側",
    "lat": 24.761933,
    "lng": 121.756818,
    "address": "260宜蘭縣宜蘭市樹人路37號"
  },
  {
    "name": "宜蘭縣立吳沙國中新校舍演藝廳下方之風雨教室空間",
    "lat": 24.785663,
    "lng": 121.75905,
    "address": "262宜蘭縣礁溪鄉育英路79號"
  }
]