[
  {
    "name": "北投奇岩郵局",
    "lat": 25.1251781,
    "lng": 121.5076665,
    "address": "112臺北市北投區公館路271號"
  },
  {
    "name": "北投尊賢郵局",
    "lat": 25.117507,
    "lng": 121.5069392,
    "address": "112臺北市北投區尊賢街247號-4"
  },
  {
    "name": "北投實踐郵局",
    "lat": 25.1145713,
    "lng": 121.5093483,
    "address": "112臺北市北投區實踐街48巷11號"
  },
  {
    "name": "社團法人中華健康美好生活協會(洲美)",
    "lat": 25.10006,
    "lng": 121.504059,
    "address": "112臺北市北投區洲美里福美路207號"
  },
  {
    "name": "臺北市北投區尊賢社區發展協會",
    "lat": 25.11816,
    "lng": 121.507704,
    "address": "112臺北市北投區尊賢里尊賢街302巷19號一樓"
  },
  {
    "name": "社團法人國際奔享體驗教育發展協會(新白石)",
    "lat": 25.114987,
    "lng": 121.509207,
    "address": "112臺北市北投區吉慶里實踐街48巷3號一樓"
  },
  {
    "name": "社團法人台灣守護有祢生命關懷協會(守護八禱小站)",
    "lat": 25.119017,
    "lng": 121.509477,
    "address": "112臺北市北投區立農里吉利街231號一樓"
  },
  {
    "name": "福安國中-N-延平北路七段",
    "lat": 25.103242,
    "lng": 121.487477,
    "address": "111臺北市士林區延平北路七段250號候車亭"
  },
  {
    "name": "富安國小-E-延平北路八段",
    "lat": 25.1058883,
    "lng": 121.4827489,
    "address": "111臺北市士林區延平北路八段138號對面候車亭"
  },
  {
    "name": "臨江園-N-延平北路七段",
    "lat": 25.1022667,
    "lng": 121.4885977,
    "address": "111臺北市士林區延平北路七段224號旁候車亭"
  },
  {
    "name": "承德公館路口-S-承德路七段",
    "lat": 25.1188998,
    "lng": 121.5019655,
    "address": "112臺北市北投區承德路七段383號前方候車亭"
  },
  {
    "name": "大業路一-N-大業路",
    "lat": 25.1227356,
    "lng": 121.4994721,
    "address": "112臺北市北投區大業路12號候車亭"
  },
  {
    "name": "奇岩新村-N-公館路",
    "lat": 25.1256576,
    "lng": 121.5083539,
    "address": "112臺北市北投區公館路253號候車亭"
  },
  {
    "name": "奇岩一站-N-公館路",
    "lat": 25.123075,
    "lng": 121.504783,
    "address": "112臺北市北投區公館路352號對面候車亭"
  },
  {
    "name": "承德路七段-S-承德路七段",
    "lat": 25.11276,
    "lng": 121.508583,
    "address": "112臺北市北投區承德路七段141號候車亭"
  },
  {
    "name": "捷運唭哩岸站一(東華)-W-東華街二段",
    "lat": 25.120931,
    "lng": 121.507308,
    "address": "112臺北市北投區東華街二段294號候車亭"
  },
  {
    "name": "大業路(農禪寺)-S-大業路",
    "lat": 25.122905,
    "lng": 121.499107,
    "address": "112臺北市北投區大業路37號旁候車亭"
  },
  {
    "name": "捷運唭哩岸站二(西安)-E-西安街二段",
    "lat": 25.120935,
    "lng": 121.504035,
    "address": "112臺北市北投區西安街二段375號旁候車亭"
  },
  {
    "name": "士林福安區民活動中心2F中央",
    "lat": 25.0974164,
    "lng": 121.4945551,
    "address": "111臺北市士林區延平北路七段114號2F"
  },
  {
    "name": "北投運動中心1F大廳",
    "lat": 25.1167605,
    "lng": 121.5097905,
    "address": "112臺北市北投區石牌路一段39巷100號1F"
  },
  {
    "name": "北投運動中心2F大廳",
    "lat": 25.1166358,
    "lng": 121.5097872,
    "address": "112臺北市北投區石牌路一段39巷100號2F"
  },
  {
    "name": "北投運動中心3F大廳",
    "lat": 25.1166358,
    "lng": 121.5097872,
    "address": "112臺北市北投區石牌路一段39巷100號3F"
  },
  {
    "name": "北投運動中心B1F大廳",
    "lat": 25.1166358,
    "lng": 121.5097872,
    "address": "112臺北市北投區石牌路一段39巷100號B1F"
  },
  {
    "name": "北投垃圾焚化廠2FK書中心",
    "lat": 25.1095562,
    "lng": 121.4991888,
    "address": "112臺北市北投區洲美街271號2F"
  },
  {
    "name": "北投垃圾焚化廠2F閱覽室",
    "lat": 25.1093707,
    "lng": 121.4994409,
    "address": "112臺北市北投區洲美街271號2F"
  },
  {
    "name": "圖書館吉利分館5F自習區轉角處",
    "lat": 25.1192628,
    "lng": 121.5084813,
    "address": "112臺北市北投區立農街一段366號5F"
  },
  {
    "name": "圖書館吉利分館6F綜合服務台前",
    "lat": 25.1192877,
    "lng": 121.5084025,
    "address": "112臺北市北投區立農街一段366號6F"
  },
  {
    "name": "圖書館吉利分館7F中文圖書區中央",
    "lat": 25.1194065,
    "lng": 121.5085068,
    "address": "112臺北市北投區立農街一段366號7F"
  },
  {
    "name": "圖書館吉利分館8F一般圖書區中央",
    "lat": 25.11951,
    "lng": 121.5083977,
    "address": "112臺北市北投區立農街一段366號8F"
  },
  {
    "name": "北投洲美區民活動中心1F中央",
    "lat": 25.1002965,
    "lng": 121.5050519,
    "address": "112臺北市北投區福美路207號1F"
  },
  {
    "name": "公園路燈工程管理處路燈工程隊北區分隊1F駕駛辦公室",
    "lat": 25.1157666,
    "lng": 121.4998014,
    "address": "112臺北市北投區承德路七段413巷16號1F"
  },
  {
    "name": "公園路燈工程管理處路燈工程隊北區分隊2F會議室",
    "lat": 25.1157053,
    "lng": 121.4997401,
    "address": "112臺北市北投區承德路七段413巷16號2F"
  }
]