[
  {
    "name": "吉安郵局",
    "lat": 23.978419,
    "lng": 121.566677,
    "address": "973花蓮縣吉安鄉慶豐村吉安路二段280號"
  },
  {
    "name": "行政院農業委員會花蓮區農業改良場",
    "lat": 23.974839,
    "lng": 121.564106,
    "address": "973花蓮縣吉安鄉吉安路二段150號"
  },
  {
    "name": "花蓮縣吉安鄉慶豐社區發展協會",
    "lat": 23.982278,
    "lng": 121.563861,
    "address": "973花蓮縣吉安鄉慶豐村慶北一街237號"
  },
  {
    "name": "衛生福利部玉里醫院",
    "lat": 23.9786784,
    "lng": 121.570661,
    "address": "973花蓮縣吉安鄉慶豐村16鄰慶豐六街165號"
  },
  {
    "name": "花蓮縣吉安鄉吉安國民小學",
    "lat": 23.973264,
    "lng": 121.562959,
    "address": "973花蓮縣吉安鄉吉安路二段97號"
  },
  {
    "name": "花蓮縣立吉安國民中學",
    "lat": 23.983155,
    "lng": 121.561296,
    "address": "973花蓮縣吉安鄉慶豐村中山路三段662號"
  },
  {
    "name": "花蓮縣吉安鄉稻香國民小學",
    "lat": 23.963333,
    "lng": 121.569096,
    "address": "973花蓮縣吉安鄉稻香村稻香路99號"
  },
  {
    "name": "花蓮縣政府吉安社會福利服務中心",
    "lat": 23.980002,
    "lng": 121.566968,
    "address": "973花蓮縣吉安鄉中山路三段462號3樓"
  },
  {
    "name": "花蓮縣政府社會處慶豐銀髮樂活館",
    "lat": 23.980002,
    "lng": 121.566968,
    "address": "973花蓮縣吉安鄉中山路三段462號2樓"
  },
  {
    "name": "花蓮縣吉安鄉戶政事務所",
    "lat": 23.973254,
    "lng": 121.563871,
    "address": "970花蓮縣花蓮市府前路5號"
  },
  {
    "name": "吉安鄉客家產業交流中心",
    "lat": 23.972133,
    "lng": 121.56234,
    "address": "973花蓮縣吉安鄉吉安路二段65號"
  },
  {
    "name": "花蓮縣吉安鄉公所",
    "lat": 23.972903,
    "lng": 121.5613216,
    "address": "973花蓮縣吉安鄉吉安村吉安路二段116號"
  },
  {
    "name": "花蓮縣吉安派出所",
    "lat": 23.97356,
    "lng": 121.56335,
    "address": "973花蓮縣吉安鄉吉安村吉安路二段122號"
  },
  {
    "name": "花蓮縣吉安鄉民代表會",
    "lat": 23.97295,
    "lng": 121.56037,
    "address": "973花蓮縣吉安鄉吉安村吉安路二段110號"
  },
  {
    "name": "吉安鄉慶豐樂活館",
    "lat": 23.980108,
    "lng": 121.566971,
    "address": "973花蓮縣吉安鄉中山路三段464號"
  },
  {
    "name": "吉安鄉吉安路二段與吉昌一街口",
    "lat": 23.972586,
    "lng": 121.562871,
    "address": "973花蓮縣吉安鄉吉安路二段102號"
  },
  {
    "name": "花蓮縣衛生局吉安鄉衛生所",
    "lat": 23.973948,
    "lng": 121.563662,
    "address": "973花蓮縣吉安鄉吉安路二段132號"
  },
  {
    "name": "吉安鄉公所清潔隊",
    "lat": 23.984183,
    "lng": 121.552525,
    "address": "973花蓮縣吉安鄉中山路三段953巷13號"
  },
  {
    "name": "吉安鄉吉安路一段與中山路三段口",
    "lat": 23.979281,
    "lng": 121.5674204,
    "address": "973花蓮縣吉安鄉中山路三段423號"
  },
  {
    "name": "吉安鄉中興路與中興路355巷口",
    "lat": 23.9740334,
    "lng": 121.5643076,
    "address": "973花蓮縣吉安鄉中興路355巷5號"
  },
  {
    "name": "花蓮縣軍人忠靈祠",
    "lat": 23.9696679,
    "lng": 121.5521827,
    "address": "973花蓮縣吉安鄉福興五街481號"
  }
]