[
  {
    "name": "東北角暨宜蘭海岸國家風景區管理處管理處服務台",
    "lat": 25.017024,
    "lng": 121.942576,
    "address": "228新北市貢寮區興隆街36號"
  },
  {
    "name": "臺鐵局福隆站候車室",
    "lat": 25.0158895,
    "lng": 121.942527,
    "address": "228新北市貢寮區福隆街2號"
  },
  {
    "name": "社團法人中華民國照顧服務員專業發展協會",
    "lat": 25.018379,
    "lng": 121.945732,
    "address": "228新北市貢寮區福隆里福隆街60號二樓"
  },
  {
    "name": "新北市雙溪區平林里辦公處",
    "lat": 25.018,
    "lng": 121.948,
    "address": "227新北市雙溪區外平林五十二號"
  },
  {
    "name": "新北市貢寮區福隆里辦公處",
    "lat": 25.0176,
    "lng": 121.9479,
    "address": "228新北市貢寮區福隆里東興街70號"
  }
]