[
  {
    "name": "石門郵局",
    "lat": 25.291967,
    "lng": 121.567856,
    "address": "253新北市石門區尖鹿村3鄰中山路80號"
  },
  {
    "name": "台電公司基隆區處老梅服務所",
    "lat": 25.2885987,
    "lng": 121.5444353,
    "address": "253新北市石門區老梅路52巷23號"
  },
  {
    "name": "社團法人中華民國新生活社會福利發展促進會(石門尖鹿站)",
    "lat": 25.291531,
    "lng": 121.567897,
    "address": "253新北市石門區尖鹿里中山路68號"
  },
  {
    "name": "新北市石門區石門里辦公處",
    "lat": 25.291194,
    "lng": 121.565885,
    "address": "253新北市石門區石門里1鄰石門街1之1號"
  },
  {
    "name": "新北市石門區老梅社區發展協會",
    "lat": 25.289433,
    "lng": 121.545195,
    "address": "253新北市石門區老梅里老梅路43號"
  }
]