[
  {
    "name": "吉安仁里郵局",
    "lat": 23.967483,
    "lng": 121.592809,
    "address": "973花蓮縣吉安鄉仁里村中正路一段48號"
  },
  {
    "name": "吉安宜昌郵局",
    "lat": 23.973718,
    "lng": 121.585187,
    "address": "973花蓮縣吉安鄉中華路二段83號"
  },
  {
    "name": "花蓮中華路郵局",
    "lat": 23.974752,
    "lng": 121.596985,
    "address": "970花蓮縣花蓮市中華路335-5號"
  },
  {
    "name": "公路總局臺北區監理所花蓮監理站",
    "lat": 23.961019,
    "lng": 121.586981,
    "address": "973花蓮縣吉安鄉中正路二段152號"
  },
  {
    "name": "臺鐵局吉安站候車室",
    "lat": 23.970977,
    "lng": 121.577498,
    "address": "973花蓮縣吉安鄉南昌路200號"
  },
  {
    "name": "勞動部勞動力發展署北基宜花金馬分署花蓮就業服務站洽公櫃台",
    "lat": 23.989621,
    "lng": 121.602259,
    "address": "970花蓮縣花蓮市國民三街25號"
  },
  {
    "name": "自來水公司吉安壽豐服務所",
    "lat": 23.962064,
    "lng": 121.572024,
    "address": "973花蓮縣吉安鄉稻香村16鄰稻香路8號"
  },
  {
    "name": "中油公司花蓮縣吉安鄉南埔站",
    "lat": 23.9639559,
    "lng": 121.589869,
    "address": "973花蓮縣吉安鄉仁和村中正路二段6號"
  },
  {
    "name": "行政院農業委員會農糧署東區分署",
    "lat": 23.974399,
    "lng": 121.590199,
    "address": "970花蓮縣花蓮市中華路512號"
  },
  {
    "name": "花蓮市主權發展協會",
    "lat": 23.972442,
    "lng": 121.594067,
    "address": "970花蓮縣花蓮市主權里德安一街118號"
  },
  {
    "name": "主農社區發展協會",
    "lat": 23.968789,
    "lng": 121.596804,
    "address": "970花蓮縣花蓮市主農里中順街77號"
  },
  {
    "name": "花蓮縣社區文建關懷協會",
    "lat": 23.978198,
    "lng": 121.597456,
    "address": "970花蓮縣花蓮市國風里林榮街45號"
  },
  {
    "name": "花蓮市主力社區發展協會",
    "lat": 23.975655,
    "lng": 121.596153,
    "address": "970花蓮縣花蓮市主力里榮正街186巷18號二樓"
  },
  {
    "name": "花蓮縣主商社區發展協會",
    "lat": 23.968854,
    "lng": 121.60183,
    "address": "970花蓮縣花蓮市主商里廣東街247號"
  },
  {
    "name": "花蓮縣吉安鄉永安社區發展協會",
    "lat": 23.989177,
    "lng": 121.573172,
    "address": "973花蓮縣吉安鄉永安村太昌路202號"
  },
  {
    "name": "社團法人花蓮縣老人暨家庭關懷協會-主權",
    "lat": 23.975732,
    "lng": 121.593814,
    "address": "970花蓮縣花蓮市主權里中原路666號"
  },
  {
    "name": "花蓮縣吉安鄉東昌社區發展協會",
    "lat": 23.965756,
    "lng": 121.595869,
    "address": "973花蓮縣吉安鄉東昌村東海六街74號"
  },
  {
    "name": "財團法人門諾社會福利慈善事業基金會-吉安",
    "lat": 23.966405,
    "lng": 121.595433,
    "address": "973花蓮縣吉安鄉東昌村東海六街73號"
  },
  {
    "name": "花蓮縣吉安鄉仁里社區發展協會",
    "lat": 23.967073,
    "lng": 121.591996,
    "address": "973花蓮縣吉安鄉仁里村五街1號"
  },
  {
    "name": "花蓮縣鳳林鎮鳳仁社區發展協會",
    "lat": 23.987,
    "lng": 121.602,
    "address": "975花蓮縣鳳林鎮鳳仁里仁愛街18號"
  },
  {
    "name": "社團法人花蓮縣老人暨家庭關懷協會",
    "lat": 23.9899168,
    "lng": 121.5829734,
    "address": "973花蓮縣吉安鄉建國路2段37號"
  },
  {
    "name": "勝安村活動中心",
    "lat": 23.97543,
    "lng": 121.58677,
    "address": "973花蓮縣吉安鄉慈惠一街30號"
  },
  {
    "name": "花蓮縣立國風國民中學",
    "lat": 23.978224,
    "lng": 121.595757,
    "address": "970花蓮縣花蓮市國風里林政街7號"
  },
  {
    "name": "花蓮縣花蓮市忠孝國民小學",
    "lat": 23.975136,
    "lng": 121.598729,
    "address": "970花蓮縣花蓮市中華路298號"
  },
  {
    "name": "花蓮縣花蓮市中原國民小學",
    "lat": 23.972115,
    "lng": 121.596366,
    "address": "970花蓮縣花蓮市中原路531號"
  },
  {
    "name": "花蓮縣花蓮市中正國民小學",
    "lat": 23.971899,
    "lng": 121.599504,
    "address": "970花蓮縣花蓮市中正路210號"
  },
  {
    "name": "花蓮縣吉安鄉化仁國民小學",
    "lat": 23.962901,
    "lng": 121.595564,
    "address": "973花蓮縣吉安鄉東昌村東里11街83號"
  },
  {
    "name": "花蓮縣立化仁國民中學",
    "lat": 23.965097,
    "lng": 121.593263,
    "address": "973花蓮縣吉安鄉東昌村東海10街3號"
  },
  {
    "name": "花蓮縣吉安鄉北昌國民小學",
    "lat": 23.987086,
    "lng": 121.592136,
    "address": "973花蓮縣吉安鄉北昌村自強路533號"
  },
  {
    "name": "花蓮縣吉安鄉宜昌國民小學",
    "lat": 23.971186,
    "lng": 121.585447,
    "address": "973花蓮縣吉安鄉宜昌1街45號"
  },
  {
    "name": "花蓮縣立宜昌國民中學",
    "lat": 23.972038,
    "lng": 121.586552,
    "address": "973花蓮縣吉安鄉宜昌村宜昌1街41號"
  },
  {
    "name": "花蓮縣政府客家事務處",
    "lat": 23.961668,
    "lng": 121.588219,
    "address": "973花蓮縣吉安鄉中正路二段60號"
  },
  {
    "name": "花蓮市公所花蓮市立圖書館",
    "lat": 23.990259,
    "lng": 121.60133,
    "address": "970花蓮縣花蓮市國聯一路170號"
  },
  {
    "name": "花蓮縣吉安鄉公所吉安鄉立圖書館",
    "lat": 23.973289,
    "lng": 121.578069,
    "address": "973花蓮縣吉安鄉吉安村中山路三段3號"
  },
  {
    "name": "吉安鄉阿美文物館",
    "lat": 23.970212,
    "lng": 121.580612,
    "address": "973花蓮縣吉安鄉文化五街43號"
  },
  {
    "name": "花蓮縣仁里派出所",
    "lat": 23.96805,
    "lng": 121.59358,
    "address": "973花蓮縣吉安鄉仁里村中正路一段38號"
  },
  {
    "name": "花蓮縣花蓮市主農里辦公處",
    "lat": 23.96895,
    "lng": 121.59624,
    "address": "970花蓮縣花蓮市中順街77號"
  },
  {
    "name": "花蓮縣花蓮市國風里辦公處",
    "lat": 23.97837,
    "lng": 121.59744,
    "address": "970花蓮縣花蓮市林榮街45號"
  },
  {
    "name": "花蓮縣吉安鄉宜昌活動中心(村里辦公處)",
    "lat": 23.973943,
    "lng": 121.579651,
    "address": "973花蓮縣吉安鄉宜昌村吉祥九街19號"
  },
  {
    "name": "花蓮市林森路與國風街",
    "lat": 23.976804,
    "lng": 121.5978078,
    "address": "970花蓮縣花蓮市林森路80號"
  },
  {
    "name": "花蓮市立圖書館樂齡館",
    "lat": 23.968779,
    "lng": 121.596804,
    "address": "970花蓮縣花蓮市中順街77號"
  },
  {
    "name": "吉安鄉立幼兒園",
    "lat": 23.98899,
    "lng": 121.57285,
    "address": "973花蓮縣吉安鄉太昌路204號"
  },
  {
    "name": "花蓮縣消防局仁里消防分隊",
    "lat": 23.966386,
    "lng": 121.58943,
    "address": "973花蓮縣吉安鄉仁里三街11-1號"
  },
  {
    "name": "花蓮縣消防局吉安消防分隊",
    "lat": 23.9664291,
    "lng": 121.574109,
    "address": "973花蓮縣吉安鄉吉安路二段120號"
  },
  {
    "name": "花蓮勝安宮",
    "lat": 23.9774859,
    "lng": 121.5845413,
    "address": "973花蓮縣吉安鄉慈惠三街118號"
  },
  {
    "name": "花蓮市中正路與榮正街口",
    "lat": 23.971983,
    "lng": 121.599388,
    "address": "970花蓮縣花蓮市中正路239號"
  },
  {
    "name": "吉安鄉中正路一段與仁里三街口",
    "lat": 23.967991,
    "lng": 121.593583,
    "address": "973花蓮縣吉安鄉中正路一段37之1號"
  },
  {
    "name": "花蓮縣客家文化會館演藝堂",
    "lat": 23.9632133,
    "lng": 121.5871634,
    "address": "973花蓮縣吉安鄉中正路二段58號"
  },
  {
    "name": "花蓮市國聯社區活動中心",
    "lat": 23.9876728,
    "lng": 121.5999784,
    "address": "970花蓮縣花蓮市國興五街139號"
  },
  {
    "name": "吉安鄉自強路建國路一段口",
    "lat": 23.98586,
    "lng": 121.5906663,
    "address": "973花蓮縣吉安鄉建國路一段139號"
  },
  {
    "name": "吉安鄉建國路一段中央路三段口",
    "lat": 23.987126,
    "lng": 121.5873118,
    "address": "973花蓮縣吉安鄉中央路三段475號"
  },
  {
    "name": "吉安鄉和平路一段自強路口",
    "lat": 23.9830636,
    "lng": 121.5886359,
    "address": "973花蓮縣吉安鄉自強路431號"
  },
  {
    "name": "吉安鄉中山路二段南昌北路口",
    "lat": 23.970831,
    "lng": 121.5830278,
    "address": "973花蓮縣吉安鄉中山路二段71之2號"
  }
]