[
  {
    "name": "清華大學郵局",
    "lat": 24.792997,
    "lng": 120.993135,
    "address": "300新竹市東區光復路二段101號"
  },
  {
    "name": "新竹建中郵局",
    "lat": 24.800593,
    "lng": 120.99405,
    "address": "300新竹市東區建中一路8號"
  },
  {
    "name": "國軍退除役官兵輔導委員會新竹榮民服務處一樓大廳",
    "lat": 24.799173,
    "lng": 121.003188,
    "address": "300新竹市東區建功二路61號"
  },
  {
    "name": "臺灣新竹地方法院檢察署1樓等候區",
    "lat": 24.812934,
    "lng": 121.017945,
    "address": "302新竹縣竹北市興隆路二段161號"
  },
  {
    "name": "國立交通大學資訊技術服務中心",
    "lat": 24.789397,
    "lng": 120.99979,
    "address": "300新竹市東區大學路1001號"
  },
  {
    "name": "國立交通大學資訊技術服務中心外小木屋廣場",
    "lat": 24.789397,
    "lng": 120.99979,
    "address": "300新竹市東區大學路1001號"
  },
  {
    "name": "國立清華大學小吃部",
    "lat": 24.796138,
    "lng": 120.996425,
    "address": "300新竹市東區光復路二段101號"
  },
  {
    "name": "國立清華大學成功湖畔",
    "lat": 24.796138,
    "lng": 120.996425,
    "address": "300新竹市東區光復路二段101號"
  },
  {
    "name": "中油公司新竹服務中心",
    "lat": 24.789815,
    "lng": 121.003569,
    "address": "300新竹市東區大學路8-1號"
  },
  {
    "name": "中油公司新竹直銷中心",
    "lat": 24.790918,
    "lng": 121.004378,
    "address": "300新竹市東區大學路2號"
  },
  {
    "name": "兆豐國際商銀新竹分行",
    "lat": 24.803646,
    "lng": 120.996002,
    "address": "300新竹市東區公道五路二段417號"
  },
  {
    "name": "臺鐵局千甲站售票房",
    "lat": 24.806642,
    "lng": 121.003153,
    "address": "300新竹市東區水源里3鄰千甲路142號"
  },
  {
    "name": "第一商業銀行(竹科分行)",
    "lat": 24.792095,
    "lng": 121.0124419,
    "address": "300新竹市東區慈雲路120號"
  },
  {
    "name": "臺灣新竹地方法院(新院)聯合服務中心",
    "lat": 24.812251,
    "lng": 121.018764,
    "address": "302新竹縣竹北市興隆路二段265號"
  },
  {
    "name": "臺灣新竹地方法院(新院)閱卷室",
    "lat": 24.812251,
    "lng": 121.018764,
    "address": "302新竹縣竹北市興隆路二段265號"
  },
  {
    "name": "臺灣新竹地方法院B1法警室",
    "lat": 24.812251,
    "lng": 121.018764,
    "address": "302新竹縣竹北市興隆路二段265號"
  },
  {
    "name": "社團法人新竹市基督美門社區關懷協會",
    "lat": 24.812,
    "lng": 121.002,
    "address": "300新竹市東區公園里南大路78號"
  },
  {
    "name": "新竹市讓愛飛揚關懷協會",
    "lat": 24.792,
    "lng": 121.004,
    "address": "300新竹市東區水源里溪州路59巷15號"
  },
  {
    "name": "中華活力居家服務協會",
    "lat": 24.796,
    "lng": 121.005,
    "address": "300新竹市東區南大里西大路27號三樓"
  },
  {
    "name": "新竹市東區軍功社區發展協會",
    "lat": 24.794,
    "lng": 121.01,
    "address": "300新竹市東區軍功里建功一路49巷14號"
  },
  {
    "name": "新竹市身障就業大樓",
    "lat": 24.790633,
    "lng": 121.009663,
    "address": "300新竹市東區龍山西路99號1樓"
  },
  {
    "name": "新竹市埔頂市民活動中心",
    "lat": 24.7940068,
    "lng": 121.009987,
    "address": "300新竹市東區埔頂路136號"
  },
  {
    "name": "新竹市身障就業大樓(4、5F)",
    "lat": 24.7906973,
    "lng": 121.0096679,
    "address": "300新竹市東區龍山西路99號"
  },
  {
    "name": "新竹市公車(苗栗客運-綠線[995-U7])",
    "lat": 24.8183698,
    "lng": 120.9930053,
    "address": "300新竹市東區中華路一段78巷18弄11號"
  },
  {
    "name": "新竹市公車(苗栗客運-綠線[985-U7])",
    "lat": 24.8183698,
    "lng": 120.9930053,
    "address": "300新竹市東區中華路一段78巷18弄11號"
  },
  {
    "name": "新竹市公車(苗栗客運-綠線[851-U7])",
    "lat": 24.8183698,
    "lng": 120.9930053,
    "address": "300新竹市東區中華路一段78巷18弄11號"
  },
  {
    "name": "新竹市公車(苗栗客運-綠線[993-U7])",
    "lat": 24.8183698,
    "lng": 120.9930053,
    "address": "300新竹市東區中華路一段78巷18弄11號"
  },
  {
    "name": "新竹市公車(苗栗客運-綠線[992-U7])",
    "lat": 24.8183698,
    "lng": 120.9930053,
    "address": "300新竹市東區中華路一段78巷18弄11號"
  },
  {
    "name": "新竹市公車(苗栗客運-綠線[986-U7])",
    "lat": 24.8183698,
    "lng": 120.9930053,
    "address": "300新竹市東區中華路一段78巷18弄11號"
  },
  {
    "name": "新竹市千甲市民活動中心",
    "lat": 24.8070299,
    "lng": 121.013376,
    "address": "300新竹市東區千甲路387號"
  }
]