[
  {
    "name": "蘇澳南方澳郵局",
    "lat": 24.581699,
    "lng": 121.865133,
    "address": "270宜蘭縣蘇澳鎮江夏路13號"
  },
  {
    "name": "蘇澳郵局",
    "lat": 24.596035,
    "lng": 121.853039,
    "address": "270宜蘭縣蘇澳鎮中山路一段1號"
  },
  {
    "name": "臺鐵局蘇澳站候車室",
    "lat": 24.59523,
    "lng": 121.85144,
    "address": "270宜蘭縣蘇澳鎮太平路1號"
  },
  {
    "name": "基隆港務分公司蘇澳港營運處大樓2、3、4樓",
    "lat": 24.596873,
    "lng": 121.857191,
    "address": "270宜蘭縣蘇澳鎮港區1號"
  },
  {
    "name": "交通部觀光局東北角暨宜蘭海岸國家風景區管理處南方澳遊客中心",
    "lat": 24.585159,
    "lng": 121.862755,
    "address": "270宜蘭縣蘇澳鎮南正里江夏路85號"
  },
  {
    "name": "臺灣土地銀行蘇澳分行",
    "lat": 24.595699,
    "lng": 121.851317,
    "address": "270宜蘭縣蘇澳鎮太平路17號"
  },
  {
    "name": "第一商業銀行(蘇澳分行)",
    "lat": 24.5963084,
    "lng": 121.852776,
    "address": "270宜蘭縣蘇澳鎮中山路一段12號"
  },
  {
    "name": "臺鐵局蘇澳站第1月台北端",
    "lat": 24.5951807,
    "lng": 121.8514615,
    "address": "270宜蘭縣蘇澳鎮蘇南里太平路1號"
  },
  {
    "name": "臺鐵局蘇澳站第1月台南端",
    "lat": 24.5951807,
    "lng": 121.8514615,
    "address": "270宜蘭縣蘇澳鎮蘇南里太平路1號"
  },
  {
    "name": "宜蘭縣蘇澳鎮永光社區發展協會",
    "lat": 24.594029,
    "lng": 121.852119,
    "address": "270宜蘭縣蘇澳鎮永光里蘇港路85號"
  },
  {
    "name": "宜蘭縣蘇澳鎮蘇北社區發展協會",
    "lat": 24.596778,
    "lng": 121.850502,
    "address": "270宜蘭縣蘇澳鎮蘇北里新生路8號"
  },
  {
    "name": "宜蘭縣蘇澳鎮南寧社區發展協會",
    "lat": 24.581317,
    "lng": 121.869638,
    "address": "270宜蘭縣蘇澳鎮南寧里南新路9號"
  },
  {
    "name": "宜蘭縣蘇澳鎮長安社區發展協會",
    "lat": 24.592792,
    "lng": 121.854053,
    "address": "270宜蘭縣蘇澳鎮長安里勝利路1之1號"
  },
  {
    "name": "臺北榮民總醫院蘇澳分院-南成社區",
    "lat": 24.5809244,
    "lng": 121.8642339,
    "address": "270宜蘭縣蘇澳鎮南成里民生路15號"
  },
  {
    "name": "宜蘭縣政府警察局南方澳派出所",
    "lat": 24.582335,
    "lng": 121.866116,
    "address": "270宜蘭縣蘇澳鎮漁港路84號"
  },
  {
    "name": "宜蘭縣蘇澳鎮士敏國小行政大樓二樓牆面朝生態池",
    "lat": 24.591929,
    "lng": 121.853571,
    "address": "270宜蘭縣蘇澳鎮光明路8號"
  },
  {
    "name": "蘇澳消防分隊",
    "lat": 24.59431,
    "lng": 121.85228,
    "address": "270宜蘭縣蘇澳鎮蘇港路80號"
  },
  {
    "name": "南方澳消防分隊",
    "lat": 24.583239,
    "lng": 121.865235,
    "address": "270宜蘭縣蘇澳鎮海邊路138號"
  }
]