[
  {
    "name": "士林外雙溪郵局",
    "lat": 25.107,
    "lng": 121.565204,
    "address": "111臺北市士林區明溪街15號"
  },
  {
    "name": "國立故宮博物院第一展覽區1樓大廳",
    "lat": 25.101274,
    "lng": 121.547752,
    "address": "111臺北市士林區至善路二段221號"
  },
  {
    "name": "國立故宮博物院第一展覽區B1F大廳",
    "lat": 25.101264,
    "lng": 121.547762,
    "address": "111臺北市士林區至善路二段221號"
  },
  {
    "name": "財團法人台北市中華基督教浸信會慈光堂",
    "lat": 25.10871,
    "lng": 121.56019,
    "address": "111臺北市士林區翠山里中社路一段43巷1號"
  },
  {
    "name": "衛理女中-E-至善路二段",
    "lat": 25.1016655,
    "lng": 121.5526898,
    "address": "111臺北市士林區至善路二段321號對面候車亭"
  },
  {
    "name": "東吳大學(錢穆故居)-E1-至善路二段",
    "lat": 25.0970977,
    "lng": 121.5418953,
    "address": "111臺北市士林區至善路一段與臨溪路口西南側候車亭"
  },
  {
    "name": "東吳大學(錢穆故居)-W1-至善路二段",
    "lat": 25.097464,
    "lng": 121.5413063,
    "address": "111臺北市士林區至善路二段1之1號西側約200M候車亭"
  },
  {
    "name": "中社路11巷-W-中社路二段",
    "lat": 25.1110987,
    "lng": 121.5601319,
    "address": "111臺北市士林區中社路一段與中社路一段11巷31弄口東北側候車亭"
  },
  {
    "name": "至善國中-E-至善路二段",
    "lat": 25.1037735,
    "lng": 121.5555859,
    "address": "111臺北市士林區至善路二段360號旁候車亭"
  },
  {
    "name": "外雙溪橋-W-至善路二段",
    "lat": 25.1114278,
    "lng": 121.5579603,
    "address": "111臺北市士林區至善路二段471號候車亭"
  },
  {
    "name": "雙溪別墅-S-至善路二段",
    "lat": 25.10543,
    "lng": 121.55714,
    "address": "111臺北市士林區至善路二段389號候車亭"
  },
  {
    "name": "沙崙-E-至善路三段",
    "lat": 25.113372,
    "lng": 121.566764,
    "address": "111臺北市士林區至善路三段76號旁候車亭"
  },
  {
    "name": "雙溪淨水廠-E-至善路三段",
    "lat": 25.114458,
    "lng": 121.569625,
    "address": "111臺北市士林區至善路三段110號旁候車亭"
  },
  {
    "name": "陽明山國小-S-仰德大道三段",
    "lat": 25.1179663,
    "lng": 121.5521004,
    "address": "111臺北市士林區仰德大道三段40號對面候車亭"
  },
  {
    "name": "明德樂園-E-至善路三段",
    "lat": 25.112909,
    "lng": 121.5649495,
    "address": "111臺北市士林區至善路三段51號對面候車亭"
  },
  {
    "name": "大經橋-至善路二段",
    "lat": 25.1092461,
    "lng": 121.5572826,
    "address": "111臺北市士林區至善路二段449號候車亭"
  },
  {
    "name": "中影文化城-至善路二段",
    "lat": 25.0971186,
    "lng": 121.5446227,
    "address": "111臺北市士林區至善路二段34號旁候車亭"
  },
  {
    "name": "外雙溪(至善)-至善路二段",
    "lat": 25.098222,
    "lng": 121.547134,
    "address": "111臺北市士林區至善路二段114號候車亭"
  },
  {
    "name": "外雙溪(故宮)-S-故宮路",
    "lat": 25.0973381,
    "lng": 121.5468021,
    "address": "111臺北市士林區故宮路18號旁候車亭"
  },
  {
    "name": "故宮路口-W1-至善路二段",
    "lat": 25.0981,
    "lng": 121.545997,
    "address": "111臺北市士林區至善路二段96號對面候車亭"
  },
  {
    "name": "大崙尾山步道口-N-中社路二段",
    "lat": 25.10609,
    "lng": 121.5678,
    "address": "111臺北市士林區中社路二段150號對面東北側候車"
  },
  {
    "name": "明德新村-S-仰德大道三段",
    "lat": 25.119916,
    "lng": 121.552932,
    "address": "111臺北市士林區仰德大道三段86號對面候車亭"
  },
  {
    "name": "嶺腳-E-至善路三段",
    "lat": 25.11236,
    "lng": 121.56341,
    "address": "111臺北市士林區至善路三段31號對面候車亭"
  },
  {
    "name": "中央站-S-中社路一段",
    "lat": 25.10757,
    "lng": 121.56151,
    "address": "111臺北市士林區中社路一段80號對面西南側候車亭"
  },
  {
    "name": "白雲山莊-S-仰德大道三段",
    "lat": 25.122606,
    "lng": 121.5517255,
    "address": "111臺北市士林區仰德大道三段123號候車亭"
  },
  {
    "name": "社區發展協會-中社路一段",
    "lat": 25.1097662,
    "lng": 121.5598905,
    "address": "111臺北市士林區中社路一段32號(36巷雙號巷口旁)候車亭"
  },
  {
    "name": "翠山莊-W-中社路一段",
    "lat": 25.1112608,
    "lng": 121.5621607,
    "address": "111臺北市士林區中社路一段11號旁候車亭"
  },
  {
    "name": "永嶺-S-仰德大道二段",
    "lat": 25.106812,
    "lng": 121.54525,
    "address": "111臺北市士林區仰德大道二段88巷口對面公車亭"
  },
  {
    "name": "居安新村-S-新安路",
    "lat": 25.1211914,
    "lng": 121.5552852,
    "address": "111臺北市士林區新安路58號旁候車亭"
  },
  {
    "name": "劍南橋-S-至善路二段",
    "lat": 25.106748,
    "lng": 121.5572815,
    "address": "111臺北市士林區至善路二段417號旁候車亭"
  },
  {
    "name": "私立衛理女子高級中學-S-至善路二段",
    "lat": 25.1019103,
    "lng": 121.5525118,
    "address": "111臺北市士林區至善路二段321號(衛理女中)候車亭"
  },
  {
    "name": "外雙溪(故宮)-N-故宮路",
    "lat": 25.096637,
    "lng": 121.547279,
    "address": "111臺北市士林區故宮路35巷2號旁候車亭"
  },
  {
    "name": "翠山派出所-N-中社路一段",
    "lat": 25.107958,
    "lng": 121.5605406,
    "address": "111臺北市士林區中社路一段56號斜對面候車亭"
  },
  {
    "name": "嶺頭-W-仰德大道二段",
    "lat": 25.1032613,
    "lng": 121.5415596,
    "address": "111臺北市士林區仰德大道二段11巷12號對面候車亭"
  },
  {
    "name": "福音-S-仰德大道三段",
    "lat": 25.1140899,
    "lng": 121.5503144,
    "address": "111臺北市士林區仰德大道三段5巷口候車亭"
  },
  {
    "name": "社區發展協會-N-中社路一段",
    "lat": 25.10949,
    "lng": 121.56012,
    "address": "111臺北市士林區中社路一段32號(36巷雙號巷口)斜對面候車亭"
  },
  {
    "name": "至善老人養護中心1F服務臺",
    "lat": 25.1013744,
    "lng": 121.5440437,
    "address": "111臺北市士林區仰德大道二段2巷50號1F"
  },
  {
    "name": "林語堂故居1F展覽室後方",
    "lat": 25.1095203,
    "lng": 121.5469438,
    "address": "111臺北市士林區仰德大道二段141號1F"
  },
  {
    "name": "林語堂故居1F閱讀研討室中央",
    "lat": 25.1097253,
    "lng": 121.5473271,
    "address": "111臺北市士林區仰德大道二段141號1F"
  },
  {
    "name": "士林臨溪區民活動中心1F中央",
    "lat": 25.1012122,
    "lng": 121.5523141,
    "address": "111臺北市士林區至善路二段286號1F"
  }
]