[
  {
    "name": "八里龍形郵局",
    "lat": 25.131166,
    "lng": 121.450549,
    "address": "249新北市八里區龍形二街7號"
  },
  {
    "name": "北投一德郵局",
    "lat": 25.1278777,
    "lng": 121.4679751,
    "address": "112臺北市北投區中央北路四段529號"
  },
  {
    "name": "淡水竹圍郵局",
    "lat": 25.138803,
    "lng": 121.4599,
    "address": "251新北市淡水區民權路75號"
  },
  {
    "name": "淡水紅樹林郵局",
    "lat": 25.154912,
    "lng": 121.459673,
    "address": "251新北市淡水區中正東路二段61號"
  },
  {
    "name": "中油公司台北市北投區中央北路站",
    "lat": 25.1271014,
    "lng": 121.466322,
    "address": "112臺北市北投區中央北路四段584號"
  },
  {
    "name": "國立臺北藝術大學寶萊納餐廳戶外區",
    "lat": 25.1317665,
    "lng": 121.4664379,
    "address": "112臺北市北投區學園路一號"
  },
  {
    "name": "國立臺北藝術大學藝大書店/藝大咖啡戶外區",
    "lat": 25.132588,
    "lng": 121.46936,
    "address": "112臺北市北投區學園路一號"
  },
  {
    "name": "國立臺北藝術大學魯旦.川鍋餐廳戶外區",
    "lat": 25.132588,
    "lng": 121.46936,
    "address": "112臺北市北投區學園路一號"
  },
  {
    "name": "新北市淡水區民權里辦公處",
    "lat": 25.134585,
    "lng": 121.461967,
    "address": "251新北市淡水區民權里民族路112巷32號"
  },
  {
    "name": "社團法人台灣多元社會福利協會(淡水民權站)",
    "lat": 25.135091,
    "lng": 121.460326,
    "address": "251新北市淡水區民權里民權路177巷10號"
  },
  {
    "name": "社團法人中華民國金燈台幸福關懷協會",
    "lat": 25.13609,
    "lng": 121.462232,
    "address": "251新北市淡水區竹圍里民族路31巷1號B1"
  },
  {
    "name": "龍米社區發展協會",
    "lat": 25.131962,
    "lng": 121.451074,
    "address": "249新北市八里區龍源里龍米路一段223之1號"
  },
  {
    "name": "新北市淡水區關懷弱勢協會",
    "lat": 25.140062,
    "lng": 121.462553,
    "address": "251新北市淡水區民生里大同路28之2號"
  },
  {
    "name": "臺北城市大學(正門)-E-學園路",
    "lat": 25.1326685,
    "lng": 121.4686994,
    "address": "112臺北市北投區學園路2號候車亭"
  },
  {
    "name": "關渡國小-E-中央北路四段",
    "lat": 25.126874,
    "lng": 121.466407,
    "address": "112臺北市北投區中央北路四段584號斜對面候車亭"
  },
  {
    "name": "桃源國中-S-中央北路四段",
    "lat": 25.1340991,
    "lng": 121.4769201,
    "address": "112臺北市北投區中央北路四段78號對面候車亭"
  }
]