[
  {
    "name": "花蓮縣壽豐鄉壽豐部落2",
    "lat": 23.8701,
    "lng": 121.50681,
    "address": "974花蓮縣壽豐鄉壽豐村公園路28巷3號"
  },
  {
    "name": "花蓮縣壽豐鄉公所1樓大廳",
    "lat": 23.870406,
    "lng": 121.508633,
    "address": "974花蓮縣壽豐鄉壽豐村壽山路26號"
  },
  {
    "name": "花蓮縣壽豐鄉壽豐國民小學",
    "lat": 23.870474,
    "lng": 121.507995,
    "address": "974花蓮縣壽豐鄉壽豐村壽山路37號"
  },
  {
    "name": "花蓮縣壽豐鄉戶政事務所",
    "lat": 23.870055,
    "lng": 121.509244,
    "address": "974花蓮縣壽豐鄉壽豐村壽山路24號"
  },
  {
    "name": "花蓮縣壽豐鄉公所",
    "lat": 23.870312,
    "lng": 121.508838,
    "address": "974花蓮縣壽豐鄉壽豐村壽山路26號"
  },
  {
    "name": "花蓮縣壽豐鄉圖書館",
    "lat": 23.870989,
    "lng": 121.5077,
    "address": "974花蓮縣壽豐鄉壽豐村壽山路62號"
  },
  {
    "name": "花蓮縣衛生局壽豐鄉衛生所",
    "lat": 23.868547,
    "lng": 121.507373,
    "address": "974花蓮縣壽豐鄉壽豐村公園路28巷10號"
  }
]