[
  {
    "name": "台北東園郵局",
    "lat": 25.0233783,
    "lng": 121.4975532,
    "address": "108臺北市萬華區東園街148、150號"
  },
  {
    "name": "台北青年郵局",
    "lat": 25.0249068,
    "lng": 121.5081939,
    "address": "108臺北市萬華區國興路34、36、38號"
  },
  {
    "name": "台北莒光郵局",
    "lat": 25.0313869,
    "lng": 121.501124,
    "address": "108臺北市萬華區莒光路210號"
  },
  {
    "name": "台北萬大路郵局",
    "lat": 25.018884,
    "lng": 121.496776,
    "address": "108臺北市萬華區萬大路524號"
  },
  {
    "name": "永和中山路郵局",
    "lat": 25.007611,
    "lng": 121.50779,
    "address": "234新北市永和區中山路一段249、251號"
  },
  {
    "name": "板橋光復橋郵局",
    "lat": 25.021733,
    "lng": 121.484627,
    "address": "220新北市板橋區中山路二段422-13號"
  },
  {
    "name": "公路總局1樓",
    "lat": 25.026553,
    "lng": 121.496308,
    "address": "108臺北市萬華區東園街65號"
  },
  {
    "name": "臺鐵局萬華站候車大廳",
    "lat": 25.033435,
    "lng": 121.500428,
    "address": "108臺北市萬華區康定路382號"
  },
  {
    "name": "財政部北區國稅局中和稽徵所",
    "lat": 25.006138,
    "lng": 121.484113,
    "address": "235新北市中和區中正路866號9樓"
  },
  {
    "name": "中油公司台北直銷中心",
    "lat": 25.0314332,
    "lng": 121.5071469,
    "address": "100臺北市中正區莒光路2號2樓"
  },
  {
    "name": "兆豐國際商銀中和分行",
    "lat": 25.003595,
    "lng": 121.502609,
    "address": "235新北市中和區中山路二段124號"
  },
  {
    "name": "漁業署和平大樓6樓圖書室",
    "lat": 25.029931,
    "lng": 121.510062,
    "address": "100臺北市中正區和平西路二段100號6樓"
  },
  {
    "name": "漁業署和平大樓7樓會議室",
    "lat": 25.029931,
    "lng": 121.510062,
    "address": "100臺北市中正區和平西路二段100號7樓"
  },
  {
    "name": "漁業署和平大樓8樓會議室",
    "lat": 25.029931,
    "lng": 121.510062,
    "address": "100臺北市中正區和平西路二段100號8樓"
  },
  {
    "name": "農業部林業及自然保育署航測及遙測分署",
    "lat": 25.030166,
    "lng": 121.509398,
    "address": "100臺北市中正區和平西路二段100號1樓"
  },
  {
    "name": "臺灣土地銀行雙和分行",
    "lat": 25.0037933,
    "lng": 121.5027677,
    "address": "235新北市中和區中山路二段120號"
  },
  {
    "name": "臺灣土地銀行萬華分行",
    "lat": 25.0273938,
    "lng": 121.4945122,
    "address": "108臺北市萬華區西園路二段205號"
  },
  {
    "name": "財政部臺北國稅局萬華稽徵所1樓民眾服務區",
    "lat": 25.03025,
    "lng": 121.49996,
    "address": "108臺北市萬華區萬大路90巷1號"
  },
  {
    "name": "臺鐵局萬華站第1月台8車位置",
    "lat": 25.033435,
    "lng": 121.500428,
    "address": "108臺北市萬華區康定路382號"
  },
  {
    "name": "臺鐵局萬華站第2月台5車位置",
    "lat": 25.033435,
    "lng": 121.500428,
    "address": "108臺北市萬華區康定路382號"
  },
  {
    "name": "華南商業銀行雙園分行",
    "lat": 25.029367,
    "lng": 121.502051,
    "address": "108臺北市萬華區西藏路127號"
  },
  {
    "name": "華南商業銀行埔墘分行",
    "lat": 25.017372,
    "lng": 121.479556,
    "address": "220新北市板橋區三民路二段37號"
  },
  {
    "name": "華南商業銀行積穗分行",
    "lat": 25.005234,
    "lng": 121.48304,
    "address": "235新北市中和區中山路二段562號"
  },
  {
    "name": "第一商業銀行(雙園分行)",
    "lat": 25.0327636,
    "lng": 121.5047974,
    "address": "108臺北市萬華區中華路二段42號"
  },
  {
    "name": "漁業署和平大樓4樓會議室",
    "lat": 25.029931,
    "lng": 121.510062,
    "address": "100臺北市中正區和平西路二段100號4樓"
  },
  {
    "name": "臺鐵局萬華站第1月台6車處",
    "lat": 25.033435,
    "lng": 121.500428,
    "address": "108臺北市萬華區富福里康定路382號"
  },
  {
    "name": "臺鐵局萬華站第2月台9車處",
    "lat": 25.033435,
    "lng": 121.500428,
    "address": "108臺北市萬華區富福里康定路382號"
  },
  {
    "name": "新北市崇德光慧經典教育推廣協會(中和碧河分站)",
    "lat": 25.0044,
    "lng": 121.486026,
    "address": "235新北市中和區碧河里中山路二段415號六樓"
  },
  {
    "name": "福美里辦公室",
    "lat": 25.006992,
    "lng": 121.499554,
    "address": "235新北市中和區福美里莊敬路49巷15弄1號"
  },
  {
    "name": "主愛社會關懷協會",
    "lat": 25.024762,
    "lng": 121.508714,
    "address": "108臺北市萬華區凌霄里中華路二段504巷43號一樓"
  },
  {
    "name": "臺北市萬華區銘德里辦公處",
    "lat": 25.021597,
    "lng": 121.495144,
    "address": "108臺北市萬華區銘德里長泰街219號一樓"
  },
  {
    "name": "財團法人環宇國際文化教育基金會(萬華)",
    "lat": 25.02488,
    "lng": 121.49476,
    "address": "108臺北市萬華區錦德里寶興街136號一樓"
  },
  {
    "name": "財團法人天主教單國璽弱勢族群社福基金會",
    "lat": 25.029159,
    "lng": 121.498702,
    "address": "108臺北市萬華區日善里西藏路201號"
  },
  {
    "name": "中華民國雙囍老人義務教育推廣協會",
    "lat": 25.021563,
    "lng": 121.499059,
    "address": "108臺北市萬華區壽德里萬大路411號二樓萬青區民活動中心"
  },
  {
    "name": "臺北市萬華區新和里辦公處",
    "lat": 25.027007,
    "lng": 121.5042,
    "address": "108臺北市萬華區新和里中華路二段416巷13之1號一樓"
  },
  {
    "name": "臺北市萬華區忠德里辦公處",
    "lat": 25.025047,
    "lng": 121.495636,
    "address": "108臺北市萬華區忠德里東園街66巷24弄1號一樓"
  },
  {
    "name": "新北市永和區水源社區發展協會",
    "lat": 25.004863,
    "lng": 121.509801,
    "address": "234新北市永和區水源里保平路177巷6弄2號"
  },
  {
    "name": "新北市銀光志工協會(港嘴站)",
    "lat": 25.026011,
    "lng": 121.481286,
    "address": "220新北市板橋區港嘴里縣民大道三段245巷1號"
  },
  {
    "name": "社團法人新北市銀髮族協會",
    "lat": 25.004088,
    "lng": 121.502767,
    "address": "235新北市中和區佳和里中山路二段116巷2號"
  },
  {
    "name": "新北市永和區保平里辦公處",
    "lat": 25.006427,
    "lng": 121.50767,
    "address": "234新北市永和區保平路16鄰268巷28號一樓"
  },
  {
    "name": "新北市耆光協會",
    "lat": 25.025719,
    "lng": 121.480498,
    "address": "220新北市板橋區港嘴里4鄰文聖街227號"
  },
  {
    "name": "新北市大新板愛心關懷協會(板橋文聖站)",
    "lat": 25.028727,
    "lng": 121.479576,
    "address": "220新北市板橋區文聖里文聖街149巷27號一樓"
  },
  {
    "name": "臺北市萬華區壽德里辦公處",
    "lat": 25.023141,
    "lng": 121.500326,
    "address": "108臺北市萬華區壽德里長泰街45號"
  },
  {
    "name": "財團法人一粒麥子社會福利慈善事業基金會(萬華)",
    "lat": 25.025392,
    "lng": 121.503491,
    "address": "108臺北市萬華區忠貞里青年路52號一樓之2"
  },
  {
    "name": "臺北市萬華區保德社區發展協會",
    "lat": 25.023338,
    "lng": 121.497132,
    "address": "108臺北市萬華區保德里東園街140巷8號"
  },
  {
    "name": "臺北市永昌長青會",
    "lat": 25.026509,
    "lng": 121.510075,
    "address": "100臺北市中正區永昌里寧波西街181巷24號一樓"
  },
  {
    "name": "臺北市萬華區萬大社區發展協會",
    "lat": 25.023726,
    "lng": 121.501117,
    "address": "108臺北市萬華區壽德里萬大路329巷4號1樓"
  },
  {
    "name": "新北市板橋區振興里辦公處",
    "lat": 25.023745,
    "lng": 121.481842,
    "address": "220新北市板橋區振興里9鄰翠華街6巷1弄15號"
  },
  {
    "name": "新北市永和區和平里辦公處",
    "lat": 25.006648,
    "lng": 121.508725,
    "address": "234新北市永和區和平里保平路236巷12弄7號"
  },
  {
    "name": "新北市板橋區中山社區發展協會",
    "lat": 25.019854,
    "lng": 121.484951,
    "address": "220新北市板橋區光復里光復街133巷5號"
  },
  {
    "name": "新北市中和區慈心關懷協會",
    "lat": 25.00665,
    "lng": 121.480416,
    "address": "235新北市中和區員山里員山路466巷19號"
  },
  {
    "name": "新北市永和區大同社區發展協會",
    "lat": 25.013843,
    "lng": 121.505814,
    "address": "234新北市永和區新生里永平路368號"
  },
  {
    "name": "財團法人新北市基督教喜樂城靈糧堂-中正站",
    "lat": 25.006465,
    "lng": 121.483546,
    "address": "235新北市中和區中原里中正路911號四樓"
  },
  {
    "name": "新北市慈光身心障礙者公益服務協會",
    "lat": 25.005266,
    "lng": 121.504095,
    "address": "235新北市中和區佳和里中山路二段64巷12弄12號一樓"
  },
  {
    "name": "臺北市萬華區綠堤里辦公處",
    "lat": 25.031592,
    "lng": 121.492183,
    "address": "108臺北市萬華區綠堤里雙園街91號"
  },
  {
    "name": "財團法人天主教聖母聖心會(萬華小德蘭堂)",
    "lat": 25.032239,
    "lng": 121.499562,
    "address": "108臺北市萬華區雙園里興寧街70號"
  },
  {
    "name": "財團法人台北市中國基督教靈糧世界佈道會台北靈糧堂(雙園靈糧福音中心)",
    "lat": 25.025355,
    "lng": 121.491631,
    "address": "108臺北市萬華區和德里西園路2段362號"
  },
  {
    "name": "臺北市萬華區忠貞里辦公處",
    "lat": 25.024609,
    "lng": 121.502784,
    "address": "108臺北市萬華區忠貞里青年路58號"
  },
  {
    "name": "台北市萬華區馬場町社區發展協會",
    "lat": 25.024232,
    "lng": 121.508808,
    "address": "108臺北市萬華區騰雲里國興路1巷2之4號"
  },
  {
    "name": "台北市萬華區新忠里辦公處",
    "lat": 25.028797,
    "lng": 121.50233,
    "address": "108臺北市萬華區新忠里西藏路125巷7號一樓(里民活動場所)"
  },
  {
    "name": "社團法人善志生命教育發展協會(永和新生分站)",
    "lat": 25.013843,
    "lng": 121.505814,
    "address": "234新北市永和區新生里永平路368號二樓(永平市民活動中心)"
  },
  {
    "name": "財團法人新北市基督教新希望教會",
    "lat": 25.016563,
    "lng": 121.508731,
    "address": "234新北市永和區永成里環河西路二段9之2號"
  },
  {
    "name": "臺北市臻佶祥社會服務協會",
    "lat": 25.028,
    "lng": 121.507,
    "address": "100臺北市中正區忠勤里中華路二段315巷14號"
  },
  {
    "name": "臺北市大安區龍圖里辦公處",
    "lat": 25.031,
    "lng": 121.491,
    "address": "106臺北市大安區龍圖里瑞安街176號"
  },
  {
    "name": "臺北市萬華區青年社區發展協會",
    "lat": 25.033,
    "lng": 121.496,
    "address": "108臺北市萬華區新和里中華路二段416巷9-3號(青年國宅)"
  },
  {
    "name": "社團法人中華民國天元慈善功德會",
    "lat": 25.013,
    "lng": 121.481,
    "address": "220新北市板橋區鄉雲里10鄰四川路二段16巷5號十樓(一層樓打通)"
  },
  {
    "name": "青年公園-E-青年路",
    "lat": 25.0259378,
    "lng": 121.5062175,
    "address": "108臺北市萬華區青年路6號對面候車亭"
  },
  {
    "name": "青年社區-E-青年路",
    "lat": 25.0254715,
    "lng": 121.5046729,
    "address": "108臺北市萬華區青年路32號對面候車亭"
  },
  {
    "name": "青年路-E-青年路",
    "lat": 25.0232161,
    "lng": 121.5027548,
    "address": "108臺北市萬華區青年路80號對面候車亭"
  },
  {
    "name": "中正新城-N-青年路",
    "lat": 25.024814,
    "lng": 121.503143,
    "address": "108臺北市萬華區青年路56號對面候車亭"
  },
  {
    "name": "萬大國小-N1-萬大路",
    "lat": 25.02388,
    "lng": 121.50021,
    "address": "108臺北市萬華區萬大路333號號旁候車亭"
  },
  {
    "name": "國盛國宅-N-南海路",
    "lat": 25.027818,
    "lng": 121.508018,
    "address": "100臺北市中正區南海路110號旁候車亭"
  },
  {
    "name": "古亭國中-E-中華路二段",
    "lat": 25.0246877,
    "lng": 121.5098425,
    "address": "108臺北市萬華區中華路二段602之1號旁候車亭"
  },
  {
    "name": "國興路口-N-中華路二段",
    "lat": 25.0256735,
    "lng": 121.5083385,
    "address": "100臺北市中正區中華路二段413號前候車亭"
  },
  {
    "name": "國盛國宅-S-南海路",
    "lat": 25.027822,
    "lng": 121.507736,
    "address": "100臺北市中正區南海路103號旁候車亭"
  },
  {
    "name": "西園29服飾基地-N-西園路二段",
    "lat": 25.032466,
    "lng": 121.497734,
    "address": "108臺北市萬華區西園路二段32號旁候車亭"
  },
  {
    "name": "西園29服飾基地-S-西園路二段",
    "lat": 25.0325043,
    "lng": 121.4974437,
    "address": "108臺北市萬華區西園路二段32號斜對面候車亭"
  },
  {
    "name": "青年路派出所-E-萬大路",
    "lat": 25.021945,
    "lng": 121.502059,
    "address": "108臺北市萬華區萬大路423巷110號候車亭"
  },
  {
    "name": "綜合市場-N-環河南路二段",
    "lat": 25.030855,
    "lng": 121.490455,
    "address": "108臺北市萬華區環河南路二段312號對面候車亭"
  },
  {
    "name": "光仁國小-E-萬大路",
    "lat": 25.021064,
    "lng": 121.500053,
    "address": "108臺北市萬華區萬大路423巷33號對面候車亭"
  },
  {
    "name": "國興路口-S-中華路二段",
    "lat": 25.0255882,
    "lng": 121.5083187,
    "address": "108臺北市萬華區中華路二段520號前候車亭"
  },
  {
    "name": "國興路口一-S-國興路",
    "lat": 25.0245644,
    "lng": 121.508777,
    "address": "108臺北市萬華區國興路12號對面候車亭"
  },
  {
    "name": "青年公園(國興)-S-國興路",
    "lat": 25.025326,
    "lng": 121.5071372,
    "address": "108臺北市萬華區國興路46號對面候車亭"
  },
  {
    "name": "中華南海路口-N-中華路二段",
    "lat": 25.0271855,
    "lng": 121.5066916,
    "address": "100臺北市中正區中華路二段337號旁候車亭"
  },
  {
    "name": "時報大樓-E-艋舺大道",
    "lat": 25.032936,
    "lng": 121.497016,
    "address": "108臺北市萬華區艋舺大道297號對面候車亭"
  },
  {
    "name": "西園路二段-S-西園路二段",
    "lat": 25.026622,
    "lng": 121.493186,
    "address": "108臺北市萬華區西園路二段296號旁候車亭"
  },
  {
    "name": "青年公園(國興)-國興路",
    "lat": 25.0245349,
    "lng": 121.5079851,
    "address": "108臺北市萬華區國興路30號候車亭"
  },
  {
    "name": "華中河濱公園-N-萬大路",
    "lat": 25.017148,
    "lng": 121.496109,
    "address": "108臺北市萬華區萬大路628號對面候車亭"
  },
  {
    "name": "青年公園正門-W-水源路",
    "lat": 25.0218064,
    "lng": 121.506872,
    "address": "108臺北市萬華區水源路199號旁候車亭"
  },
  {
    "name": "國興社區-N-國興路",
    "lat": 25.0235305,
    "lng": 121.5085345,
    "address": "108臺北市萬華區國興路1巷8號旁候車亭"
  },
  {
    "name": "雙園街口-E-艋舺大道",
    "lat": 25.031116,
    "lng": 121.494384,
    "address": "108臺北市萬華區艋舺大道389號對面候車亭"
  },
  {
    "name": "青年公園-游泳池-前廣場",
    "lat": 25.02333482,
    "lng": 121.5064703,
    "address": "108臺北市萬華區水源路199號游泳池前廣場"
  },
  {
    "name": "青年公園-棒球場-一壘看臺",
    "lat": 25.0230623,
    "lng": 121.5033864,
    "address": "108臺北市萬華區水源路199號棒球場1壘看臺"
  },
  {
    "name": "青年公園-棒球場-三壘看臺",
    "lat": 25.0231726,
    "lng": 121.503314,
    "address": "108臺北市萬華區水源路199號棒球場3壘看臺"
  },
  {
    "name": "青年公園-音樂臺",
    "lat": 25.0220619,
    "lng": 121.5052791,
    "address": "108臺北市萬華區水源路199號音樂舞台東側斜前方燈桿"
  },
  {
    "name": "青年公園-公廁-狗馬桶",
    "lat": 25.0211666,
    "lng": 121.5045166,
    "address": "108臺北市萬華區水源路199號1號公廁狗馬桶上外牆"
  },
  {
    "name": "青年公園-公廁-籃球場",
    "lat": 25.0213078,
    "lng": 121.5044653,
    "address": "108臺北市萬華區水源路199號1號公廁外牆"
  },
  {
    "name": "青年公園-網球場",
    "lat": 25.0215141,
    "lng": 121.5033811,
    "address": "108臺北市萬華區水源路199號網球場旁外牆上"
  },
  {
    "name": "青年公園-沙坑",
    "lat": 25.0256915,
    "lng": 121.5062145,
    "address": "108臺北市萬華區水源路199號沙坑旁外牆"
  },
  {
    "name": "雙園街口-W-艋舺大道",
    "lat": 25.0311467,
    "lng": 121.4938525,
    "address": "108臺北市萬華區艋舺大道389號旁候車亭"
  },
  {
    "name": "青年公園-萬華故事館-入口處",
    "lat": 25.0239856,
    "lng": 121.506644,
    "address": "108臺北市萬華區水源路199號萬華故事館入口處"
  },
  {
    "name": "環南中繼市場AP1-B2-43-44車格中間",
    "lat": 25.0289639,
    "lng": 121.4898607,
    "address": "108臺北市萬華區環河南路二段245號B2"
  },
  {
    "name": "環南中繼市場AP2-B2-83-84車格中間",
    "lat": 25.0288023,
    "lng": 121.4897688,
    "address": "108臺北市萬華區環河南路二段245號B2"
  },
  {
    "name": "環南中繼市場AP3-B2-14-15車格中間",
    "lat": 25.0286884,
    "lng": 121.4896961,
    "address": "108臺北市萬華區環河南路二段245號B2"
  },
  {
    "name": "環南中繼市場AP4-B2-98-99車格中間",
    "lat": 25.0290201,
    "lng": 121.4895137,
    "address": "108臺北市萬華區環河南路二段245號B2"
  },
  {
    "name": "環南中繼市場AP1-1F-23號攤位前",
    "lat": 25.0283773,
    "lng": 121.4898969,
    "address": "108臺北市萬華區環河南路二段245號1F"
  },
  {
    "name": "環南中繼市場AP2-1F-141號攤位前",
    "lat": 25.0285608,
    "lng": 121.4896176,
    "address": "108臺北市萬華區環河南路二段245號1F"
  },
  {
    "name": "環南中繼市場AP3-1F-250號攤位前",
    "lat": 25.0287823,
    "lng": 121.4894155,
    "address": "108臺北市萬華區環河南路二段245號1F"
  },
  {
    "name": "環南中繼市場AP4-1F-262號攤位前",
    "lat": 25.0289682,
    "lng": 121.489562,
    "address": "108臺北市萬華區環河南路二段245號1F"
  },
  {
    "name": "環南中繼市場AP5-1F-119號攤位前",
    "lat": 25.0287498,
    "lng": 121.4898594,
    "address": "108臺北市萬華區環河南路二段245號1F"
  },
  {
    "name": "環南中繼市場AP6-1F-135號攤位前",
    "lat": 25.0286228,
    "lng": 121.4901323,
    "address": "108臺北市萬華區環河南路二段245號1F"
  },
  {
    "name": "環南中繼市場AP1-2F-99號攤位前",
    "lat": 25.0285875,
    "lng": 121.4898788,
    "address": "108臺北市萬華區環河南路二段245號2F"
  },
  {
    "name": "環南中繼市場AP2-2F-27號攤位前",
    "lat": 25.0287048,
    "lng": 121.4897977,
    "address": "108臺北市萬華區環河南路二段245號2F"
  },
  {
    "name": "環南中繼市場AP3-2F-43號攤位前",
    "lat": 25.0287987,
    "lng": 121.4896904,
    "address": "108臺北市萬華區環河南路二段245號2F"
  },
  {
    "name": "環南中繼市場-AP4-2F-86號攤位前",
    "lat": 25.0285635,
    "lng": 121.489396,
    "address": "108臺北市萬華區環河南路二段245號2F"
  },
  {
    "name": "環南中繼市場AP5-2F-48號攤位前",
    "lat": 25.0284277,
    "lng": 121.4895342,
    "address": "108臺北市萬華區環河南路二段245號2F"
  },
  {
    "name": "環南中繼市場AP6-2F-35號攤位前",
    "lat": 25.0283445,
    "lng": 121.48962,
    "address": "108臺北市萬華區環河南路二段245號2F"
  },
  {
    "name": "環南中繼市場AP1-3F-313販售準備區",
    "lat": 25.028449,
    "lng": 121.4896746,
    "address": "108臺北市萬華區環河南路二段245號3F"
  },
  {
    "name": "環南中繼市場AP2-3F-308販售準備區",
    "lat": 25.02862,
    "lng": 121.489684,
    "address": "108臺北市萬華區環河南路二段245號3F"
  },
  {
    "name": "環南中繼市場AP3-3F-80-81車格中間",
    "lat": 25.0287695,
    "lng": 121.4896787,
    "address": "108臺北市萬華區環河南路二段245號3F"
  },
  {
    "name": "環南中繼市場AP4-3F-78-79車格中間",
    "lat": 25.0287391,
    "lng": 121.4897343,
    "address": "108臺北市萬華區環河南路二段245號3F"
  },
  {
    "name": "環南中繼市場AP5-3F女廁旁",
    "lat": 25.0282728,
    "lng": 121.489851,
    "address": "108臺北市萬華區環河南路二段245號3F"
  },
  {
    "name": "環南中繼市場AP6-3F總幹事辦公室",
    "lat": 25.0282409,
    "lng": 121.4897977,
    "address": "108臺北市萬華區環河南路二段245號3F"
  },
  {
    "name": "環南中繼市場-4F-機械室旁",
    "lat": 25.0281899,
    "lng": 121.489737,
    "address": "108臺北市萬華區環河南路二段245號4F"
  },
  {
    "name": "青年公園-4號公廁",
    "lat": 25.0222776,
    "lng": 121.5028688,
    "address": "108臺北市萬華區水源路199號4號公廁後方上方外牆"
  },
  {
    "name": "青年公園-5號公廁",
    "lat": 25.0251744,
    "lng": 121.5043289,
    "address": "108臺北市萬華區水源路199號5號公廁上方外牆"
  },
  {
    "name": "青年公園-7號高壓變電所",
    "lat": 25.0243945,
    "lng": 121.5059114,
    "address": "108臺北市萬華區水源路199號7號高壓變電亭旁"
  },
  {
    "name": "青年社宅-管理室",
    "lat": 25.0202044,
    "lng": 121.5037311,
    "address": "108臺北市萬華區青年路188號1F"
  },
  {
    "name": "青年社宅-社區公園",
    "lat": 25.0200932,
    "lng": 121.503771,
    "address": "108臺北市萬華區青年路188號1F"
  },
  {
    "name": "中華南海路口-S-中華路二段",
    "lat": 25.0274401,
    "lng": 121.5064019,
    "address": "108臺北市萬華區中華路二段432號候車亭"
  },
  {
    "name": "就業服務處艋舺就業服務站3F書寫區",
    "lat": 25.0333233,
    "lng": 121.5013791,
    "address": "108臺北市萬華區艋舺大道101號3F"
  },
  {
    "name": "婦女館3F服務臺旁座位區",
    "lat": 25.0335554,
    "lng": 121.5013256,
    "address": "108臺北市萬華區艋舺大道101號3F"
  },
  {
    "name": "婦女館3F教室門口",
    "lat": 25.0333679,
    "lng": 121.5010016,
    "address": "108臺北市萬華區艋舺大道101號3F"
  },
  {
    "name": "萬華富福區民活動中心3F東側入口",
    "lat": 25.0333233,
    "lng": 121.5013791,
    "address": "108臺北市萬華區艋舺大道101號3F"
  },
  {
    "name": "萬華光復區民活動中心1F辦公室",
    "lat": 25.0252362,
    "lng": 121.4914881,
    "address": "108臺北市萬華區西園路二段370之1號1F"
  },
  {
    "name": "萬華長順區民活動中心1F舞臺前",
    "lat": 25.0330091,
    "lng": 121.4890797,
    "address": "108臺北市萬華區長順街臨127號1F"
  },
  {
    "name": "萬華頂碩區民活動中心3F入口",
    "lat": 25.0321795,
    "lng": 121.5020869,
    "address": "108臺北市萬華區興寧街2號3F"
  },
  {
    "name": "萬華萬華區民活動中心2F舞臺前方",
    "lat": 25.0278326,
    "lng": 121.4957492,
    "address": "108臺北市萬華區東園街19號2F"
  },
  {
    "name": "萬華萬大第一區民活動中心1F中央",
    "lat": 25.017291,
    "lng": 121.4957692,
    "address": "108臺北市萬華區萬大路614-1號1F"
  },
  {
    "name": "萬華萬大第二區民活動中心1F第二個入口處",
    "lat": 25.017564,
    "lng": 121.4960532,
    "address": "108臺北市萬華區萬大路600-1號1F"
  },
  {
    "name": "圖書館西園分館3F自修室中央",
    "lat": 25.0321785,
    "lng": 121.5017135,
    "address": "108臺北市萬華區興寧街6號3F"
  },
  {
    "name": "圖書館西園分館4F電腦區",
    "lat": 25.0324045,
    "lng": 121.5016968,
    "address": "108臺北市萬華區興寧街6號4F"
  },
  {
    "name": "圖書館西園分館5F兒童閱覽區前",
    "lat": 25.0322685,
    "lng": 121.5016557,
    "address": "108臺北市萬華區興寧街6號5F"
  },
  {
    "name": "圖書館西園分館6F宗教類與科學類應用科學區前",
    "lat": 25.0321785,
    "lng": 121.5017135,
    "address": "108臺北市萬華區興寧街6號6F"
  },
  {
    "name": "圖書館東園分館1F門口",
    "lat": 25.02273,
    "lng": 121.4981146,
    "address": "108臺北市萬華區東園街199號"
  },
  {
    "name": "圖書館東園分館2F期刊室",
    "lat": 25.0226003,
    "lng": 121.4979686,
    "address": "108臺北市萬華區東園街199號"
  },
  {
    "name": "圖書館東園分館3F書庫區門口",
    "lat": 25.0226512,
    "lng": 121.4981136,
    "address": "108臺北市萬華區東園街199號"
  },
  {
    "name": "圖書館東園分館4F自修室",
    "lat": 25.0226519,
    "lng": 121.4981038,
    "address": "108臺北市萬華區東園街199號"
  },
  {
    "name": "圖書館太陽圖書館1F暨節能展示館門口",
    "lat": 25.0247357,
    "lng": 121.503668,
    "address": "108臺北市萬華區青年路65號1F"
  },
  {
    "name": "圖書館萬華分館5F第五書櫃走廊",
    "lat": 25.0278846,
    "lng": 121.4958048,
    "address": "108臺北市萬華區東園街19號5F"
  },
  {
    "name": "圖書館萬華分館6F綜合服務臺前",
    "lat": 25.0277872,
    "lng": 121.4957331,
    "address": "108臺北市萬華區東園街19號6F"
  },
  {
    "name": "圖書館萬華分館7F學習e樂園門口",
    "lat": 25.0278126,
    "lng": 121.4958058,
    "address": "108臺北市萬華區東園街19號7F"
  },
  {
    "name": "萬華萬青區民活動中心2F走廊",
    "lat": 25.0214409,
    "lng": 121.4992407,
    "address": "108臺北市萬華區萬大路411號2F"
  },
  {
    "name": "萬華區健康服務中心A棟2F悠活萬華櫃台西側",
    "lat": 25.023182,
    "lng": 121.4976352,
    "address": "108臺北市萬華區東園街152號A棟2F"
  },
  {
    "name": "萬華區健康服務中心A棟3F行政收發台後方",
    "lat": 25.0230687,
    "lng": 121.4976284,
    "address": "108臺北市萬華區東園街152號A棟3F"
  },
  {
    "name": "萬華區健康服務中心A棟4F主任室門口前",
    "lat": 25.0230894,
    "lng": 121.4977045,
    "address": "108臺北市萬華區東園街152號A棟4F"
  },
  {
    "name": "萬華區健康服務中心B棟1F廁所門外",
    "lat": 25.023018,
    "lng": 121.4976093,
    "address": "108臺北市萬華區東園街152號B棟1F"
  },
  {
    "name": "萬華區健康服務中心B棟2F會議室門口內前",
    "lat": 25.0230177,
    "lng": 121.4976146,
    "address": "108臺北市萬華區東園街152號B棟2F"
  },
  {
    "name": "中正社會福利中心6F會議室門口",
    "lat": 25.0326119,
    "lng": 121.507705,
    "address": "100臺北市中正區延平南路207號6F"
  },
  {
    "name": "糖業文化展示館1F值班室門外",
    "lat": 25.0333817,
    "lng": 121.4943523,
    "address": "108臺北市萬華區大理街132-10號1F"
  },
  {
    "name": "西區少年服務中心1F休閒區",
    "lat": 25.0279247,
    "lng": 121.4957273,
    "address": "108臺北市萬華區東園街19號1F"
  },
  {
    "name": "萬華婦女暨家庭服務中心4F教室門口",
    "lat": 25.0279247,
    "lng": 121.4957273,
    "address": "108臺北市萬華區東園街19號4F"
  },
  {
    "name": "圖書館太陽圖書館2F行政辦公室門口",
    "lat": 25.0247097,
    "lng": 121.5037094,
    "address": "108臺北市萬華區青年路65號2F"
  },
  {
    "name": "萬華日祥區民活動中心1F教室二門口",
    "lat": 25.02044,
    "lng": 121.50303,
    "address": "108臺北市萬華區青年路180號1樓"
  },
  {
    "name": "圖書館太陽圖書館1F後方",
    "lat": 25.0247011,
    "lng": 121.5037536,
    "address": "108臺北市萬華區青年路65號1F"
  },
  {
    "name": "萬華區健康服務中心A棟1F櫃台前",
    "lat": 25.0230903,
    "lng": 121.4977182,
    "address": "108臺北市萬華區東園街152號A棟1F"
  },
  {
    "name": "第一果菜批發市場-地號210",
    "lat": 25.0185252,
    "lng": 121.4974367,
    "address": "108臺北市萬華區萬大路533號1樓"
  },
  {
    "name": "第一果菜批發市場-地號610",
    "lat": 25.0183159,
    "lng": 121.4976599,
    "address": "108臺北市萬華區萬大路533號1樓"
  },
  {
    "name": "第一果菜批發市場-地號1010",
    "lat": 25.0182828,
    "lng": 121.4978587,
    "address": "108臺北市萬華區萬大路533號1樓"
  },
  {
    "name": "第一果菜批發市場-地號1411",
    "lat": 25.0182032,
    "lng": 121.4980039,
    "address": "108臺北市萬華區萬大路533號1樓"
  },
  {
    "name": "第一果菜批發市場-地號0508",
    "lat": 25.017865,
    "lng": 121.4980857,
    "address": "108臺北市萬華區萬大路533號1樓"
  },
  {
    "name": "第一果菜批發市場-地號0908",
    "lat": 25.018081,
    "lng": 121.4980237,
    "address": "108臺北市萬華區萬大路533號1樓"
  },
  {
    "name": "第一果菜批發市場-地號419",
    "lat": 25.0185185,
    "lng": 121.4975027,
    "address": "108臺北市萬華區萬大路533號1樓"
  },
  {
    "name": "第一果菜批發市場-地號819",
    "lat": 25.0184632,
    "lng": 121.4976183,
    "address": "108臺北市萬華區萬大路533號1樓"
  },
  {
    "name": "第一果菜批發市場-地號1319",
    "lat": 25.0183979,
    "lng": 121.4978286,
    "address": "108臺北市萬華區萬大路533號1樓"
  },
  {
    "name": "第一果菜批發市場-地號4407",
    "lat": 25.0182427,
    "lng": 121.497957,
    "address": "108臺北市萬華區萬大路533號1樓"
  },
  {
    "name": "第一果菜批發市場-地號0715",
    "lat": 25.0181603,
    "lng": 121.4980998,
    "address": "108臺北市萬華區萬大路533號1樓"
  },
  {
    "name": "第一果菜批發市場-地號1215",
    "lat": 25.0180188,
    "lng": 121.4981424,
    "address": "108臺北市萬華區萬大路533號1樓"
  },
  {
    "name": "第一果菜批發市場-地號325",
    "lat": 25.0187528,
    "lng": 121.4973605,
    "address": "108臺北市萬華區萬大路533號1樓"
  },
  {
    "name": "第一果菜批發市場-地號628",
    "lat": 25.018692,
    "lng": 121.4976897,
    "address": "108臺北市萬華區萬大路533號1樓"
  },
  {
    "name": "第一果菜批發市場-地號1022",
    "lat": 25.0186121,
    "lng": 121.4976478,
    "address": "108臺北市萬華區萬大路533號1樓"
  },
  {
    "name": "第一果菜批發市場-地號0206",
    "lat": 25.0184237,
    "lng": 121.4979238,
    "address": "108臺北市萬華區萬大路533號1樓"
  },
  {
    "name": "第一果菜批發市場-地號0521",
    "lat": 25.0184292,
    "lng": 121.4980441,
    "address": "108臺北市萬華區萬大路533號1樓"
  },
  {
    "name": "第一果菜批發市場-地號0921",
    "lat": 25.0184277,
    "lng": 121.4982077,
    "address": "108臺北市萬華區萬大路533號1樓"
  },
  {
    "name": "第一果菜批發市場-地號1807",
    "lat": 25.0186891,
    "lng": 121.4981395,
    "address": "108臺北市萬華區萬大路533號1樓"
  },
  {
    "name": "第一果菜批發市場-地號1231",
    "lat": 25.0183805,
    "lng": 121.4985879,
    "address": "108臺北市萬華區萬大路533號1樓"
  },
  {
    "name": "第一果菜批發市場-地號2214(4號門)",
    "lat": 25.0182537,
    "lng": 121.4990595,
    "address": "108臺北市萬華區萬大路533號1樓"
  },
  {
    "name": "第一果菜批發市場-地號2226",
    "lat": 25.0183138,
    "lng": 121.4991694,
    "address": "108臺北市萬華區萬大路533號1樓"
  },
  {
    "name": "中正社會福利中心7F儲藏室門口",
    "lat": 25.0327518,
    "lng": 121.5074718,
    "address": "100臺北市中正區延平南路207號7F"
  },
  {
    "name": "魚類批發市場1F理魚辦公室",
    "lat": 25.0190077,
    "lng": 121.4975774,
    "address": "108臺北市萬華區萬大路531號1F"
  },
  {
    "name": "公園路燈工程管理處園藝工程隊西區分隊1F行政辦公室",
    "lat": 25.0215081,
    "lng": 121.505262,
    "address": "108臺北市萬華區水源路199號1F"
  },
  {
    "name": "公園路燈工程管理處園藝工程隊西區分隊1F司機會議室",
    "lat": 25.0214713,
    "lng": 121.5050863,
    "address": "108臺北市萬華區水源路199號1F"
  },
  {
    "name": "公園路燈工程管理處青年所2F辦公室",
    "lat": 25.0220908,
    "lng": 121.5067791,
    "address": "108臺北市萬華區水源路199號2F"
  },
  {
    "name": "公園路燈工程管理處青年所2F副主任辦公室門口",
    "lat": 25.0221688,
    "lng": 121.5069494,
    "address": "108臺北市萬華區水源路199號2F"
  },
  {
    "name": "公園路燈工程管理處青年所2F主任及股長辦公室門口",
    "lat": 25.0224341,
    "lng": 121.5068535,
    "address": "108臺北市萬華區水源路199號2F"
  },
  {
    "name": "公園路燈工程管理處青年所1F綠化教室中央",
    "lat": 25.0218492,
    "lng": 121.5068233,
    "address": "108臺北市萬華區水源路199號1F"
  },
  {
    "name": "公園路燈工程管理處青年所和平青草原",
    "lat": 25.0318443,
    "lng": 121.4969917,
    "address": "108臺北市萬華區西園路二段42號1F"
  },
  {
    "name": "勞動局勞動權益中心-6F調解會議室1門口",
    "lat": 25.0332832,
    "lng": 121.500965,
    "address": "108臺北市萬華區艋舺大道101號6F"
  },
  {
    "name": "勞動局勞工教室-6F接待櫃台旁走廊上",
    "lat": 25.033361,
    "lng": 121.501252,
    "address": "108臺北市萬華區艋舺大道101號6F"
  },
  {
    "name": "北市聯醫莒光健康增齡賦能中心2F多功能活動室A",
    "lat": 25.0317558,
    "lng": 121.5004759,
    "address": "108臺北市萬華區萬大路22號2樓"
  },
  {
    "name": "北市聯醫莒光健康增齡賦能中心2F多功能活動室B",
    "lat": 25.0317834,
    "lng": 121.4999703,
    "address": "108臺北市萬華區萬大路22號2樓"
  },
  {
    "name": "臺北市勞動力重建運用處5F綜合教室",
    "lat": 25.0333552,
    "lng": 121.501127,
    "address": "108臺北市萬華區艋舺大道101號5F"
  }
]