[
  {
    "name": "福音山莊-N-南深路",
    "lat": 25.021734,
    "lng": 121.623733,
    "address": "115臺北市南港區南深路與南深路70巷口東南側候車亭"
  },
  {
    "name": "山水綠生態公園-木棧道-上方1",
    "lat": 25.0291319,
    "lng": 121.6251379,
    "address": "115臺北市南港區南深路37號-木棧道-上方1"
  },
  {
    "name": "山水綠生態公園-木棧道-上方2",
    "lat": 25.0292973,
    "lng": 121.6248617,
    "address": "115臺北市南港區南深路37號-木棧道-上方2"
  },
  {
    "name": "山水綠生態公園-木棧道-下方1",
    "lat": 25.0293261,
    "lng": 121.6247071,
    "address": "115臺北市南港區南深路37號-木棧道-下方1"
  },
  {
    "name": "山水綠生態公園-木棧道-下方2",
    "lat": 25.0293236,
    "lng": 121.6247765,
    "address": "115臺北市南港區南深路37號-木棧道-下方2"
  },
  {
    "name": "山豬窟游泳池館2F健身房樓梯靠右上方",
    "lat": 25.0317497,
    "lng": 121.6245525,
    "address": "115臺北市南港區舊莊街一段290巷32號2F"
  }
]