[
  {
    "name": "桃園市茄苳愛心關懷協會",
    "lat": 24.967601,
    "lng": 121.277134,
    "address": "334桃園市八德區茄苳里永豐路170號.永豐路262號.永豐路264號"
  },
  {
    "name": "桃園市八德區廣德社區發展協會",
    "lat": 24.949928,
    "lng": 121.283672,
    "address": "334桃園市八德區廣德里廣興路643號"
  },
  {
    "name": "桃園市八德區白鷺社區發展協會",
    "lat": 24.965582,
    "lng": 121.278048,
    "address": "334桃園市八德區白鷺里永豐路170號"
  },
  {
    "name": "財團法人桃園市護國宮愛心基金會",
    "lat": 24.966552,
    "lng": 121.289327,
    "address": "330桃園市桃園區中德里15鄰國際路一段401巷123號"
  },
  {
    "name": "桃園北區客家會館-1",
    "lat": 24.94449,
    "lng": 121.26529,
    "address": "334桃園市八德區崁頂路60號"
  },
  {
    "name": "桃園北區客家會館-2",
    "lat": 24.94449,
    "lng": 121.26529,
    "address": "334桃園市八德區崁頂路60號"
  }
]