[
  {
    "name": "中央大學郵局",
    "lat": 24.968238,
    "lng": 121.19525,
    "address": "320桃園市中壢區五權里中大路300號"
  },
  {
    "name": "平鎮高雙郵局",
    "lat": 24.955034,
    "lng": 121.189525,
    "address": "324桃園市平鎮區高雙路181號"
  },
  {
    "name": "國立中央大學行政大樓",
    "lat": 24.968238,
    "lng": 121.19525,
    "address": "320桃園市中壢區中大路300號國立中央大學"
  },
  {
    "name": "國立中央大學總圖書館",
    "lat": 24.968238,
    "lng": 121.19525,
    "address": "320桃園市中壢區中大路300號國立中央大學"
  },
  {
    "name": "行政院環境保護署環境保護人員訓練所服務台",
    "lat": 24.961413,
    "lng": 121.19276,
    "address": "320桃園市中壢區民族路三段260號5樓"
  },
  {
    "name": "行政院環境保護署環境保護人員訓練所交誼廳",
    "lat": 24.961413,
    "lng": 121.19276,
    "address": "320桃園市中壢區民族路三段260號3樓"
  },
  {
    "name": "行政院環保署環境檢驗所1F、2F、4F",
    "lat": 24.961413,
    "lng": 121.19276,
    "address": "320桃園市中壢區民族路三段260號1樓"
  },
  {
    "name": "行政院環保署環境檢驗所1F、3F、6F",
    "lat": 24.961413,
    "lng": 121.19276,
    "address": "320桃園市中壢區民族路三段260號2樓"
  },
  {
    "name": "行政院環境保護署環境檢驗所4F會議室",
    "lat": 24.961413,
    "lng": 121.19276,
    "address": "320桃園市中壢區民族路三段260號4樓"
  },
  {
    "name": "桃園市平鎮區高連社區發展協會",
    "lat": 24.955179,
    "lng": 121.189118,
    "address": "324桃園市平鎮區高雙里高雙路80號"
  },
  {
    "name": "桃園市平鎮區雙連里辦公處",
    "lat": 24.960122,
    "lng": 121.183243,
    "address": "324桃園市平鎮區雙連里民族路雙連二段118巷22號"
  },
  {
    "name": "桃園市政府消防局復旦分隊",
    "lat": 24.948067,
    "lng": 121.202438,
    "address": "324桃園市平鎮區復旦路二段133號"
  }
]