[
  {
    "name": "花蓮縣瑞穗鄉客家文化資產發展協會",
    "lat": 23.499882,
    "lng": 121.378786,
    "address": "978花蓮縣瑞穗鄉瑞穗村民生街63巷38號"
  },
  {
    "name": "花蓮縣私立玉里綜合長照機構-瑞穗",
    "lat": 23.5026194,
    "lng": 121.3784628,
    "address": "978花蓮縣瑞穗鄉瑞穗村文昌街48巷16號"
  },
  {
    "name": "花蓮縣瑞穗鄉瑞北國民小學",
    "lat": 23.525667,
    "lng": 121.378391,
    "address": "978花蓮縣瑞穗鄉中正北路二段35號"
  },
  {
    "name": "花蓮縣萬榮鄉東光村辦公處",
    "lat": 23.527102,
    "lng": 121.3686518,
    "address": "979花蓮縣萬榮鄉馬遠村9鄰209號"
  },
  {
    "name": "花蓮縣瑞穗鄉瑞穗村辦公處",
    "lat": 23.499852,
    "lng": 121.378774,
    "address": "978花蓮縣瑞穗鄉瑞穗村民生路41號"
  },
  {
    "name": "花蓮縣瑞穗鄉瑞祥村辦公處",
    "lat": 23.499833,
    "lng": 121.358839,
    "address": "978花蓮縣瑞穗鄉瑞祥村祥北路二段127號"
  },
  {
    "name": "花蓮縣瑞穗鄉瑞北村辦公處",
    "lat": 23.52942,
    "lng": 121.37801,
    "address": "978花蓮縣瑞穗鄉瑞北村4鄰54-1號"
  },
  {
    "name": "花蓮縣衛生局瑞穗鄉衛生所",
    "lat": 23.500069,
    "lng": 121.379127,
    "address": "978花蓮縣瑞穗鄉民生街75號"
  }
]