[
  {
    "name": "卓溪郵局",
    "lat": 23.345878,
    "lng": 121.304609,
    "address": "982花蓮縣卓溪鄉中正路61-1號"
  },
  {
    "name": "公路總局臺北區監理所花蓮監理站玉里分站",
    "lat": 23.347107,
    "lng": 121.317224,
    "address": "981花蓮縣玉里鎮永昌里中華路427號"
  },
  {
    "name": "玉里醫院-院本部區門診大廳",
    "lat": 23.347233,
    "lng": 121.32127,
    "address": "981花蓮縣玉里鎮中華路448號"
  },
  {
    "name": "花蓮縣卓溪鄉卓溪社區發展協會",
    "lat": 23.346535,
    "lng": 121.303406,
    "address": "982花蓮縣卓溪鄉7鄰中正70號"
  },
  {
    "name": "臺北榮民醫院玉里分院",
    "lat": 23.363609,
    "lng": 121.324116,
    "address": "981花蓮縣玉里鎮大禹里酸柑88之1號"
  },
  {
    "name": "花蓮縣卓溪鄉卓溪國民小學",
    "lat": 23.346206,
    "lng": 121.303235,
    "address": "982花蓮縣卓溪鄉卓溪村中正路72號"
  },
  {
    "name": "花蓮縣衛生局卓溪鄉衛生所",
    "lat": 23.345951,
    "lng": 121.304153,
    "address": "982花蓮縣卓溪鄉卓溪村中正65號"
  },
  {
    "name": "花蓮縣富里鄉姆拉丁部落",
    "lat": 23.3531,
    "lng": 121.29853,
    "address": "983花蓮縣富里鄉萬寧村鎮寧25之1號"
  }
]