[
  {
    "name": "海洋大學郵局",
    "lat": 25.150914,
    "lng": 121.772565,
    "address": "202基隆市中正區北寧路2號"
  },
  {
    "name": "基隆中正郵局",
    "lat": 25.151073,
    "lng": 121.766416,
    "address": "202基隆市中正區中正路393巷18號"
  },
  {
    "name": "基隆安瀾橋郵局",
    "lat": 25.142818,
    "lng": 121.761031,
    "address": "202基隆市中正區中正路330號"
  },
  {
    "name": "基隆和平島郵局",
    "lat": 25.154881,
    "lng": 121.765409,
    "address": "202基隆市中正區和一路129號"
  },
  {
    "name": "基隆東信路郵局",
    "lat": 25.127885,
    "lng": 121.76369,
    "address": "201基隆市信義區東明路21號"
  },
  {
    "name": "基隆新豐街郵局",
    "lat": 25.135425,
    "lng": 121.785152,
    "address": "202基隆市中正區新豐街482號2樓"
  },
  {
    "name": "國軍退除役官兵輔導委員會基隆市榮民服務處一樓大廳",
    "lat": 25.1411597,
    "lng": 121.7589146,
    "address": "202基隆市中正區中正路115號"
  },
  {
    "name": "臺灣基隆地方法院檢察署1F民眾洽公區",
    "lat": 25.129276,
    "lng": 121.761887,
    "address": "201基隆市信義區東信路178號"
  },
  {
    "name": "三軍總醫院基隆分院正榮院區門診大廳",
    "lat": 25.145207,
    "lng": 121.762826,
    "address": "202基隆市中正區正榮街100號"
  },
  {
    "name": "臺灣土地銀行正濱分行",
    "lat": 25.150063,
    "lng": 121.765441,
    "address": "202基隆市中正區中正路652號"
  },
  {
    "name": "臺灣基隆地方法院1樓中庭民眾休息區、3樓、4樓法庭區、後棟2樓法庭區",
    "lat": 25.128792,
    "lng": 121.764307,
    "address": "201基隆市信義區東信路176號"
  },
  {
    "name": "基隆市信義區信綠社區發展協會",
    "lat": 25.128722,
    "lng": 121.760376,
    "address": "201基隆市信義區信綠里東信路322之1號"
  },
  {
    "name": "基隆市中正區社寮社區發展協會",
    "lat": 25.155276,
    "lng": 121.766004,
    "address": "202基隆市中正區社寮里平一路6號"
  },
  {
    "name": "基隆市心蘭愛鄉生活發展協會",
    "lat": 25.146035,
    "lng": 121.769571,
    "address": "202基隆市中正區建國里祥豐街467號"
  },
  {
    "name": "基隆市恩惠全人關懷協會",
    "lat": 25.127187,
    "lng": 121.767532,
    "address": "201基隆市信義區東安里東信路3巷34號"
  },
  {
    "name": "基隆市中正區砂灣社區發展協會",
    "lat": 25.143289,
    "lng": 121.765428,
    "address": "202基隆市中正區砂灣里祥豐街66號二樓"
  },
  {
    "name": "基隆市中正區中砂社區發展協會",
    "lat": 25.140627,
    "lng": 121.759667,
    "address": "202基隆市中正區中砂里正豐街50號"
  },
  {
    "name": "孝賢長青關懷協會",
    "lat": 25.137759,
    "lng": 121.775936,
    "address": "201基隆市信義區孝賢里教孝街57號一樓"
  },
  {
    "name": "義和里辦公處",
    "lat": 25.128928,
    "lng": 121.757981,
    "address": "201基隆市信義區義和里信二路6號三樓"
  },
  {
    "name": "東明社區發展協會",
    "lat": 25.126994,
    "lng": 121.766952,
    "address": "201基隆市信義區東明里東信路35巷1號"
  },
  {
    "name": "基隆市中正區平寮社區發展協會",
    "lat": 25.1555,
    "lng": 121.764231,
    "address": "202基隆市中正區平寮里和一路186號一樓"
  },
  {
    "name": "基隆市新豐愛鄉協會(新豐里二)",
    "lat": 25.135568,
    "lng": 121.785195,
    "address": "202基隆市中正區新豐里新豐街482之1號三樓"
  },
  {
    "name": "基隆市中正區正砂社區發展協會",
    "lat": 25.143232,
    "lng": 121.760955,
    "address": "202基隆市中正區正砂里中正路211號"
  },
  {
    "name": "禮東社區發展協會",
    "lat": 25.127187,
    "lng": 121.763443,
    "address": "201基隆市信義區禮東里東明路67巷7號"
  },
  {
    "name": "司法院(基隆地方法院)",
    "lat": 25.1290098,
    "lng": 121.7642625,
    "address": "201基隆市信義區東信路176號"
  },
  {
    "name": "基隆市中正戶政事務所",
    "lat": 25.1410899,
    "lng": 121.7590441,
    "address": "202基隆市中正區中正路236號3樓"
  },
  {
    "name": "基隆市信義戶政事務所",
    "lat": 25.128559,
    "lng": 121.757569,
    "address": "201基隆市信義區信一路6號"
  },
  {
    "name": "基隆市市立田徑場",
    "lat": 25.131609,
    "lng": 121.761217,
    "address": "201基隆市信義區正信路28號"
  },
  {
    "name": "基隆市市立體育場",
    "lat": 25.129123,
    "lng": 121.756968,
    "address": "201基隆市信義區信二路40之1號"
  },
  {
    "name": "基隆市中正區公所",
    "lat": 25.1409782,
    "lng": 121.7590119,
    "address": "202基隆市中正區中正路236號5樓"
  },
  {
    "name": "基隆市中正區圖書館",
    "lat": 25.1409782,
    "lng": 121.7590119,
    "address": "202基隆市中正區中正路236號1樓"
  },
  {
    "name": "基隆市警察局安瀾橋派出所",
    "lat": 25.142448,
    "lng": 121.760888,
    "address": "202基隆市中正區中正路320號(安瀾橋所)"
  },
  {
    "name": "基隆市警察局正濱派出所",
    "lat": 25.152684,
    "lng": 121.768134,
    "address": "202基隆市中正區中正路511號(正濱所)"
  },
  {
    "name": "基隆市警察局和一派出所",
    "lat": 25.155093,
    "lng": 121.765055,
    "address": "202基隆市中正區和一路146號(和一所)"
  },
  {
    "name": "基隆市警察局東光派出所",
    "lat": 25.127534,
    "lng": 121.762784,
    "address": "201基隆市信義區東明路61號(東光所)"
  },
  {
    "name": "基隆市警察局深澳坑派出所",
    "lat": 25.127325,
    "lng": 121.785298,
    "address": "201基隆市信義區深澳坑路69號(深澳坑所)"
  }
]