[
  {
    "name": "國立東華大學多容館",
    "lat": 23.894343,
    "lng": 121.543431,
    "address": "974花蓮縣壽豐鄉志學村大學路二段1-20號"
  },
  {
    "name": "國立東華大學湖畔餐廳",
    "lat": 23.894343,
    "lng": 121.543431,
    "address": "974花蓮縣壽豐鄉志學村大學路二段1-20號"
  },
  {
    "name": "壽豐東華大學郵局",
    "lat": 23.8947711,
    "lng": 121.5431115,
    "address": "974花蓮縣壽豐鄉大學路二段1號"
  },
  {
    "name": "花蓮縣壽豐鄉月眉國民小學",
    "lat": 23.868105,
    "lng": 121.556135,
    "address": "974花蓮縣壽豐鄉月眉村三段24號"
  },
  {
    "name": "花蓮縣壽豐鄉公所月眉村辦公處",
    "lat": 23.868407,
    "lng": 121.555341,
    "address": "974花蓮縣壽豐鄉月眉村月眉路三段108號"
  },
  {
    "name": "花蓮縣月眉派出所",
    "lat": 23.8684116,
    "lng": 121.5531526,
    "address": "974花蓮縣壽豐鄉月眉村月眉三段42號"
  },
  {
    "name": "花蓮山嶺福德廟",
    "lat": 23.8931829,
    "lng": 121.5706939,
    "address": "974花蓮縣壽豐鄉鹽寮村山嶺路74之3號"
  }
]