[
  {
    "name": "基隆八斗子郵局",
    "lat": 25.140015,
    "lng": 121.796289,
    "address": "202基隆市中正區八斗街14號"
  },
  {
    "name": "臺鐵局海科館站月台",
    "lat": 25.1385523,
    "lng": 121.7989338,
    "address": "202基隆市中正區長潭里（無地址）"
  },
  {
    "name": "飛魚卵卸魚作業碼頭",
    "lat": 25.144089,
    "lng": 121.791298,
    "address": "202基隆市中正區中正區漁港一街12號旁-八斗子岸置中心一樓辦公室窗戶外牆(朝向飛魚卵卸魚碼頭)"
  },
  {
    "name": "社團法人台灣葡萄園社會關懷協會",
    "lat": 25.138031,
    "lng": 121.789654,
    "address": "202基隆市中正區新富里新豐街205巷9號"
  },
  {
    "name": "基隆市新豐愛鄉協會",
    "lat": 25.137319,
    "lng": 121.787731,
    "address": "202基隆市中正區新豐里新豐街326號一樓"
  },
  {
    "name": "基隆市警察局八斗子分駐所",
    "lat": 25.140362,
    "lng": 121.793185,
    "address": "202基隆市中正區環港街98號(八斗子所)"
  }
]