[
  {
    "name": "平溪郵局",
    "lat": 25.025967,
    "lng": 121.738489,
    "address": "226新北市平溪區平溪街42號"
  },
  {
    "name": "臺鐵局平溪站候車室",
    "lat": 25.025627,
    "lng": 121.740033,
    "address": "226新北市平溪區中華街12號"
  },
  {
    "name": "臺鐵局嶺腳站月台候車區",
    "lat": 25.03007,
    "lng": 121.7458923,
    "address": "226新北市平溪區嶺腳里嶺腳寮22號"
  },
  {
    "name": "新北市平溪區農會",
    "lat": 25.024881,
    "lng": 121.737493,
    "address": "226新北市平溪區石底里公園街22號四樓"
  },
  {
    "name": "財團法人一粒麥子社會福利慈善事業基金會(平溪嶺腳站)",
    "lat": 25.02501,
    "lng": 121.739502,
    "address": "226新北市平溪區嶺腳里中華街61號"
  },
  {
    "name": "新北市平溪區老人會",
    "lat": 25.028095,
    "lng": 121.747436,
    "address": "226新北市平溪區嶺腳里靜安路二段531號"
  },
  {
    "name": "新北市平溪區菁桐社區發展協會",
    "lat": 25.023535,
    "lng": 121.726168,
    "address": "226新北市平溪區菁桐里菁桐街65之1號"
  }
]