[
  {
    "name": "內湖週美郵局",
    "lat": 25.0551068,
    "lng": 121.5800544,
    "address": "114臺北市內湖區新明路380巷4弄4號"
  },
  {
    "name": "內湖舊宗郵局",
    "lat": 25.0622756,
    "lng": 121.5779816,
    "address": "114臺北市內湖區舊宗路一段189號"
  },
  {
    "name": "台北永春郵局",
    "lat": 25.040661,
    "lng": 121.576769,
    "address": "110臺北市信義區忠孝東路五段464.466號"
  },
  {
    "name": "台北松山郵局",
    "lat": 25.0498136,
    "lng": 121.5741652,
    "address": "105臺北市松山區八德路四段626號"
  },
  {
    "name": "南港同德郵局",
    "lat": 25.0462253,
    "lng": 121.585664,
    "address": "115臺北市南港區同德路85巷2號"
  },
  {
    "name": "南港昆陽郵局",
    "lat": 25.0498669,
    "lng": 121.5926212,
    "address": "115臺北市南港區忠孝東路六段400-406號"
  },
  {
    "name": "南港後山埤郵局",
    "lat": 25.0448713,
    "lng": 121.582693,
    "address": "115臺北市南港區忠孝東路五段994號"
  },
  {
    "name": "南港港三郵局",
    "lat": 25.0532733,
    "lng": 121.5870406,
    "address": "115臺北市南港區南港路三段184號"
  },
  {
    "name": "南港福德郵局",
    "lat": 25.0394256,
    "lng": 121.58771,
    "address": "115臺北市南港區福德街314號"
  },
  {
    "name": "高速公路局北區工程處1樓服務台",
    "lat": 25.060114,
    "lng": 121.591353,
    "address": "114臺北市內湖區成功路二段193巷12號1樓"
  },
  {
    "name": "高速公路局北區工程處4樓第三會議室",
    "lat": 25.060094,
    "lng": 121.591353,
    "address": "114臺北市內湖區成功路二段193巷12號4樓"
  },
  {
    "name": "臺鐵局松山站售票大廳",
    "lat": 25.049229,
    "lng": 121.578278,
    "address": "105臺北市松山區松山路11號"
  },
  {
    "name": "衛生福利部食品藥物管理署-忠孝大樓辦公室B2會議室",
    "lat": 25.0510314,
    "lng": 121.594517,
    "address": "115臺北市南港區忠孝東路六段467號"
  },
  {
    "name": "衛生署食品藥物管理局昆陽161-2",
    "lat": 25.04898,
    "lng": 121.594431,
    "address": "115臺北市南港區昆陽街161-2號"
  },
  {
    "name": "衛生福利部食品藥物管理署-聯合服務中心1樓大廳",
    "lat": 25.0491343,
    "lng": 121.5944113,
    "address": "115臺北市南港區昆陽街161號"
  },
  {
    "name": "財政部臺北國稅局信義分局民眾服務區",
    "lat": 25.03785,
    "lng": 121.58206,
    "address": "110臺北市信義區福德街86號5樓"
  },
  {
    "name": "台電公司松山服務所大廳",
    "lat": 25.049849,
    "lng": 121.572529,
    "address": "105臺北市松山區八德路四段598號2樓"
  },
  {
    "name": "台電公司南港服務所大廳",
    "lat": 25.053907,
    "lng": 121.595129,
    "address": "115臺北市南港區南港路二段157號"
  },
  {
    "name": "兆豐國際商銀南港分行",
    "lat": 25.0469088,
    "lng": 121.5825275,
    "address": "115臺北市南港區忠孝東路六段21-1號"
  },
  {
    "name": "臺灣土地銀行東臺北分行",
    "lat": 25.0378099,
    "lng": 121.57583,
    "address": "110臺北市信義區松德路107號"
  },
  {
    "name": "臺灣土地銀行松南分行",
    "lat": 25.0475429,
    "lng": 121.577583,
    "address": "110臺北市信義區松山路130號"
  },
  {
    "name": "臺鐵局松山站西剪票口候車處",
    "lat": 25.049229,
    "lng": 121.578278,
    "address": "105臺北市松山區松山路11號"
  },
  {
    "name": "臺鐵局松山站第2月台3車位置",
    "lat": 25.049229,
    "lng": 121.578278,
    "address": "105臺北市松山區松山路11號"
  },
  {
    "name": "臺鐵局松山站第2月台10車位置",
    "lat": 25.049229,
    "lng": 121.578278,
    "address": "105臺北市松山區松山路11號"
  },
  {
    "name": "衛生福利部食品藥物管理署民眾等候區",
    "lat": 25.04898,
    "lng": 121.594431,
    "address": "115臺北市南港區昆陽街161-2號"
  },
  {
    "name": "衛生福利部南港衛生福利大樓1F大廳",
    "lat": 25.0502998,
    "lng": 121.5953714,
    "address": "115臺北市南港區忠孝東路六段488號1樓"
  },
  {
    "name": "衛生福利部南港衛生福利大樓2F會議室",
    "lat": 25.0502998,
    "lng": 121.5953714,
    "address": "115臺北市南港區忠孝東路六段488號2樓"
  },
  {
    "name": "衛生福利部南港衛生福利大樓3F(303會議室)",
    "lat": 25.0502998,
    "lng": 121.5953714,
    "address": "115臺北市南港區忠孝東路六段488號3樓"
  },
  {
    "name": "臺鐵局南港站1月台9車",
    "lat": 25.054079,
    "lng": 121.592232,
    "address": "115臺北市南港區南港路一段313號B3"
  },
  {
    "name": "華南商業銀行南松山分行",
    "lat": 25.041164,
    "lng": 121.572129,
    "address": "110臺北市信義區忠孝東路五段293號"
  },
  {
    "name": "華南商業銀行松山分行",
    "lat": 25.0498871,
    "lng": 121.5752295,
    "address": "105臺北市松山區八德路四段654號"
  },
  {
    "name": "華南商業銀行永吉分行",
    "lat": 25.043862,
    "lng": 121.581862,
    "address": "110臺北市信義區忠孝東路五段800號"
  },
  {
    "name": "華南商業銀行南內湖分行",
    "lat": 25.063887,
    "lng": 121.579985,
    "address": "114臺北市內湖區行愛路130號"
  },
  {
    "name": "華南商業銀行南港分行",
    "lat": 25.0542992,
    "lng": 121.5916368,
    "address": "115臺北市南港區南港路三段52號"
  },
  {
    "name": "上海商銀世貿分行",
    "lat": 25.0359309,
    "lng": 121.5747789,
    "address": "110臺北市信義區松德路171號-6"
  },
  {
    "name": "第一商業銀行(松山分行)",
    "lat": 25.0501013,
    "lng": 121.5793154,
    "address": "105臺北市松山區八德路四段760號"
  },
  {
    "name": "第一商業銀行(永春分行)",
    "lat": 25.0411597,
    "lng": 121.5762309,
    "address": "110臺北市信義區忠孝東路五段451號"
  },
  {
    "name": "衛生福利部南港衛生福利大樓2F大廳",
    "lat": 25.05027,
    "lng": 121.595422,
    "address": "115臺北市南港區忠孝東路6段488號2樓"
  },
  {
    "name": "衛生福利部南港衛生福利大樓3F(301會議室)",
    "lat": 25.050269,
    "lng": 121.595424,
    "address": "115臺北市南港區忠孝東路六段488號3樓"
  },
  {
    "name": "臺鐵局松山站候車大廳售票口",
    "lat": 25.049229,
    "lng": 121.578278,
    "address": "110臺北市信義區永吉里松山路11號"
  },
  {
    "name": "臺鐵局松山站第1月台行車室",
    "lat": 25.0493317,
    "lng": 121.5788966,
    "address": "110臺北市信義區永吉里松山路11號"
  },
  {
    "name": "臺鐵局松山站B1服務台",
    "lat": 25.049229,
    "lng": 121.578278,
    "address": "110臺北市信義區永吉里松山路11號"
  },
  {
    "name": "臺鐵局松山站東邊剪票口(補票房)",
    "lat": 25.049229,
    "lng": 121.578278,
    "address": "110臺北市信義區永吉里松山路11號"
  },
  {
    "name": "臺鐵局南港站2月台11車(新)",
    "lat": 25.054079,
    "lng": 121.592232,
    "address": "115臺北市南港區南港路一段313號"
  },
  {
    "name": "臺北市信義區安康里辦公處",
    "lat": 25.035852,
    "lng": 121.576129,
    "address": "110臺北市信義區安康里虎林街232巷55號"
  },
  {
    "name": "社團法人台灣厝邊有愛關懷協會(南港錫安)",
    "lat": 25.049686,
    "lng": 121.58186,
    "address": "115臺北市南港區玉成里玉成街20號"
  },
  {
    "name": "臺北市南港區仁福社區發展協會",
    "lat": 25.039477,
    "lng": 121.592039,
    "address": "115臺北市南港區仁福里福德街373巷61號一樓"
  },
  {
    "name": "臺北市信義區四維里里辦公處",
    "lat": 25.04425,
    "lng": 121.576783,
    "address": "110臺北市信義區四維里虎林街70巷1號一樓"
  },
  {
    "name": "社團法人台灣厝邊有愛關懷協會(中坡教會)",
    "lat": 25.039174,
    "lng": 121.583541,
    "address": "110臺北市信義區中坡里大道路127之1號"
  },
  {
    "name": "臺北市信義區五全里辦公處",
    "lat": 25.045023,
    "lng": 121.574582,
    "address": "110臺北市信義區五全里永吉路278巷1弄13號"
  },
  {
    "name": "臺北市信義區永春社區發展協會",
    "lat": 25.043485,
    "lng": 121.578311,
    "address": "110臺北市信義區永春里松山路287巷3弄21號"
  },
  {
    "name": "臺北市信義區松友社區發展協會",
    "lat": 25.034396,
    "lng": 121.576136,
    "address": "110臺北市信義區松友里信義路六段76巷2弄22號一樓"
  },
  {
    "name": "財團法人臺北市松年長春社會福利基金會",
    "lat": 25.050544,
    "lng": 121.573886,
    "address": "105臺北市松山區慈祐里饒河街105號"
  },
  {
    "name": "臺北市信義區中行里辦公處",
    "lat": 25.039891,
    "lng": 121.585754,
    "address": "110臺北市信義區中行里福德街268巷32號"
  },
  {
    "name": "臺北市松山區慈祐里辦公處",
    "lat": 25.049703,
    "lng": 121.571741,
    "address": "105臺北市松山區慈祐里八德路四段580號一樓"
  },
  {
    "name": "臺北市信義區雙春社區發展協會",
    "lat": 25.043017,
    "lng": 121.577649,
    "address": "110臺北市信義區長春里松山路294號二樓"
  },
  {
    "name": "台北市南港區鴻福社區發展協會",
    "lat": 25.043854,
    "lng": 121.586558,
    "address": "115臺北市南港區鴻福里成福路92號一樓"
  },
  {
    "name": "台北市後山埤文化發展協會~東新91健康樂活心聚點",
    "lat": 25.046668,
    "lng": 121.589085,
    "address": "115臺北市南港區聯成里東新街91號"
  },
  {
    "name": "臺北市南港區百福里辦公處",
    "lat": 25.039435,
    "lng": 121.588463,
    "address": "115臺北市南港區百福里福德街337號"
  },
  {
    "name": "中華民國老人福利協進會",
    "lat": 25.039,
    "lng": 121.577,
    "address": "110臺北市信義區嘉興里信安街78之80號二樓"
  },
  {
    "name": "臺北市全人探索協會",
    "lat": 25.047,
    "lng": 121.585,
    "address": "115臺北市南港區玉成里八德路四段768之1號4樓"
  },
  {
    "name": "社團法人中華民國我願意全人關懷協會",
    "lat": 25.047,
    "lng": 121.5854,
    "address": "115臺北市南港區萬福里東新街64巷11號B1"
  },
  {
    "name": "新湖一路口-S1-舊宗路一段",
    "lat": 25.0604789,
    "lng": 121.5788836,
    "address": "114臺北市內湖區舊宗路一段135號對面候車亭"
  },
  {
    "name": "潭美國小-W-新明路",
    "lat": 25.0602031,
    "lng": 121.5904647,
    "address": "114臺北市內湖區新明路22號旁候車亭"
  },
  {
    "name": "虎林街口-E-松隆路",
    "lat": 25.0484529,
    "lng": 121.5755806,
    "address": "110臺北市信義區松隆路282號旁候車亭"
  },
  {
    "name": "永吉國中-W-松隆路",
    "lat": 25.0474999,
    "lng": 121.5730846,
    "address": "110臺北市信義區松隆路208號對面候車亭"
  },
  {
    "name": "雅祥公園-S-松信路",
    "lat": 25.0475874,
    "lng": 121.5720915,
    "address": "110臺北市信義區松信路55號對面候車亭"
  },
  {
    "name": "福德國小-E-福德街",
    "lat": 25.0392232,
    "lng": 121.5873178,
    "address": "110臺北市信義區福德街304號對面候車亭"
  },
  {
    "name": "富台公園-虎林街",
    "lat": 25.0420591,
    "lng": 121.5720433,
    "address": "110臺北市信義區松信路209號旁候車亭"
  },
  {
    "name": "虎林街口-W-松隆路",
    "lat": 25.0484922,
    "lng": 121.5746688,
    "address": "110臺北市信義區松隆路163號旁候車亭"
  },
  {
    "name": "南港高中-N-向陽路",
    "lat": 25.05294,
    "lng": 121.595252,
    "address": "115臺北市南港區向陽路80號旁候車亭"
  },
  {
    "name": "南港高中-S-向陽路",
    "lat": 25.0528947,
    "lng": 121.5950176,
    "address": "115臺北市南港區向陽路21號旁候車亭"
  },
  {
    "name": "石潭公園-E-安康路",
    "lat": 25.062433,
    "lng": 121.593226,
    "address": "114臺北市內湖區安康路28之8號對面候車亭"
  },
  {
    "name": "石潭公園-W-安康路",
    "lat": 25.0622483,
    "lng": 121.5932364,
    "address": "114臺北市內湖區安康路28之8號旁候車亭"
  },
  {
    "name": "協和祐德高中-S-中坡南路",
    "lat": 25.0426,
    "lng": 121.58381,
    "address": "115臺北市南港區中坡南路51號對面候車亭"
  },
  {
    "name": "東南客運停車場-W-新湖二路",
    "lat": 25.0636096,
    "lng": 121.5809518,
    "address": "114臺北市內湖區新湖二路與行愛路口東側北方候車亭"
  },
  {
    "name": "潭美公園-E-南京東路六段",
    "lat": 25.0592245,
    "lng": 121.5857024,
    "address": "114臺北市內湖區南京東路六段366號附近候車亭"
  },
  {
    "name": "潭美公園-W-南京東路六段",
    "lat": 25.0596302,
    "lng": 121.5856726,
    "address": "114臺北市內湖區南京東路六段399號對面候車亭"
  },
  {
    "name": "南京舊宗路口-W-南京東路六段",
    "lat": 25.056352,
    "lng": 121.5795079,
    "address": "114臺北市內湖區南京東路六段153號前候車亭"
  },
  {
    "name": "行忠路口-N-舊宗路一段",
    "lat": 25.0643055,
    "lng": 121.5763454,
    "address": "114臺北市內湖區舊宗路一段319號候車亭"
  },
  {
    "name": "臺北企業總部園區-W-新明路",
    "lat": 25.0582437,
    "lng": 121.5872452,
    "address": "114臺北市內湖區新明路233號對面候車亭"
  },
  {
    "name": "行愛路77巷口-行愛路",
    "lat": 25.0624254,
    "lng": 121.5811849,
    "address": "114臺北市內湖區行愛路68號前方候車亭"
  },
  {
    "name": "新湖三路口(台北花市)-舊宗路一段",
    "lat": 25.0622481,
    "lng": 121.5775435,
    "address": "114臺北市內湖區舊宗路一段130號前候車亭"
  },
  {
    "name": "新湖舊宗路口-E-新湖二路",
    "lat": 25.0620538,
    "lng": 121.5786444,
    "address": "114臺北市內湖區新湖二路128號對面候車亭"
  },
  {
    "name": "南京舊宗路口-E-新明路",
    "lat": 25.055978,
    "lng": 121.579849,
    "address": "114臺北市內湖區新明路380巷15號前方候車亭"
  },
  {
    "name": "南港公園-W-東新街",
    "lat": 25.045867,
    "lng": 121.592658,
    "address": "115臺北市南港區東新街170巷臨1號旁候車亭"
  },
  {
    "name": "五分埔商圈(中坡北)-S-中坡北路",
    "lat": 25.0480339,
    "lng": 121.5801053,
    "address": "110臺北市信義區中坡北路94號斜對面候車亭"
  },
  {
    "name": "永吉松信路口-S-松信路",
    "lat": 25.0449351,
    "lng": 121.5719906,
    "address": "110臺北市信義區松信路105號對面候車亭"
  },
  {
    "name": "大道路-S-大道路",
    "lat": 25.0401406,
    "lng": 121.5827553,
    "address": "110臺北市信義區大道路93號對面候車亭"
  },
  {
    "name": "永吉國中-E-松隆路",
    "lat": 25.0476138,
    "lng": 121.5736885,
    "address": "110臺北市信義區松隆路與永吉路225巷52弄口東側"
  },
  {
    "name": "西新里(新新公園)-E-研究院路三段",
    "lat": 25.053527,
    "lng": 121.589965,
    "address": "115臺北市南港區南港路三段104號候車亭"
  },
  {
    "name": "玉成公園(成福)-S-成福路",
    "lat": 25.042657,
    "lng": 121.586853,
    "address": "115臺北市南港區成福路93號對面候車亭"
  },
  {
    "name": "南港花園社區四-S-福德街",
    "lat": 25.0394914,
    "lng": 121.5935355,
    "address": "115臺北市南港區福德街373巷459號(B5棟)旁候車亭"
  },
  {
    "name": "南港花園社區一-S-福德街",
    "lat": 25.0410637,
    "lng": 121.591608,
    "address": "115臺北市南港區福德街373巷387號(A3棟)旁候車亭"
  },
  {
    "name": "中國電視公司-W-重陽路",
    "lat": 25.05684,
    "lng": 121.599327,
    "address": "115臺北市南港區重陽路199巷16號旁候車亭(重陽路本線)"
  },
  {
    "name": "聯合醫院忠孝院區(同德)-E-同德路",
    "lat": 25.04614,
    "lng": 121.586463,
    "address": "115臺北市南港區同德路100號旁候車亭"
  },
  {
    "name": "東明里/臺北流行音樂中心-W1-南港路二段",
    "lat": 25.053827,
    "lng": 121.598724,
    "address": "115臺北市南港區南港路二段218號旁候車亭"
  },
  {
    "name": "中國電視公司-E-重陽路",
    "lat": 25.0565895,
    "lng": 121.5991055,
    "address": "115臺北市南港區重陽路185號對面候車亭"
  },
  {
    "name": "松山磚廠-W-南港路三段",
    "lat": 25.0526462,
    "lng": 121.5850594,
    "address": "115臺北市南港區南港路三段250號前方候車亭"
  },
  {
    "name": "捷運昆陽站-E1-忠孝東路六段",
    "lat": 25.0501003,
    "lng": 121.5930926,
    "address": "115臺北市南港區忠孝東路六段420號候車亭"
  },
  {
    "name": "東明里/臺北流行音樂中心-E-南港路二段",
    "lat": 25.053527,
    "lng": 121.59896,
    "address": "115臺北市南港區南港路二段208號對面候車亭"
  },
  {
    "name": "南港分局(向陽)-N-向陽路",
    "lat": 25.0553227,
    "lng": 121.5944036,
    "address": "115臺北市南港區向陽路150號旁候車亭"
  },
  {
    "name": "玉成國小-E-南港路三段",
    "lat": 25.053997,
    "lng": 121.591896,
    "address": "115臺北市南港區南港路三段7之1號候車亭"
  },
  {
    "name": "南港輪胎-W-南港路二段",
    "lat": 25.05347,
    "lng": 121.600685,
    "address": "115臺北市南港區南港路二段142號前候車亭"
  },
  {
    "name": "玉成公園(中坡)-N-中坡南路",
    "lat": 25.041921,
    "lng": 121.585052,
    "address": "110臺北市信義區中坡南路66號對面候車亭"
  },
  {
    "name": "南港輪胎-E-南港路二段",
    "lat": 25.0533083,
    "lng": 121.6008193,
    "address": "115臺北市南港區南港路二段142號對面候車亭"
  },
  {
    "name": "南港分局(向陽)-S-向陽路",
    "lat": 25.0558337,
    "lng": 121.5938777,
    "address": "115臺北市南港區向陽路166號對面候車亭"
  },
  {
    "name": "南港花園社區二-N-福德街",
    "lat": 25.0400288,
    "lng": 121.5912299,
    "address": "115臺北市南港區福德街373巷15號(A17棟)旁候車亭"
  },
  {
    "name": "南港花園社區三-W-福德街",
    "lat": 25.03885,
    "lng": 121.592483,
    "address": "115臺北市南港區福德街373巷51號(A11棟)旁候車亭"
  },
  {
    "name": "南港花園社區五-福德街",
    "lat": 25.0399996,
    "lng": 121.5926114,
    "address": "115臺北市南港區福德街425號候車亭"
  },
  {
    "name": "捷運後山埤站(玉成)-玉成街",
    "lat": 25.0451946,
    "lng": 121.5831568,
    "address": "115臺北市南港區玉成街136號對面候車亭"
  },
  {
    "name": "新湖一路口-N-舊宗路一段",
    "lat": 25.0608549,
    "lng": 121.5789074,
    "address": "114臺北市內湖區舊宗路一段135號旁候車亭"
  },
  {
    "name": "饒河街觀光夜市(八德)-E-八德路四段",
    "lat": 25.049753,
    "lng": 121.571609,
    "address": "105臺北市松山區八德路四段568號旁候車亭"
  },
  {
    "name": "南港公園-公廁-網球場",
    "lat": 25.0454104,
    "lng": 121.5917806,
    "address": "115臺北市南港區東新街170號2號公廁"
  },
  {
    "name": "玉成公園-公廁-涼亭",
    "lat": 25.0429114,
    "lng": 121.5843057,
    "address": "115臺北市南港區中坡南路55號宮廟旁公廁外牆"
  },
  {
    "name": "玉成公園-公廁-球場",
    "lat": 25.0425053,
    "lng": 121.5864648,
    "address": "115臺北市南港區中坡南路55號網球場旁公廁外牆"
  },
  {
    "name": "松德公園-興雅國中停車場出入口",
    "lat": 25.034834,
    "lng": 121.5728694,
    "address": "110臺北市信義區松德路180巷興雅國中東側"
  },
  {
    "name": "麥帥一橋-W-南京東路六段",
    "lat": 25.055433,
    "lng": 121.57772,
    "address": "114臺北市內湖區南京東路六段107號對面候車亭"
  },
  {
    "name": "興雅國小-E-永吉路",
    "lat": 25.045522,
    "lng": 121.571662,
    "address": "110臺北市信義區永吉路182號候車亭"
  },
  {
    "name": "五分埔商圈(中坡北)-N-中坡北路",
    "lat": 25.0472333,
    "lng": 121.5808203,
    "address": "115臺北市南港區中坡北路68號旁候車亭"
  },
  {
    "name": "南港分局(重陽)-E-重陽路",
    "lat": 25.0555593,
    "lng": 121.596597,
    "address": "115臺北市南港區重陽路59號對面候車亭"
  },
  {
    "name": "南港公園-遊戲區廁所",
    "lat": 25.0420081,
    "lng": 121.5909924,
    "address": "115臺北市南港區東新街170號1號公廁"
  },
  {
    "name": "南港公園-3號廁所",
    "lat": 25.0438592,
    "lng": 121.5909974,
    "address": "115臺北市南港區東新街170-1號3號公廁"
  },
  {
    "name": "國華新村-W-忠孝東路六段",
    "lat": 25.0491271,
    "lng": 121.5879578,
    "address": "115臺北市南港區忠孝東路六段209號候車亭"
  },
  {
    "name": "捷運後山埤站(永吉)-W-永吉路",
    "lat": 25.0454229,
    "lng": 121.5817626,
    "address": "115臺北市南港區永吉路573號候車亭"
  },
  {
    "name": "南港公園-E-東新街",
    "lat": 25.0459909,
    "lng": 121.5920633,
    "address": "115臺北市南港區東新街170號候車亭"
  },
  {
    "name": "北市聯醫忠孝院區行政大樓B1F電梯前",
    "lat": 25.0471949,
    "lng": 121.5858638,
    "address": "115臺北市南港區同德路87號行政大樓B1F電梯前"
  },
  {
    "name": "北市聯醫忠孝院區行政大樓1F婦科診間門口",
    "lat": 25.0468787,
    "lng": 121.5857648,
    "address": "115臺北市南港區同德路87號行政大樓1F婦科診間門口"
  },
  {
    "name": "北市聯醫忠孝院區行政大樓1F理學檢查(ㄧ)門口",
    "lat": 25.0469869,
    "lng": 121.5859458,
    "address": "115臺北市南港區同德路87號行政大樓1F理學檢查(ㄧ)門口"
  },
  {
    "name": "北市聯醫忠孝院區行政大樓2F報到櫃檯",
    "lat": 25.0471949,
    "lng": 121.5858638,
    "address": "115臺北市南港區同德路87號行政大樓2F報到櫃檯"
  },
  {
    "name": "北市聯醫忠孝院區行政大樓3F護理科門口",
    "lat": 25.0469529,
    "lng": 121.5858297,
    "address": "115臺北市南港區同德路87號行政大樓3F護理科門口"
  },
  {
    "name": "北市聯醫忠孝院區行政大樓3F病理實驗室門口",
    "lat": 25.0471949,
    "lng": 121.5858638,
    "address": "115臺北市南港區同德路87號行政大樓3F病理實驗室門口"
  },
  {
    "name": "北市聯醫忠孝院區行政大樓4F總務課門口",
    "lat": 25.0471949,
    "lng": 121.5858638,
    "address": "115臺北市南港區同德路87號行政大樓4F總務課門口"
  },
  {
    "name": "北市聯醫忠孝院區行政大樓4F院長室門口",
    "lat": 25.0469529,
    "lng": 121.5858297,
    "address": "115臺北市南港區同德路87號行政大樓4F院長室門口"
  },
  {
    "name": "北市聯醫忠孝院區行政大樓5F茶水間門口",
    "lat": 25.0469529,
    "lng": 121.5858297,
    "address": "115臺北市南港區同德路87號行政大樓5F茶水間門口"
  },
  {
    "name": "北市聯醫忠孝院區行政大樓5F休閒健康中心門口",
    "lat": 25.0470725,
    "lng": 121.5860052,
    "address": "115臺北市南港區同德路87號行政大樓5F休閒健康中心門口"
  },
  {
    "name": "北市聯醫忠孝院區行政大樓6F608室門口東側",
    "lat": 25.0469529,
    "lng": 121.5858297,
    "address": "115臺北市南港區同德路87號行政大樓6F608室門口東側"
  },
  {
    "name": "北市聯醫忠孝院區行政大樓10F資訊室",
    "lat": 25.046975,
    "lng": 121.5861775,
    "address": "115臺北市南港區同德路87號行政大樓10F資訊室"
  },
  {
    "name": "北市聯醫忠孝院區醫療大樓B1F核子醫學科門口前左方走廊",
    "lat": 25.0462324,
    "lng": 121.586212,
    "address": "115臺北市南港區同德路87號醫療大樓B1F核子醫學科門口前左方走廊"
  },
  {
    "name": "北市聯醫忠孝院區醫療大樓B1F核子醫學科門口前走廊",
    "lat": 25.0462561,
    "lng": 121.5862814,
    "address": "115臺北市南港區同德路87號醫療大樓B1F核子醫學科門口前走廊"
  },
  {
    "name": "北市聯醫忠孝院區醫療大樓B1F清潔班庫房門口",
    "lat": 25.0462327,
    "lng": 121.5862288,
    "address": "115臺北市南港區同德路87號醫療大樓B1F清潔班庫房門口"
  },
  {
    "name": "北市聯醫忠孝院區醫療大樓1F骨密度檢查室",
    "lat": 25.046646,
    "lng": 121.5860597,
    "address": "115臺北市南港區同德路87號醫療大樓1F骨密度檢查室"
  },
  {
    "name": "北市聯醫忠孝院區醫療大樓1F社會工作課門口",
    "lat": 25.0465766,
    "lng": 121.5860604,
    "address": "115臺北市南港區同德路87號醫療大樓1F社會工作課門口"
  },
  {
    "name": "北市聯醫忠孝院區醫療大樓1F心電圖室門口",
    "lat": 25.0466679,
    "lng": 121.5864511,
    "address": "115臺北市南港區同德路87號醫療大樓1F心電圖室門口"
  },
  {
    "name": "北市聯醫忠孝院區醫療大樓1F外診醫療室門口",
    "lat": 25.0465887,
    "lng": 121.5866221,
    "address": "115臺北市南港區同德路87號醫療大樓1F外診醫療室門口"
  },
  {
    "name": "北市聯醫忠孝院區醫療大樓2F婦產科等候區",
    "lat": 25.0461996,
    "lng": 121.5860135,
    "address": "115臺北市南港區同德路87號2F婦產科等候區"
  },
  {
    "name": "北市聯醫忠孝院區醫療大樓2F牙科第14診間",
    "lat": 25.0462479,
    "lng": 121.5860424,
    "address": "115臺北市南港區同德路87號2F牙科第14診間"
  },
  {
    "name": "北市聯醫忠孝院區醫療大樓2F糖尿病整合照護中心等候區",
    "lat": 25.0462785,
    "lng": 121.5862741,
    "address": "115臺北市南港區同德路87號2F糖尿病整合照護中心等候區"
  },
  {
    "name": "北市聯醫忠孝院區醫療大樓2F眼科雷射室門口",
    "lat": 25.0464219,
    "lng": 121.5868273,
    "address": "115臺北市南港區同德路87號醫療大樓2F眼科雷射室門口"
  },
  {
    "name": "北市聯醫忠孝院區醫療大樓3F恢復室護理站前",
    "lat": 25.0464836,
    "lng": 121.5863803,
    "address": "115臺北市南港區同德路87號醫療大樓3F恢復室護理站前"
  },
  {
    "name": "北市聯醫忠孝院區醫療大樓3F門診手術等候區",
    "lat": 25.0467031,
    "lng": 121.5861864,
    "address": "115臺北市南港區同德路87號醫療大樓3F門診手術等候區"
  },
  {
    "name": "北市聯醫忠孝院區醫療大樓3F透析中心準備室門口",
    "lat": 25.0466177,
    "lng": 121.5858912,
    "address": "115臺北市南港區同德路87號醫療大樓3F透析中心準備室門口"
  },
  {
    "name": "北市聯醫忠孝院區醫療大樓3F加護中心",
    "lat": 25.0462664,
    "lng": 121.5861366,
    "address": "115臺北市南港區同德路87號醫療大樓3F加護中心"
  },
  {
    "name": "北市聯醫忠孝院區醫療大樓5F辦公室",
    "lat": 25.0463028,
    "lng": 121.586448,
    "address": "115臺北市南港區同德路87號醫療大樓5F辦公室"
  },
  {
    "name": "北市聯醫忠孝院區醫療大樓5F泌尿中心門口櫃台",
    "lat": 25.0467031,
    "lng": 121.5861864,
    "address": "115臺北市南港區同德路87號醫療大樓5F泌尿中心門口櫃台"
  },
  {
    "name": "北市聯醫忠孝院區醫療大樓5F516病房",
    "lat": 25.0466171,
    "lng": 121.5858912,
    "address": "115臺北市南港區同德路87號醫療大樓5F516病房"
  },
  {
    "name": "北市聯醫忠孝院區醫療大樓5F540病房",
    "lat": 25.0462615,
    "lng": 121.5860347,
    "address": "115臺北市南港區同德路87號醫療大樓5F540病房"
  },
  {
    "name": "北市聯醫忠孝院區醫療大樓6F西邊病房",
    "lat": 25.0463584,
    "lng": 121.5859338,
    "address": "115臺北市南港區同德路87號醫療大樓6F西邊病房"
  },
  {
    "name": "北市聯醫忠孝院區醫療大樓6F610病房",
    "lat": 25.0466171,
    "lng": 121.5858912,
    "address": "115臺北市南港區同德路87號醫療大樓6F610病房"
  },
  {
    "name": "北市聯醫忠孝院區醫療大樓6F609病房",
    "lat": 25.0467126,
    "lng": 121.5863713,
    "address": "115臺北市南港區同德路87號醫療大樓6F609病房"
  },
  {
    "name": "北市聯醫忠孝院區醫療大樓6F637病房",
    "lat": 25.0465501,
    "lng": 121.586551,
    "address": "115臺北市南港區同德路87號醫療大樓6F637病房"
  },
  {
    "name": "北市聯醫忠孝院區醫療大樓7F707病房",
    "lat": 25.0468675,
    "lng": 121.5864655,
    "address": "115臺北市南港區同德路87號醫療大樓7F707病房"
  },
  {
    "name": "北市聯醫忠孝院區醫療大樓7F731病房",
    "lat": 25.0463988,
    "lng": 121.5866596,
    "address": "115臺北市南港區同德路87號醫療大樓7F731病房"
  },
  {
    "name": "北市聯醫忠孝院區醫療大樓7F703病房",
    "lat": 25.0461774,
    "lng": 121.5859951,
    "address": "115臺北市南港區同德路87號醫療大樓7F703病房"
  },
  {
    "name": "北市聯醫忠孝院區醫療大樓7F710病房",
    "lat": 25.0461501,
    "lng": 121.5859146,
    "address": "115臺北市南港區同德路87號醫療大樓7F710病房"
  },
  {
    "name": "北市聯醫忠孝院區醫療大樓8F803病房",
    "lat": 25.0467342,
    "lng": 121.5863401,
    "address": "115臺北市南港區同德路87號醫療大樓8F803病房"
  },
  {
    "name": "北市聯醫忠孝院區醫療大樓8F討論室",
    "lat": 25.0465343,
    "lng": 121.5865527,
    "address": "115臺北市南港區同德路87號醫療大樓8F討論室"
  },
  {
    "name": "北市聯醫忠孝院區醫療大樓8F開飲機",
    "lat": 25.0464672,
    "lng": 121.5859267,
    "address": "115臺北市南港區同德路87號醫療大樓8F開飲機"
  },
  {
    "name": "北市聯醫忠孝院區醫療大樓8F818病房",
    "lat": 25.046373,
    "lng": 121.5859462,
    "address": "115臺北市南港區同德路87號醫療大樓8F818病房"
  },
  {
    "name": "北市聯醫忠孝院區醫療大樓9F928病房",
    "lat": 25.0461358,
    "lng": 121.585862,
    "address": "115臺北市南港區同德路87號醫療大樓9F928病房"
  },
  {
    "name": "北市聯醫忠孝院區醫療大樓9F護理站轉角",
    "lat": 25.0462044,
    "lng": 121.5861168,
    "address": "115臺北市南港區同德路87號醫療大樓9F護理站轉角"
  },
  {
    "name": "北市聯醫忠孝院區醫療大樓9F942病房",
    "lat": 25.0462886,
    "lng": 121.5863056,
    "address": "115臺北市南港區同德路87號醫療大樓9F942病房"
  },
  {
    "name": "北市聯醫忠孝院區醫療大樓9F906病房",
    "lat": 25.0464265,
    "lng": 121.5866298,
    "address": "115臺北市南港區同德路87號醫療大樓9F906病房"
  },
  {
    "name": "北市聯醫忠孝院區醫療大樓10F會議室門口",
    "lat": 25.0469015,
    "lng": 121.5862704,
    "address": "115臺北市南港區同德路87號醫療大樓10F會議室門口"
  },
  {
    "name": "北市聯醫忠孝院區醫療大樓10F1029病房",
    "lat": 25.0466473,
    "lng": 121.5864474,
    "address": "115臺北市南港區同德路87號醫療大樓10F1029病房"
  },
  {
    "name": "北市聯醫忠孝院區醫療大樓10F大禮堂後門",
    "lat": 25.0463393,
    "lng": 121.5862144,
    "address": "115臺北市南港區同德路87號醫療大樓10F大禮堂後門"
  },
  {
    "name": "北市聯醫忠孝院區醫療大樓10F資源檢索區走廊",
    "lat": 25.046213,
    "lng": 121.5863945,
    "address": "115臺北市南港區同德路87號醫療大樓10F資源檢索區走廊"
  },
  {
    "name": "信義行政大樓1F服務櫃台-1F服務台上方維修孔旁",
    "lat": 25.0379325,
    "lng": 121.5822678,
    "address": "110臺北市信義區福德街86號1F服務台（上方維修孔旁）"
  },
  {
    "name": "信義區行政大樓大仁區民活動中心3F",
    "lat": 25.0379273,
    "lng": 121.5823942,
    "address": "110臺北市信義區福德街86號3F大仁活動中心內（入門左手邊柱子後）"
  },
  {
    "name": "信義區行政大樓信義戶政6F中央等候區",
    "lat": 25.0377374,
    "lng": 121.5819731,
    "address": "110臺北市信義區福德街86號6F戶政事務所中央等候區"
  },
  {
    "name": "信義區行政大樓稅捐處信義分處7F主任室",
    "lat": 25.0379952,
    "lng": 121.5830483,
    "address": "110臺北市信義區福德街86號7F主任辦公室內（窗邊）"
  },
  {
    "name": "信義區行政大樓信義區健康服務中心11F多功能會議室",
    "lat": 25.0377393,
    "lng": 121.5820576,
    "address": "110臺北市信義區福德街86號11F多功能會議室內"
  },
  {
    "name": "信義區行政大樓信義區健康服務中心11F小會議室",
    "lat": 25.0379425,
    "lng": 121.5817368,
    "address": "110臺北市信義區福德街86號11F小會議室內"
  },
  {
    "name": "信義區行政大樓稅捐處信義分處7F協談室旁圓桌",
    "lat": 25.0377906,
    "lng": 121.5820053,
    "address": "110臺北市信義區福德街86號7F協談室旁圓桌上方"
  },
  {
    "name": "信義區行政大樓稅捐處信義分處7F第二股辦公區",
    "lat": 25.0378141,
    "lng": 121.5821688,
    "address": "110臺北市信義區福德街86號7F第二股（吊牌後）"
  },
  {
    "name": "信義區行政大樓少年警察隊8F少輔組會議室",
    "lat": 25.0383374,
    "lng": 121.5814833,
    "address": "110臺北市信義區福德街86號8F少輔組會議室內"
  },
  {
    "name": "信義行政大樓8F調解委員會入口右側",
    "lat": 25.0378141,
    "lng": 121.5821688,
    "address": "110臺北市信義區福德街86號8F調解委員會"
  },
  {
    "name": "信義行政大樓9F里幹事辦公區",
    "lat": 25.0373681,
    "lng": 121.5819085,
    "address": "110臺北市信義區福德街86號9F經建課"
  },
  {
    "name": "信義行政大樓9F里幹事辦公區",
    "lat": 25.0376955,
    "lng": 121.5822735,
    "address": "110臺北市信義區福德街86號9F里幹事"
  },
  {
    "name": "信義區行政大樓信義區健康服務中心11F大會議室玻璃隔間旁",
    "lat": 25.0375114,
    "lng": 121.5820942,
    "address": "110臺北市信義區福德街86號11F大會議室（玻璃隔間旁）"
  },
  {
    "name": "信義行政大樓9F兵役課辦公區",
    "lat": 25.0375114,
    "lng": 121.5820942,
    "address": "110臺北市信義區福德街86號9F兵役課（吊牌左邊）"
  },
  {
    "name": "信義區行政大樓10F災害應變中心",
    "lat": 25.0374994,
    "lng": 121.5819712,
    "address": "110臺北市信義區福德街86號10F災害應變中心"
  },
  {
    "name": "松山區行政大樓松山區健康服務中心1F服務臺",
    "lat": 25.049993,
    "lng": 121.5773426,
    "address": "105臺北市松山區八德路四段692號1F"
  },
  {
    "name": "松山區行政大樓松山區健康服務中心2F疫苗室門口",
    "lat": 25.0500198,
    "lng": 121.5774564,
    "address": "105臺北市松山區八德路四段692號2F"
  },
  {
    "name": "松山區行政大樓松山戶政3F會議室門口",
    "lat": 25.0500003,
    "lng": 121.5771911,
    "address": "105臺北市松山區八德路四段692號3F"
  },
  {
    "name": "松山區行政大樓松山戶政4F綜合受理櫃檯15號櫃臺前",
    "lat": 25.0500198,
    "lng": 121.5774564,
    "address": "105臺北市松山區八德路四段692號4F"
  },
  {
    "name": "松山區行政大樓松山戶政4F社會課中央",
    "lat": 25.0500198,
    "lng": 121.5774564,
    "address": "105臺北市松山區八德路四段692號4F"
  },
  {
    "name": "松山區行政大樓松山戶政5F大辦公區南側",
    "lat": 25.0500198,
    "lng": 121.5774564,
    "address": "105臺北市松山區八德路四段692號5F"
  },
  {
    "name": "松山區行政大樓松山戶政5F哺乳室",
    "lat": 25.0500146,
    "lng": 121.5771946,
    "address": "105臺北市松山區八德路四段692號5F"
  },
  {
    "name": "松山區行政大樓松山區健康服務中心6F健康促進組中央",
    "lat": 25.0497172,
    "lng": 121.5772693,
    "address": "105臺北市松山區八德路四段692號6F"
  },
  {
    "name": "松山區行政大樓松山區健康服務中心6F會議室",
    "lat": 25.0501124,
    "lng": 121.5776076,
    "address": "105臺北市松山區八德路四段692號6F"
  },
  {
    "name": "松山區行政大樓7F服務臺西南方柱子旁",
    "lat": 25.0498337,
    "lng": 121.5772592,
    "address": "105臺北市松山區八德路四段692號7F"
  },
  {
    "name": "松山區行政大樓8F櫃臺西南方柱子旁",
    "lat": 25.0498337,
    "lng": 121.5772592,
    "address": "105臺北市松山區八德路四段692號8F"
  },
  {
    "name": "松山區行政大樓9F秘書室門口",
    "lat": 25.0497172,
    "lng": 121.5772693,
    "address": "105臺北市松山區八德路四段692號9F"
  },
  {
    "name": "松山區行政大樓10F人事室門口",
    "lat": 25.0497172,
    "lng": 121.5772693,
    "address": "105臺北市松山區八德路四段692號10F"
  },
  {
    "name": "松山區行政大樓11F大禮堂中央",
    "lat": 25.0497172,
    "lng": 121.5772693,
    "address": "105臺北市松山區八德路四段692號11F"
  },
  {
    "name": "信義永春區民活動中心4F門口",
    "lat": 25.0431392,
    "lng": 121.5776222,
    "address": "110臺北市信義區松山路294號4F"
  },
  {
    "name": "永春市場1F中央",
    "lat": 25.0431462,
    "lng": 121.5775049,
    "address": "110臺北市信義區松山路294號1F"
  },
  {
    "name": "圖書館永春分館3F筆電區",
    "lat": 25.0432272,
    "lng": 121.5774709,
    "address": "110臺北市信義區松山路294號3F"
  },
  {
    "name": "圖書館永春分館3F櫃臺",
    "lat": 25.0431818,
    "lng": 121.5773074,
    "address": "110臺北市信義區松山路294號3F"
  },
  {
    "name": "圖書館永春分館4F多功能活動室",
    "lat": 25.0431818,
    "lng": 121.5773074,
    "address": "110臺北市信義區松山路294號4F"
  },
  {
    "name": "圖書館永春分館4F自修室正中央",
    "lat": 25.0431291,
    "lng": 121.5774477,
    "address": "110臺北市信義區松山路294號4F"
  },
  {
    "name": "內湖行善區民活動中心2F中央",
    "lat": 25.05610565,
    "lng": 121.576763,
    "address": "114臺北市內湖區行善路25巷13號2F"
  },
  {
    "name": "南港運動中心1F咖啡廳旁",
    "lat": 25.0489436,
    "lng": 121.5817448,
    "address": "115臺北市南港區玉成街69號1F"
  },
  {
    "name": "南港運動中心1F電梯前",
    "lat": 25.0489394,
    "lng": 121.5818866,
    "address": "115臺北市南港區玉成街69號1F"
  },
  {
    "name": "南港運動中心5F男女廁前",
    "lat": 25.0487009,
    "lng": 121.5818156,
    "address": "115臺北市南港區玉成街69號5F"
  },
  {
    "name": "南港運動中心1F閱讀室後方",
    "lat": 25.0487751,
    "lng": 121.5818082,
    "address": "115臺北市南港區玉成街69號1F"
  },
  {
    "name": "南港運動中心2F男淋浴間前",
    "lat": 25.0489904,
    "lng": 121.5819436,
    "address": "115臺北市南港區玉成街69號2F"
  },
  {
    "name": "南港運動中心2F電梯口",
    "lat": 25.0488511,
    "lng": 121.5817837,
    "address": "115臺北市南港區玉成街69號2F"
  },
  {
    "name": "南港運動中心3F籃球場樓梯口",
    "lat": 25.0489406,
    "lng": 121.5818501,
    "address": "115臺北市南港區玉成街69號3F"
  },
  {
    "name": "南港運動中心5F逃生門旁",
    "lat": 25.0490591,
    "lng": 121.5819534,
    "address": "115臺北市南港區玉成街69號5F"
  },
  {
    "name": "南港運動中心6F樓梯口",
    "lat": 25.0487759,
    "lng": 121.5820071,
    "address": "115臺北市南港區玉成街69號6F"
  },
  {
    "name": "成德市場1F129攤位前",
    "lat": 25.0460337,
    "lng": 121.5866056,
    "address": "115臺北市南港區同德路100號1F"
  },
  {
    "name": "成德市場1F75攤位前",
    "lat": 25.0459101,
    "lng": 121.5869161,
    "address": "115臺北市南港區同德路100號1F"
  },
  {
    "name": "南港東新區民活動中心1F中央",
    "lat": 25.0546457,
    "lng": 121.6009127,
    "address": "115臺北市南港區東明街99號1F"
  },
  {
    "name": "圖書館龍華民眾閱覽室1F服務臺前方",
    "lat": 25.0476627,
    "lng": 121.5867904,
    "address": "115臺北市南港區東新街63巷8號1F"
  },
  {
    "name": "圖書館龍華民眾閱覽室B1F自修室",
    "lat": 25.0476891,
    "lng": 121.5868179,
    "address": "115臺北市南港區東新街63巷8號B1F"
  },
  {
    "name": "圖書館龍華民眾閱覽室2F筆電區",
    "lat": 25.0476806,
    "lng": 121.5872675,
    "address": "115臺北市南港區東新街63巷8號2F"
  },
  {
    "name": "南港仁福區民活動中心1F里長辦公室門口",
    "lat": 25.0397317,
    "lng": 121.5929662,
    "address": "115臺北市南港區福德街443號1F"
  },
  {
    "name": "浩然敬老院2F西側駐警櫃台區",
    "lat": 25.0387077,
    "lng": 121.5834582,
    "address": "110臺北市信義區大道路116號2F"
  },
  {
    "name": "動質處南門分處8F櫃台中央",
    "lat": 25.0501433,
    "lng": 121.5770809,
    "address": "100臺北市中正區羅斯福路一段8號8樓"
  },
  {
    "name": "浩然敬老院2F東側服務櫃台區",
    "lat": 25.0378265,
    "lng": 121.5830836,
    "address": "110臺北市信義區大道路116號2F"
  },
  {
    "name": "南港老人服務暨日間照顧中心1F服務台",
    "lat": 25.0575477,
    "lng": 121.5987034,
    "address": "115臺北市南港區重陽路187巷5號1F"
  },
  {
    "name": "南港老人服務暨日間照顧中心2F辦公室",
    "lat": 25.0575805,
    "lng": 121.5987416,
    "address": "115臺北市南港區重陽路187巷5號2F"
  },
  {
    "name": "浩然敬老院3F西側服務櫃台區",
    "lat": 25.0376081,
    "lng": 121.5827187,
    "address": "110臺北市信義區大道路116號3F"
  },
  {
    "name": "浩然敬老院3F東側服務櫃台區",
    "lat": 25.0376081,
    "lng": 121.5827187,
    "address": "110臺北市信義區大道路116號3F"
  },
  {
    "name": "信義四育區民活動中心1F中央",
    "lat": 25.0481873,
    "lng": 121.5762806,
    "address": "110臺北市信義區松隆路290號1F"
  },
  {
    "name": "內湖石潭區民活動中心2F大廳",
    "lat": 25.06058035,
    "lng": 121.5915959,
    "address": "114臺北市內湖區成功路二段1號2F"
  },
  {
    "name": "松山慈祐區民活動中心1F中央",
    "lat": 25.0497142,
    "lng": 121.5720098,
    "address": "105臺北市松山區八德路四段580號1F"
  },
  {
    "name": "南港西新區民活動中心1F中央",
    "lat": 25.0577389,
    "lng": 121.5928358,
    "address": "115臺北市南港區成功路1段99號1F"
  },
  {
    "name": "信義區行政大樓10F區長室",
    "lat": 25.0379467,
    "lng": 121.582811,
    "address": "110臺北市信義區福德街86號10F區長室內"
  },
  {
    "name": "松山市場1F 大眾自助快餐攤位走道中央",
    "lat": 25.0503323,
    "lng": 121.5761625,
    "address": "105臺北市松山區八德路四段679號1F"
  },
  {
    "name": "花卉批發市場1F A館1512攤位旁",
    "lat": 25.0632788,
    "lng": 121.5740965,
    "address": "114臺北市內湖區新湖三路28號1F"
  },
  {
    "name": "花卉批發市場1F A館1217攤位旁",
    "lat": 25.0636022,
    "lng": 121.5741739,
    "address": "114臺北市內湖區新湖三路28號1F"
  },
  {
    "name": "花卉批發市場1F A館1717攤位旁",
    "lat": 25.0634829,
    "lng": 121.5739165,
    "address": "114臺北市內湖區新湖三路28號1F"
  },
  {
    "name": "花卉批發市場1F A館1401攤位旁",
    "lat": 25.0628806,
    "lng": 121.5744061,
    "address": "114臺北市內湖區新湖三路28號1F"
  },
  {
    "name": "花卉批發市場1FA館1206攤位旁",
    "lat": 25.0628773,
    "lng": 121.5743164,
    "address": "114臺北市內湖區新湖三路28號1F"
  },
  {
    "name": "花卉批發市場1F A館1706攤位旁",
    "lat": 25.0630228,
    "lng": 121.5740264,
    "address": "114臺北市內湖區新湖三路28號1F"
  },
  {
    "name": "花卉批發市場1F B館3403攤位旁",
    "lat": 25.0632487,
    "lng": 121.5753742,
    "address": "114臺北市內湖區新湖三路36號1F"
  },
  {
    "name": "花卉批發市場1F B館3408攤位旁",
    "lat": 25.0633699,
    "lng": 121.5751258,
    "address": "114臺北市內湖區新湖三路36號1F"
  },
  {
    "name": "圖書館北原會館借還書工作站4F圖書室內",
    "lat": 25.0546645,
    "lng": 121.5951096,
    "address": "115臺北市南港區向陽路一段49號4F"
  },
  {
    "name": "永吉市場1F A13攤前",
    "lat": 25.0449087,
    "lng": 121.5752921,
    "address": "110臺北市信義區永吉路278巷1弄30號1F"
  },
  {
    "name": "松隆區民活動中心天花板中央",
    "lat": 25.0341205,
    "lng": 121.580644,
    "address": "110臺北市信義區松山路657號1F"
  },
  {
    "name": "信義區行政大樓10F研考室",
    "lat": 25.0378069,
    "lng": 121.5826393,
    "address": "110臺北市信義區福德街86號10F研考室內"
  },
  {
    "name": "信義區行政大樓13F大禮堂門口",
    "lat": 25.0375582,
    "lng": 121.5817374,
    "address": "110臺北市信義區福德街86號13F大禮堂"
  },
  {
    "name": "信義區行政大樓13F1301會議室",
    "lat": 25.0378069,
    "lng": 121.5826393,
    "address": "110臺北市信義區福德街86號13F1301會議室內"
  },
  {
    "name": "信義區行政大樓圖書館廣慈分館3F筆電區",
    "lat": 25.037665,
    "lng": 121.5821501,
    "address": "110臺北市信義區福德街86號3F"
  },
  {
    "name": "信義區行政大樓圖書館廣慈分館4F期刊區",
    "lat": 25.037896,
    "lng": 121.5823007,
    "address": "110臺北市信義區福德街86號4F"
  },
  {
    "name": "臺北流行音樂中心1F中央",
    "lat": 25.0516116,
    "lng": 121.5976936,
    "address": "115臺北市南港區市民大道八段99號1F"
  },
  {
    "name": "公園路燈工程管理處工務科南區分隊",
    "lat": 25.0419999,
    "lng": 121.5857437,
    "address": "115臺北市南港區中坡南路55號2F"
  },
  {
    "name": "公園處-駐外單位-南港所(含文山分隊新辦公室)-1",
    "lat": 25.0440384,
    "lng": 121.5910437,
    "address": "115臺北市南港區東新街170之1號1F"
  },
  {
    "name": "公園處-駐外單位-南港所(含文山分隊新辦公室)-2",
    "lat": 25.0440812,
    "lng": 121.5910011,
    "address": "115臺北市南港區東新街170之1號1F"
  },
  {
    "name": "公園處-駐外單位-南港所(含文山分隊新辦公室)-3",
    "lat": 25.0440484,
    "lng": 121.5910648,
    "address": "115臺北市南港區東新街170之1號1F"
  },
  {
    "name": "公園處-駐外單位-南港所(含文山分隊新辦公室)-4",
    "lat": 25.0440396,
    "lng": 121.5909924,
    "address": "115臺北市南港區東新街170之1號1F"
  },
  {
    "name": "公園處-駐外單位-南港所(含文山分隊新辦公室)-5",
    "lat": 25.0440423,
    "lng": 121.5909652,
    "address": "115臺北市南港區東新街170之1號1F"
  },
  {
    "name": "公園處-駐外單位-南港所(含文山分隊新辦公室)-6",
    "lat": 25.0440441,
    "lng": 121.5910356,
    "address": "115臺北市南港區東新街170之1號1F"
  },
  {
    "name": "信義區行政大樓圖書館廣慈分館3F自修室",
    "lat": 25.0378991,
    "lng": 121.5822788,
    "address": "110臺北市信義區福德街86號3F"
  },
  {
    "name": "信義區行政大樓圖書館廣慈分館信4F兒童閱覽室",
    "lat": 25.0379021,
    "lng": 121.5823732,
    "address": "110臺北市信義區福德街86號4F"
  },
  {
    "name": "臺北市住都中心-1F接待大廳",
    "lat": 25.0388474,
    "lng": 121.5814538,
    "address": "110臺北市信義區福德街84巷50號1F"
  },
  {
    "name": "臺北市住都中心1F工務部內會議室",
    "lat": 25.0390983,
    "lng": 121.581495,
    "address": "110臺北市信義區福德街84巷50號1F"
  },
  {
    "name": "臺北市住都中心-1F101會議室",
    "lat": 25.0389668,
    "lng": 121.5811443,
    "address": "110臺北市信義區福德街84巷50號1F"
  },
  {
    "name": "臺北市住都中心-1F102會議室",
    "lat": 25.0392657,
    "lng": 121.5817941,
    "address": "110臺北市信義區福德街84巷50號1F"
  },
  {
    "name": "臺北市住都中心-1F103會議室",
    "lat": 25.0387769,
    "lng": 121.5812399,
    "address": "110臺北市信義區福德街84巷50號1F"
  },
  {
    "name": "臺北市住都中心-2F201會議室",
    "lat": 25.0390637,
    "lng": 121.5817921,
    "address": "110臺北市信義區福德街84巷50號2F"
  },
  {
    "name": "臺北市住都中心-2F202會議室",
    "lat": 25.0388049,
    "lng": 121.5816627,
    "address": "110臺北市信義區福德街84巷50號2F"
  },
  {
    "name": "北市聯醫信義門診部1F X光室外走道",
    "lat": 25.0383091,
    "lng": 121.5832425,
    "address": "110臺北市信義區大道路116號1F"
  },
  {
    "name": "北市聯醫信義門診部1F注射室前",
    "lat": 25.0385925,
    "lng": 121.5829679,
    "address": "110臺北市信義區大道路116號1F"
  },
  {
    "name": "北市聯醫信義門診部2F電療室外走道",
    "lat": 25.0381083,
    "lng": 121.5832864,
    "address": "110臺北市信義區大道路116號2F"
  },
  {
    "name": "北市聯醫信義門診部2F物理治療室",
    "lat": 25.0384299,
    "lng": 121.5828821,
    "address": "110臺北市信義區大道路116號2F"
  },
  {
    "name": "浩然敬老院(廣慈C標鄉)3F交誼廳中央",
    "lat": 25.0383741,
    "lng": 121.5815322,
    "address": "110臺北市信義區福德街84巷30號3F"
  }
]