[
  {
    "name": "高速公路局北區工程處中壢服務區服務台",
    "lat": 25.0036573,
    "lng": 121.2516654,
    "address": "320桃園市中壢區內定里內定二街998-3號"
  },
  {
    "name": "社團法人桃園市蘆竹區新莊社區發展協會",
    "lat": 25.024165,
    "lng": 121.248855,
    "address": "338桃園市蘆竹區新莊里大新路417之5號"
  },
  {
    "name": "桃園市蘆竹區富竹社區發展協會",
    "lat": 25.030741,
    "lng": 121.264048,
    "address": "338桃園市蘆竹區富竹里南竹路四段富竹街109號"
  },
  {
    "name": "桃園市大園區菓林社區發展協會",
    "lat": 25.006,
    "lng": 121.259,
    "address": "337桃園市大園區果林里拔子林一路407巷36號"
  },
  {
    "name": "桃園市政府消防局大竹分隊",
    "lat": 25.019234,
    "lng": 121.260588,
    "address": "338桃園市蘆竹區上興路188號"
  }
]