[
  {
    "name": "桃園大業郵局",
    "lat": 25.013275,
    "lng": 121.312213,
    "address": "330桃園市桃園區大業路一段372號"
  },
  {
    "name": "桃園水汴頭郵局",
    "lat": 25.026725,
    "lng": 121.306077,
    "address": "330桃園市桃園區春日路1360號"
  },
  {
    "name": "桃園慈文郵局",
    "lat": 25.022265,
    "lng": 121.303465,
    "address": "330桃園市桃園區經國路286號"
  },
  {
    "name": "行政執行署桃園分署1樓等候區",
    "lat": 25.019306,
    "lng": 121.297031,
    "address": "330桃園市桃園區中正路1195號"
  },
  {
    "name": "財政部北區國稅局桃園分局1樓大廳",
    "lat": 25.0035899,
    "lng": 121.3205038,
    "address": "330桃園市桃園區三元街150號1樓"
  },
  {
    "name": "臺灣土地銀行北桃園分行",
    "lat": 25.01624,
    "lng": 121.298268,
    "address": "330桃園市桃園區中正路1071號1樓-1"
  },
  {
    "name": "國有財產署桃園辦事處",
    "lat": 25.003872,
    "lng": 121.32097,
    "address": "330桃園市桃園區三元街152號4樓"
  },
  {
    "name": "國防部桃園福利站服務台",
    "lat": 25.005166,
    "lng": 121.320507,
    "address": "330桃園市桃園區三元街151號"
  },
  {
    "name": "華南商業銀行北桃園分行",
    "lat": 25.011242,
    "lng": 121.298246,
    "address": "330桃園市桃園區大興西路二段94號"
  },
  {
    "name": "上海商銀北桃園分行",
    "lat": 25.015901,
    "lng": 121.298123,
    "address": "330桃園市桃園區同德六街139號"
  },
  {
    "name": "臺灣銀行東桃園分行",
    "lat": 25.022789,
    "lng": 121.303123,
    "address": "330桃園市桃園區經國路300號"
  },
  {
    "name": "關務署基隆關桃園分關南崁辦公室2樓",
    "lat": 25.03405,
    "lng": 121.299934,
    "address": "338桃園市蘆竹區新南路二段100號2樓(南崁)"
  },
  {
    "name": "桃園市桃園區東埔里辦公處",
    "lat": 25.005723,
    "lng": 121.306884,
    "address": "330桃園市桃園區東埔里信光路55號"
  },
  {
    "name": "桃園市桃園區新埔社區發展協會",
    "lat": 25.020084,
    "lng": 121.305577,
    "address": "330桃園市桃園區新埔里南通路65號一樓"
  },
  {
    "name": "桃園市桃園區福元社區發展協會",
    "lat": 25.00572,
    "lng": 121.317974,
    "address": "330桃園市桃園區福元里福元街135號"
  },
  {
    "name": "桃園市桃園區大檜溪社區發展協會",
    "lat": 25.01422,
    "lng": 121.316128,
    "address": "330桃園市桃園區會稽里興一街65巷50號B1"
  },
  {
    "name": "社團法人桃園市社會服務關懷協會",
    "lat": 25.009466,
    "lng": 121.299339,
    "address": "330桃園市桃園區中寧里同德二街189巷3號一樓"
  },
  {
    "name": "桃園市桃園區汴洲里辦公處",
    "lat": 25.026251,
    "lng": 121.303812,
    "address": "330桃園市桃園區汴洲里峨眉二街26號"
  },
  {
    "name": "桃園市桃園區信光里辦公處",
    "lat": 25.010148,
    "lng": 121.305584,
    "address": "330桃園市桃園區信光里慈文路65號"
  },
  {
    "name": "桃園市桃園區大有社區發展協會",
    "lat": 25.011468,
    "lng": 121.318963,
    "address": "330桃園市桃園區大有里大有路422號二樓"
  },
  {
    "name": "桃園市桃園區莊敬社區發展協會",
    "lat": 25.021558,
    "lng": 121.299972,
    "address": "330桃園市桃園區莊敬里新埔七街169巷13號"
  },
  {
    "name": "桃園市桃園區長德里辦公處",
    "lat": 25.003808,
    "lng": 121.300581,
    "address": "330桃園市桃園區長德里愛七街15號"
  },
  {
    "name": "財團法人真耶穌教會台灣總會桃園分會",
    "lat": 25.02,
    "lng": 121.3,
    "address": "330桃園市桃園區中正里仁愛路21號"
  },
  {
    "name": "真醫健康賦能管理中心",
    "lat": 25.02479,
    "lng": 121.30152,
    "address": "330桃園市桃園區經國路723-1號"
  },
  {
    "name": "桃園市忠烈祠文化館",
    "lat": 25.006148,
    "lng": 121.324623,
    "address": "330桃園市桃園區成功路三段200號"
  },
  {
    "name": "桃園市展演中心",
    "lat": 25.017698,
    "lng": 121.298676,
    "address": "330桃園市桃園區中正路1188號"
  },
  {
    "name": "桃園中正藝文特區商圈南平路266號對面號誌桿",
    "lat": 25.0189969,
    "lng": 121.3000423,
    "address": "330桃園市桃園區南平路266號"
  },
  {
    "name": "桃園中正藝文特區商圈中埔二街40號左側號誌桿",
    "lat": 25.0100843,
    "lng": 121.2968699,
    "address": "330桃園市桃園區中埔二街40號"
  },
  {
    "name": "桃園藝文廣場中正路南平路口號誌桿",
    "lat": 25.0207047,
    "lng": 121.2964392,
    "address": "330桃園市桃園區中正路1202號"
  },
  {
    "name": "桃園第一河濱公園三元街38-1號號誌桿",
    "lat": 25.0078449,
    "lng": 121.321202,
    "address": "330桃園市桃園區三元街38-1號"
  },
  {
    "name": "桃園第三河濱公園三元街47巷電信桿",
    "lat": 25.0042826,
    "lng": 121.3153923,
    "address": "330桃園市桃園區三元街47巷"
  },
  {
    "name": "桃園第三河濱公園經國路769巷電信桿",
    "lat": 25.026601,
    "lng": 121.301072,
    "address": "330桃園市桃園區經國路769巷"
  },
  {
    "name": "桃園第二河濱公園大業路一段19巷38號路燈桿",
    "lat": 25.0038257,
    "lng": 121.316969,
    "address": "330桃園市桃園區大業路一段19巷38號"
  },
  {
    "name": "桃園第二河濱公園春日路1651巷54號路燈桿",
    "lat": 25.0256885,
    "lng": 121.3018409,
    "address": "330桃園市桃園區春日路1651巷54號"
  },
  {
    "name": "桃園中正公園同安國小與中正公園旁交通測速桿左前方",
    "lat": 25.0218891,
    "lng": 121.2981875,
    "address": "330桃園市桃園區同德11街48號"
  },
  {
    "name": "桃園中正公園同安國小與中正公園旁交通測速桿右前方",
    "lat": 25.0218891,
    "lng": 121.2981875,
    "address": "330桃園市桃園區同德11街48號"
  },
  {
    "name": "桃園南平公園五福四街1號旁燈桿左前方",
    "lat": 25.0190922,
    "lng": 121.307387,
    "address": "330桃園市桃園區五福四街1號"
  },
  {
    "name": "桃園南平公園五福四街1號旁燈桿右前方",
    "lat": 25.0190922,
    "lng": 121.307387,
    "address": "330桃園市桃園區五福四街1號"
  },
  {
    "name": "桃園溫州公園路燈桿左前方",
    "lat": 25.006845,
    "lng": 121.297917,
    "address": "330桃園市桃園區溫州街"
  },
  {
    "name": "桃園溫州公園路燈桿右前方",
    "lat": 25.006845,
    "lng": 121.297917,
    "address": "330桃園市桃園區溫州街"
  },
  {
    "name": "桃園捷運綠線先導公車智慧站牌-慈文國中(往蘆竹)",
    "lat": 25.0091404,
    "lng": 121.3021958,
    "address": "330桃園市桃園區中正路782號"
  },
  {
    "name": "桃園捷運綠線先導公車智慧站牌-慈文國中(往桃園)",
    "lat": 25.0093467,
    "lng": 121.301669,
    "address": "330桃園市桃園區中正路835號"
  }
]