[
  {
    "name": "基隆六堵郵局",
    "lat": 25.088337,
    "lng": 121.703406,
    "address": "206基隆市七堵區六堵里工東街64號"
  },
  {
    "name": "基隆百福郵局",
    "lat": 25.08423,
    "lng": 121.698018,
    "address": "206基隆市七堵區百五街93號"
  },
  {
    "name": "公路總局臺北區監理所基隆監理站",
    "lat": 25.088146,
    "lng": 121.696027,
    "address": "206基隆市七堵區實踐路296號"
  },
  {
    "name": "財政部北區國稅局七堵稽徵所",
    "lat": 25.093066,
    "lng": 121.711005,
    "address": "206基隆市七堵區光明路21號5樓"
  },
  {
    "name": "標準檢驗局基隆分局五堵辦事處商檢/計量業務民眾洽公區",
    "lat": 25.084325,
    "lng": 121.698555,
    "address": "206基隆市七堵區福五街85巷3號"
  },
  {
    "name": "臺鐵局七堵站2樓剪票口",
    "lat": 25.093897,
    "lng": 121.713924,
    "address": "206基隆市七堵區東新街2號-1"
  },
  {
    "name": "臺鐵局七堵站第2月台南端",
    "lat": 25.093897,
    "lng": 121.713924,
    "address": "206基隆市七堵區東新街2號-1"
  },
  {
    "name": "台電公司基隆區處七堵巡修課",
    "lat": 25.0843339,
    "lng": 121.6963457,
    "address": "206基隆市七堵區福五街3號"
  },
  {
    "name": "臺鐵局七堵站站前大樓1樓西出口旁",
    "lat": 25.0930993,
    "lng": 121.7140236,
    "address": "206基隆市七堵區長興里東新街2號-1"
  },
  {
    "name": "臺鐵局七堵站第2月台12車位置",
    "lat": 25.0930993,
    "lng": 121.7140236,
    "address": "206基隆市七堵區長興里東新街2號-1"
  },
  {
    "name": "臺鐵局七堵站候車室",
    "lat": 25.0930993,
    "lng": 121.7118349,
    "address": "206基隆市七堵區長興里東新街2號-1"
  },
  {
    "name": "勞動部勞動力發展署北基宜花金馬分署基隆就業中心-六堵分站洽公櫃台",
    "lat": 25.087775,
    "lng": 121.703117,
    "address": "206基隆市七堵區工建北路1-2號"
  },
  {
    "name": "基隆市七堵區堵北里辦公處",
    "lat": 25.083356,
    "lng": 121.695279,
    "address": "206基隆市七堵區堵北里福一街136號"
  },
  {
    "name": "長興里辦公處",
    "lat": 25.092882,
    "lng": 121.714951,
    "address": "206基隆市七堵區長興里東新街25號"
  },
  {
    "name": "基隆市七堵區六堵社區發展協會",
    "lat": 25.088426,
    "lng": 121.702752,
    "address": "206基隆市七堵區六堵里六堵一街68號"
  },
  {
    "name": "基隆市七堵區泰安社區發展協會",
    "lat": 25.089464,
    "lng": 121.707869,
    "address": "206基隆市七堵區泰安里泰安路2巷10號"
  },
  {
    "name": "基隆市七堵區長安社區發展協會",
    "lat": 25.0735,
    "lng": 121.697726,
    "address": "206基隆市七堵區長安里長安街二四七巷38號之1;長安街31號(收文地址)"
  },
  {
    "name": "基隆市七堵戶政事務所",
    "lat": 25.093158,
    "lng": 121.711006,
    "address": "206基隆市七堵區光明路21號1塿"
  },
  {
    "name": "基隆市七堵區公所",
    "lat": 25.093158,
    "lng": 121.711006,
    "address": "206基隆市七堵區光明路21號2、3樓"
  },
  {
    "name": "基隆市百福圖書館",
    "lat": 25.083947,
    "lng": 121.698754,
    "address": "206基隆市七堵區福五街1號"
  }
]