[
  {
    "name": "士林天母郵局",
    "lat": 25.1226571,
    "lng": 121.5321676,
    "address": "111臺北市士林區中山北路七段130號"
  },
  {
    "name": "士林名山里郵局",
    "lat": 25.1017472,
    "lng": 121.5283279,
    "address": "111臺北市士林區至誠路二段70號"
  },
  {
    "name": "士林芝山郵局",
    "lat": 25.1097299,
    "lng": 121.5343372,
    "address": "111臺北市士林區德行東路258號"
  },
  {
    "name": "士林蘭雅郵局",
    "lat": 25.1046156,
    "lng": 121.5268735,
    "address": "111臺北市士林區忠誠路一段52號"
  },
  {
    "name": "北投文林郵局",
    "lat": 25.1056629,
    "lng": 121.517672,
    "address": "112臺北市北投區文林北路96號"
  },
  {
    "name": "北投石牌郵局",
    "lat": 25.1173631,
    "lng": 121.5163968,
    "address": "112臺北市北投區石牌路二段93-2號"
  },
  {
    "name": "北投明德郵局",
    "lat": 25.113253,
    "lng": 121.5221483,
    "address": "112臺北市北投區明德路210號"
  },
  {
    "name": "北投致遠郵局",
    "lat": 25.1100915,
    "lng": 121.514895,
    "address": "112臺北市北投區致遠一路一段121號"
  },
  {
    "name": "臺北陽明交大郵局",
    "lat": 25.119672,
    "lng": 121.514375,
    "address": "112臺北市北投區立農街二段155號"
  },
  {
    "name": "臺北榮民總醫院中正樓一樓大廳",
    "lat": 25.119288,
    "lng": 121.520382,
    "address": "112臺北市北投區石牌路二段201號"
  },
  {
    "name": "臺北榮民總醫院中正樓中央連結道",
    "lat": 25.119288,
    "lng": 121.520382,
    "address": "112臺北市北投區石牌路二段201號"
  },
  {
    "name": "臺北榮民總醫院中正樓美食廣場",
    "lat": 25.119288,
    "lng": 121.520382,
    "address": "112臺北市北投區石牌路二段201號"
  },
  {
    "name": "行政執行署士林分署服務台",
    "lat": 25.0971569,
    "lng": 121.5245754,
    "address": "111臺北市士林區美德街99號"
  },
  {
    "name": "臺灣士林地方檢察署1樓為民服務中心",
    "lat": 25.1125099,
    "lng": 121.5330572,
    "address": "111臺北市士林區士東路190號"
  },
  {
    "name": "國立臺灣科學教育館1F大廳民眾休憩區",
    "lat": 25.096195,
    "lng": 121.516677,
    "address": "111臺北市士林區士商路189號1樓"
  },
  {
    "name": "國立臺灣科學教育館2F大廳民眾用餐區",
    "lat": 25.096195,
    "lng": 121.516677,
    "address": "111臺北市士林區士商路189號2樓"
  },
  {
    "name": "兆豐國際商銀蘭雅分行",
    "lat": 25.105933,
    "lng": 121.525013,
    "address": "111臺北市士林區中山北路六段126號"
  },
  {
    "name": "兆豐國際商銀天母分行",
    "lat": 25.1251928,
    "lng": 121.5327499,
    "address": "111臺北市士林區中山北路七段193號"
  },
  {
    "name": "臺灣土地銀行士林分行",
    "lat": 25.0974416,
    "lng": 121.5272383,
    "address": "111臺北市士林區中山北路五段689號"
  },
  {
    "name": "臺灣土地銀行天母分行",
    "lat": 25.1137587,
    "lng": 121.5317362,
    "address": "111臺北市士林區忠誠路二段122號"
  },
  {
    "name": "臺灣土地銀行石牌分行",
    "lat": 25.105924,
    "lng": 121.517244,
    "address": "112臺北市北投區文林北路116號"
  },
  {
    "name": "財政部臺北國稅局士林一辦民眾服務區",
    "lat": 25.0970738,
    "lng": 121.5227345,
    "address": "111臺北市士林區美崙街43號1樓"
  },
  {
    "name": "財政部臺北國稅局士林二辦民眾服務區",
    "lat": 25.0974829,
    "lng": 121.5241074,
    "address": "111臺北市士林區文林路546號3樓"
  },
  {
    "name": "華南商業銀行石牌分行",
    "lat": 25.1135815,
    "lng": 121.5114906,
    "address": "112臺北市北投區石牌路一段78號"
  },
  {
    "name": "華南商業銀行天母分行",
    "lat": 25.105089,
    "lng": 121.528798,
    "address": "111臺北市士林區忠誠路一段109號"
  },
  {
    "name": "臺北高等行政法院",
    "lat": 25.102783,
    "lng": 121.519456,
    "address": "111臺北市士林區文林路725號"
  },
  {
    "name": "第一商業銀行天母分行",
    "lat": 25.108618,
    "lng": 121.530587,
    "address": "111臺北市士林區忠誠路一段62號"
  },
  {
    "name": "上海商銀天母分行",
    "lat": 25.1227599,
    "lng": 121.5317766,
    "address": "111臺北市士林區中山北路七段125號"
  },
  {
    "name": "第一商業銀行(石牌分行)",
    "lat": 25.1095869,
    "lng": 121.5199337,
    "address": "112臺北市北投區明德路100號"
  },
  {
    "name": "臺北榮民總醫院中正樓放射性診療區",
    "lat": 25.119249,
    "lng": 121.520361,
    "address": "112臺北市北投區石牌路二段201號"
  },
  {
    "name": "臺北榮民總醫院思源樓",
    "lat": 25.119249,
    "lng": 121.520361,
    "address": "112臺北市北投區石牌路二段201號"
  },
  {
    "name": "國立傳統藝術中心臺灣戲曲中心臺音館2樓",
    "lat": 25.102598,
    "lng": 121.519896,
    "address": "111臺北市士林區文林路751號"
  },
  {
    "name": "國立傳統藝術中心臺灣戲曲中心大表演廳",
    "lat": 25.102598,
    "lng": 121.519896,
    "address": "111臺北市士林區文林路751號"
  },
  {
    "name": "國立傳統藝術中心臺灣戲曲中心小表演廳",
    "lat": 25.102434,
    "lng": 121.519836,
    "address": "111臺北市士林區文林路751號"
  },
  {
    "name": "臺灣士林地方檢察署",
    "lat": 25.110858,
    "lng": 121.533623,
    "address": "111臺北市士林區士東路190-3號"
  },
  {
    "name": "台灣健康社區自主發展協會",
    "lat": 25.109251,
    "lng": 121.532147,
    "address": "111臺北市士林區三玉里德行東路203巷2號一樓"
  },
  {
    "name": "台北市北投青溪協會(建民里)",
    "lat": 25.105716,
    "lng": 121.518894,
    "address": "112臺北市北投區建民里文林北路80巷38弄2號一樓"
  },
  {
    "name": "臺北市北投區文林里辦公處",
    "lat": 25.107648,
    "lng": 121.517389,
    "address": "112臺北市北投區文林里致遠一路一段9號"
  },
  {
    "name": "臺北市北投區榮光社區發展協會",
    "lat": 25.114032,
    "lng": 121.515011,
    "address": "112臺北市北投區榮光里石牌路一段166巷43弄15號"
  },
  {
    "name": "財團法人臺北市華夏婦女文教基金會",
    "lat": 25.102172,
    "lng": 121.53592,
    "address": "111臺北市士林區岩山里至誠路一段62巷28號"
  },
  {
    "name": "財團法人福智慈善基金會",
    "lat": 25.109239,
    "lng": 121.525183,
    "address": "111臺北市士林區蘭興里中山北路六段243號一樓"
  },
  {
    "name": "財團法人臺北市松年長春社會福利基金會(士林)",
    "lat": 25.122334,
    "lng": 121.532001,
    "address": "111臺北市士林區天山里中山北路七段122號三樓"
  },
  {
    "name": "臺北市士林區德行里里辦公處",
    "lat": 25.10547,
    "lng": 121.523485,
    "address": "111臺北市士林區德行里德行西路30號一樓"
  },
  {
    "name": "台北市士林區幸福名山社區發展協會",
    "lat": 25.103612,
    "lng": 121.528757,
    "address": "111臺北市士林區名山里雨聲街68號"
  },
  {
    "name": "臺北市北投區我愛石牌社區發展協會",
    "lat": 25.109848,
    "lng": 121.517879,
    "address": "112臺北市北投區石牌里建民路116巷13號"
  },
  {
    "name": "財團法人陽明山基督教天母禮拜堂",
    "lat": 25.125861,
    "lng": 121.533002,
    "address": "111臺北市士林區天母里中山北路七段216巷1號一樓"
  },
  {
    "name": "臺北市士林區天和社區發展協會",
    "lat": 25.123448,
    "lng": 121.532947,
    "address": "111臺北市士林區天山里中山北路七段154巷6號四樓"
  },
  {
    "name": "社團法人國際奔享體驗教育發展協會(吉利真光)",
    "lat": 25.11594,
    "lng": 121.510944,
    "address": "112臺北市北投區吉利里石牌路一段39巷80弄41號一樓"
  },
  {
    "name": "臺北市北投區建民里辦公處",
    "lat": 25.104715,
    "lng": 121.518817,
    "address": "112臺北市北投區建民里文林北路36號"
  },
  {
    "name": "財團法人台北市天母基督教會",
    "lat": 25.122035,
    "lng": 121.530737,
    "address": "111臺北市士林區天母里天玉街63號"
  },
  {
    "name": "財團法人天主教遣使會(天母天主堂)",
    "lat": 25.122764,
    "lng": 121.532212,
    "address": "111臺北市士林區天山里中山北路七段134號"
  },
  {
    "name": "臺北市士林區福佳社區發展協會",
    "lat": 25.097175,
    "lng": 121.517493,
    "address": "111臺北市士林區福佳里美崙街190號(福佳區民活動中心)"
  },
  {
    "name": "臺北市士林區東山里辦公處",
    "lat": 25.113505,
    "lng": 121.53862,
    "address": "111臺北市士林區東山里士東路320巷2號一樓"
  },
  {
    "name": "北投榮總郵局",
    "lat": 25.1196362,
    "lng": 121.5195863,
    "address": "112臺北市北投區石牌路二段201號(榮總醫院地下1樓)"
  },
  {
    "name": "司法院(臺北高等行政法院)",
    "lat": 25.1014073,
    "lng": 121.518668,
    "address": "111臺北市士林區福國路101號"
  },
  {
    "name": "司法院(士林地方法院)-1",
    "lat": 25.112097,
    "lng": 121.5332784,
    "address": "111臺北市士林區士東路190號#第一辦公大樓"
  },
  {
    "name": "司法院(士林地方法院)-2",
    "lat": 25.112097,
    "lng": 121.5332784,
    "address": "111臺北市士林區士東路190號#少家大樓"
  },
  {
    "name": "天母棒球場-N-忠誠路二段",
    "lat": 25.1133101,
    "lng": 121.5318822,
    "address": "111臺北市士林區忠誠路二段77號前方候車亭"
  },
  {
    "name": "泰北中學-E1-福林路",
    "lat": 25.09717,
    "lng": 121.53352,
    "address": "111臺北市士林區福林路240號(泰北高中旁)候車亭"
  },
  {
    "name": "雨農國小-W-雨聲街",
    "lat": 25.1047015,
    "lng": 121.530236,
    "address": "111臺北市士林區忠義街1號雨農國小後門候車亭(雨聲街本線上)"
  },
  {
    "name": "市立臺北特教學校-N-忠誠路二段",
    "lat": 25.1172725,
    "lng": 121.5346782,
    "address": "111臺北市士林區忠誠路二段207巷1號旁候車亭(忠誠路2段本線)"
  },
  {
    "name": "市立臺北特教學校-S-忠誠路二段",
    "lat": 25.117116,
    "lng": 121.5342892,
    "address": "111臺北市士林區忠誠路二段200號前方候車亭"
  },
  {
    "name": "天母棒球場-S-忠誠路二段",
    "lat": 25.1141673,
    "lng": 121.5322068,
    "address": "111臺北市士林區忠誠路二段134號前候車亭"
  },
  {
    "name": "蘭雅國中-S1-忠誠路二段",
    "lat": 25.1095358,
    "lng": 121.5303708,
    "address": "111臺北市士林區忠誠路二段27號對面候車亭"
  },
  {
    "name": "雨農國小-S1-忠誠路一段",
    "lat": 25.1050735,
    "lng": 121.5285365,
    "address": "111臺北市士林區忠誠路一段105號前候車亭"
  },
  {
    "name": "聯合醫院陽明院區-E-忠義街",
    "lat": 25.1053931,
    "lng": 121.5305183,
    "address": "111臺北市士林區忠義街40號對面候車亭"
  },
  {
    "name": "蘭雅國中-N1-忠誠路二段",
    "lat": 25.109507,
    "lng": 121.5306476,
    "address": "111臺北市士林區忠誠路二段27號旁候車亭"
  },
  {
    "name": "福林國小-W1-中正路",
    "lat": 25.0961985,
    "lng": 121.5296462,
    "address": "111臺北市士林區中正路115號對面候車亭"
  },
  {
    "name": "泰北中學-W1-福林路",
    "lat": 25.097768,
    "lng": 121.533996,
    "address": "111臺北市士林區福林路209號旁候車亭"
  },
  {
    "name": "福林國小-E1-中正路",
    "lat": 25.0959099,
    "lng": 121.5290116,
    "address": "111臺北市士林區中正路116號對面候車亭"
  },
  {
    "name": "天母棒球場-士東-E-士東路",
    "lat": 25.1125028,
    "lng": 121.5322983,
    "address": "111臺北市士林區士東路180號候車亭"
  },
  {
    "name": "華興中學-N-仰德大道一段",
    "lat": 25.1041311,
    "lng": 121.5384175,
    "address": "111臺北市士林區仰德大道一段101號華興中學校門旁候車亭"
  },
  {
    "name": "華興中學-S-仰德大道一段",
    "lat": 25.104131,
    "lng": 121.538154,
    "address": "111臺北市士林區仰德大道一段101號華興中學校門旁對面候車亭"
  },
  {
    "name": "天母-S1-中山北路七段",
    "lat": 25.124198,
    "lng": 121.532455,
    "address": "111臺北市士林區中山北路七段165之2號候車亭"
  },
  {
    "name": "天母棒球場-士東-士東路",
    "lat": 25.112691,
    "lng": 121.532394,
    "address": "111臺北市士林區士東路180號對面候車亭"
  },
  {
    "name": "兒童新樂園-士商路",
    "lat": 25.0962101,
    "lng": 121.515214,
    "address": "111臺北市士林區士商路150號旁(兒童新樂園對面)候車亭"
  },
  {
    "name": "雨農國小-E-忠誠路一段",
    "lat": 25.1045422,
    "lng": 121.5306871,
    "address": "111臺北市士林區忠誠路一段105號雨農國小後門對面候車亭"
  },
  {
    "name": "榮總-E1-石牌路二段",
    "lat": 25.1185993,
    "lng": 121.5197318,
    "address": "112臺北市北投區明德路365號候車亭(教學大樓旁)(石牌路二段本線上)"
  },
  {
    "name": "榮總-E2-石牌路二段",
    "lat": 25.1186742,
    "lng": 121.5195514,
    "address": "112臺北市北投區明德路365號候車亭(教學大樓旁)(石牌路二段本線上)"
  },
  {
    "name": "石牌國小-W-石牌路一段",
    "lat": 25.11433,
    "lng": 121.5129207,
    "address": "112臺北市北投區石牌路一段146號對面(石牌國小側)候車亭"
  },
  {
    "name": "蘭雅新城-N-忠誠路一段",
    "lat": 25.107076,
    "lng": 121.530151,
    "address": "111臺北市士林區忠誠路一段159號旁候車亭"
  },
  {
    "name": "芝山國小-W-德行東路",
    "lat": 25.1103315,
    "lng": 121.5372942,
    "address": "111臺北市士林區德行東路285號候車亭"
  },
  {
    "name": "名山里-W-雨聲街",
    "lat": 25.102447,
    "lng": 121.528961,
    "address": "111臺北市士林區雨聲街44號候車亭"
  },
  {
    "name": "蘭雅新城-S-忠誠路一段",
    "lat": 25.1071395,
    "lng": 121.5298407,
    "address": "111臺北市士林區忠誠路一段157號對面候車亭"
  },
  {
    "name": "芝山岩-E-至誠路一段",
    "lat": 25.1012629,
    "lng": 121.5367056,
    "address": "111臺北市士林區至誠路一段26號對面候車亭"
  },
  {
    "name": "雨農國小-N1-忠誠路一段",
    "lat": 25.105372,
    "lng": 121.5285489,
    "address": "111臺北市士林區忠誠路一段106號前候車亭"
  },
  {
    "name": "忠誠公園-N1-忠誠路一段",
    "lat": 25.1039484,
    "lng": 121.5255827,
    "address": "111臺北市士林區忠誠路一段12號對面候車亭"
  },
  {
    "name": "士東路-W-士東路",
    "lat": 25.1134517,
    "lng": 121.5367603,
    "address": "111臺北市士林區士東路270號對面候車亭"
  },
  {
    "name": "忠誠公園-W-忠誠路一段",
    "lat": 25.1043194,
    "lng": 121.5259022,
    "address": "111臺北市士林區忠誠路一段22號候車亭"
  },
  {
    "name": "雙溪公園-E-至善路一段",
    "lat": 25.0980333,
    "lng": 121.5383678,
    "address": "111臺北市士林區至善路一段118號對面候車亭"
  },
  {
    "name": "雙溪公園-W-至善路一段",
    "lat": 25.0977808,
    "lng": 121.5379236,
    "address": "111臺北市士林區至善路一段117號(至善公園停車場對面候車亭)"
  },
  {
    "name": "芝山抽水站-W-至誠路二段",
    "lat": 25.101299,
    "lng": 121.527206,
    "address": "111臺北市士林區至誠路二段114號前候車亭"
  },
  {
    "name": "忠義街-忠義街",
    "lat": 25.1081791,
    "lng": 121.5327254,
    "address": "111臺北市士林區忠義街134號旁候車亭"
  },
  {
    "name": "東山路-東山路",
    "lat": 25.1152948,
    "lng": 121.539042,
    "address": "111臺北市士林區東山路27之1號斜旁候車亭"
  },
  {
    "name": "梅林新村-至善路一段",
    "lat": 25.0975273,
    "lng": 121.540128,
    "address": "111臺北市士林區至善路一段138巷3弄1號對面候車亭"
  },
  {
    "name": "職能發展學院一-士東路",
    "lat": 25.1137663,
    "lng": 121.5382867,
    "address": "111臺北市士林區士東路316號前方候車亭"
  },
  {
    "name": "天母圓環-E-中山北路七段",
    "lat": 25.125032,
    "lng": 121.532356,
    "address": "111臺北市士林區中山北路七段191巷77號前方候車亭"
  },
  {
    "name": "忠孝新村-德行東路",
    "lat": 25.1112147,
    "lng": 121.5398222,
    "address": "111臺北市士林區德行東路379巷4弄10號對面候車亭"
  },
  {
    "name": "忠孝新村-S-德行東路",
    "lat": 25.111137,
    "lng": 121.539718,
    "address": "111臺北市士林區德行東路393巷12號對面候車亭"
  },
  {
    "name": "芝蘭新村-N-仰德大道一段",
    "lat": 25.107299,
    "lng": 121.537353,
    "address": "111臺北市士林區仰德大道一段91巷1號附近候車亭"
  },
  {
    "name": "保一總隊-石牌路二段",
    "lat": 25.118865,
    "lng": 121.517372,
    "address": "112臺北市北投區立農街二段301號斜對面候車亭"
  },
  {
    "name": "梅林新村-E-至善路一段",
    "lat": 25.097169,
    "lng": 121.540206,
    "address": "111臺北市士林區至善路一段與至善路一段138巷弄口東南側候車亭"
  },
  {
    "name": "榮總一-W1-石牌路二段",
    "lat": 25.118753,
    "lng": 121.5205303,
    "address": "112臺北市北投區石牌路二段與振興街口往西50M附近候車亭"
  },
  {
    "name": "榮光新村-S-石牌路二段",
    "lat": 25.120244,
    "lng": 121.522644,
    "address": "112臺北市北投區石牌路二段322號對面候車亭"
  },
  {
    "name": "宏國新村-W-明德路",
    "lat": 25.1154833,
    "lng": 121.5203913,
    "address": "112臺北市北投區明德路321號對面候車亭"
  },
  {
    "name": "三玉宮-E-天母東路",
    "lat": 25.11799,
    "lng": 121.5311,
    "address": "112臺北市北投區天母東路6之2號前方候車亭"
  },
  {
    "name": "永明派出所-E1-石牌路二段",
    "lat": 25.117374,
    "lng": 121.516616,
    "address": "112臺北市北投區石牌路二段100號旁候車亭"
  },
  {
    "name": "石牌-文林北路",
    "lat": 25.109472,
    "lng": 121.512374,
    "address": "112臺北市北投區文林北路261號旁候車亭"
  },
  {
    "name": "芝山公園-至誠路一段",
    "lat": 25.1013452,
    "lng": 121.5341155,
    "address": "111臺北市士林區至誠路一段150號旁候車亭"
  },
  {
    "name": "惠濟宮-W-至誠路一段",
    "lat": 25.101934,
    "lng": 121.531639,
    "address": "112臺北市北投區至誠路一段289號對面候車亭"
  },
  {
    "name": "天北站-S-天母北路",
    "lat": 25.1225893,
    "lng": 121.5267146,
    "address": "111臺北市士林區天母北路87巷2弄與天母北路口西側候車亭"
  },
  {
    "name": "天母新村-S-中山北路七段",
    "lat": 25.1212982,
    "lng": 121.5313672,
    "address": "111臺北市士林區中山北路七段75號候車亭"
  },
  {
    "name": "芝山公園-E-至誠路一段",
    "lat": 25.101226,
    "lng": 121.534263,
    "address": "111臺北市士林區至誠路一段146號對面候車亭"
  },
  {
    "name": "捷運芝山站(福華)-S-福華路",
    "lat": 25.1040792,
    "lng": 121.5223449,
    "address": "111臺北市士林區福華路162之2號附近候車亭"
  },
  {
    "name": "德行(中山忠誠路口)-S-中山北路六段",
    "lat": 25.1031505,
    "lng": 121.5251204,
    "address": "111臺北市士林區中山北路六段17號旁候車亭"
  },
  {
    "name": "明德路-S-明德路",
    "lat": 25.1104906,
    "lng": 121.5205968,
    "address": "112臺北市北投區明德路139號前候車亭"
  },
  {
    "name": "雙溪公園-公廁-涼亭",
    "lat": 25.0981709,
    "lng": 121.5353996,
    "address": "111臺北市士林區福林路307號廁所後方牆上"
  },
  {
    "name": "雙溪公園-管理室-廣場",
    "lat": 25.0982547,
    "lng": 121.5371427,
    "address": "111臺北市士林區福林路307號管理室後門牆上"
  },
  {
    "name": "至善公園-公廁-戶外座位區",
    "lat": 25.0984834,
    "lng": 121.538004,
    "address": "111臺北市士林區至善路一段與福林路口至善公園-男廁置物櫃上方"
  },
  {
    "name": "磺溪-S-行義路",
    "lat": 25.125892,
    "lng": 121.527603,
    "address": "112臺北市北投區行義路53號旁候車亭"
  },
  {
    "name": "陽明大學(東華)-N-東華街二段",
    "lat": 25.1196918,
    "lng": 121.5119281,
    "address": "112臺北市北投區東華街二段138號旁候車亭"
  },
  {
    "name": "士林電機(中山德行路口)-N-中山北路六段",
    "lat": 25.1054542,
    "lng": 121.5249585,
    "address": "111臺北市士林區中山北路六段90號候車亭"
  },
  {
    "name": "天母棒球場-2樓一壘看台區-前方",
    "lat": 25.1131573,
    "lng": 121.5330805,
    "address": "111臺北市士林區忠誠路二段77號2F一壘看台區前方"
  },
  {
    "name": "天母棒球場-2樓一壘看台區-後方",
    "lat": 25.1133859,
    "lng": 121.5331056,
    "address": "111臺北市士林區忠誠路二段77號2F一壘看台區後方"
  },
  {
    "name": "天母棒球場-2樓三壘看台區-前方",
    "lat": 25.113491,
    "lng": 121.5330433,
    "address": "111臺北市士林區忠誠路二段77號2F三壘看台區前方"
  },
  {
    "name": "天母棒球場-2樓三壘看台區-後方",
    "lat": 25.1136391,
    "lng": 121.5326681,
    "address": "111臺北市士林區忠誠路二段77號2F三壘看台區後方"
  },
  {
    "name": "天母棒球場-2樓中庭1",
    "lat": 25.1130135,
    "lng": 121.5320986,
    "address": "111臺北市士林區忠誠路二段77號2F中庭"
  },
  {
    "name": "天母棒球場-2樓中庭2",
    "lat": 25.1130131,
    "lng": 121.5327673,
    "address": "111臺北市士林區忠誠路二段77號2F中庭"
  },
  {
    "name": "天母棒球場-3樓一壘看台區",
    "lat": 25.113177,
    "lng": 121.532889,
    "address": "111臺北市士林區忠誠路二段77號3F一壘看台區"
  },
  {
    "name": "天母棒球場-3樓三壘看台區",
    "lat": 25.1135128,
    "lng": 121.5326788,
    "address": "111臺北市士林區忠誠路二段77號3F三壘看台區"
  },
  {
    "name": "天母棒球場-1樓-售票亭",
    "lat": 25.1126825,
    "lng": 121.5328131,
    "address": "111臺北市士林區忠誠路二段77號1F走廊"
  },
  {
    "name": "天母棒球場-記者室",
    "lat": 25.1134462,
    "lng": 121.5329249,
    "address": "111臺北市士林區忠誠路二段77號1F走廊"
  },
  {
    "name": "蘭雅國小-E-克強路",
    "lat": 25.1089168,
    "lng": 121.5237058,
    "address": "111臺北市士林區克強路22號對面候車亭"
  },
  {
    "name": "職能發展學院一-W-士東路",
    "lat": 25.113809,
    "lng": 121.538208,
    "address": "111臺北市士林區士東路318號對面候車亭"
  },
  {
    "name": "奎山國中-N-明德路",
    "lat": 25.1126737,
    "lng": 121.521901,
    "address": "112臺北市北投區明德路219號對面候車亭"
  },
  {
    "name": "台北美國 / 日僑學校-N-中山北路六段",
    "lat": 25.1157824,
    "lng": 121.5282274,
    "address": "111臺北市士林區中山北路六段750號旁候車亭"
  },
  {
    "name": "賴厝-N-中山北路六段",
    "lat": 25.1136713,
    "lng": 121.5271377,
    "address": "111臺北市士林區中山北路六段420號候車亭"
  },
  {
    "name": "宏國新村",
    "lat": 25.1160213,
    "lng": 121.5202357,
    "address": "112臺北市北投區明德路333號"
  },
  {
    "name": "義理街口",
    "lat": 25.115959,
    "lng": 121.5147811,
    "address": "112臺北市北投區東華街二段10號"
  },
  {
    "name": "天文科學教育館3F公共展示區前方",
    "lat": 25.0960031,
    "lng": 121.5184799,
    "address": "111臺北市士林區基河路363號3F"
  },
  {
    "name": "圖書館天母分館3F主題書展處右方",
    "lat": 25.123966,
    "lng": 121.533033,
    "address": "111臺北市士林區中山北路七段154巷6號3F"
  },
  {
    "name": "圖書館天母分館4F自修區中央",
    "lat": 25.1238724,
    "lng": 121.5329403,
    "address": "111臺北市士林區中山北路七段154巷6號4F"
  },
  {
    "name": "圖書館李科永紀念圖書館1F閱覽室",
    "lat": 25.0959937,
    "lng": 121.5310472,
    "address": "111臺北市士林區中正路15號1F"
  },
  {
    "name": "圖書館李科永紀念圖書館B1F自修室",
    "lat": 25.0960474,
    "lng": 121.5311197,
    "address": "111臺北市士林區中正路15號B1F"
  },
  {
    "name": "圖書館李科永紀念圖書館B1F兒童閱覽室內",
    "lat": 25.0961118,
    "lng": 121.5311056,
    "address": "111臺北市士林區中正路15號B1F"
  },
  {
    "name": "圖書館李科永紀念圖書館B2F參考文獻區",
    "lat": 25.0963094,
    "lng": 121.5310993,
    "address": "111臺北市士林區中正路15號B2F"
  },
  {
    "name": "士林芝山岩區民活動中心1F中央",
    "lat": 25.1036775,
    "lng": 121.5288841,
    "address": "111臺北市士林區雨聲街68號1F"
  },
  {
    "name": "士林福佳區民活動中心1F左側",
    "lat": 25.0971595,
    "lng": 121.517523,
    "address": "111臺北市士林區美崙街190號1F"
  },
  {
    "name": "稅捐處士林分處2F右側辦公區中間走道",
    "lat": 25.0971089,
    "lng": 121.5225277,
    "address": "111臺北市士林區美崙街41號2F"
  },
  {
    "name": "稅捐處士林分處2F左側辦公區中間走道",
    "lat": 25.0967002,
    "lng": 121.5229491,
    "address": "111臺北市士林區美崙街41號2F"
  },
  {
    "name": "天文科學教育館1F服務臺右側",
    "lat": 25.0958567,
    "lng": 121.5184534,
    "address": "111臺北市士林區基河路363號1F"
  },
  {
    "name": "天文科學教育館1F服務臺左側",
    "lat": 25.0958567,
    "lng": 121.5184534,
    "address": "111臺北市士林區基河路363號1F"
  },
  {
    "name": "天文科學教育館2F用餐區",
    "lat": 25.0961761,
    "lng": 121.5186331,
    "address": "111臺北市士林區基河路363號2F"
  },
  {
    "name": "士林仰德區民活動中心1F辦公室左側",
    "lat": 25.1054162,
    "lng": 121.5233254,
    "address": "111臺北市士林區德行西路30號1F"
  },
  {
    "name": "圖書館永明民眾閱覽室7F兒童圖書區前方",
    "lat": 25.1181439,
    "lng": 121.5174841,
    "address": "112臺北市北投區石牌路二段115號7F"
  },
  {
    "name": "圖書館永明民眾閱覽室8F座位區中央",
    "lat": 25.1181873,
    "lng": 121.5174841,
    "address": "112臺北市北投區石牌路二段115號8F"
  },
  {
    "name": "圖書館石牌分館3F自修室",
    "lat": 25.1131039,
    "lng": 121.5220539,
    "address": "112臺北市北投區明德路208巷5號3F"
  },
  {
    "name": "圖書館石牌分館4F期刊區與綜合服務區中央",
    "lat": 25.1131005,
    "lng": 121.522188,
    "address": "112臺北市北投區明德路208巷5號4F"
  },
  {
    "name": "圖書館石牌分館6F開架閱覽室",
    "lat": 25.1132406,
    "lng": 121.5228903,
    "address": "112臺北市北投區明德路208巷5號6F"
  },
  {
    "name": "圖書館石牌分館7F外文書籍區",
    "lat": 25.112991,
    "lng": 121.5226169,
    "address": "112臺北市北投區明德路208巷5號7F"
  },
  {
    "name": "圖書館石牌分館8F參考資料區",
    "lat": 25.1131163,
    "lng": 121.5221089,
    "address": "112臺北市北投區明德路208巷5號8F"
  },
  {
    "name": "圖書館石牌分館9F青少年閱覽室",
    "lat": 25.113109,
    "lng": 121.5221052,
    "address": "112臺北市北投區明德路208巷5號9F"
  },
  {
    "name": "停管處蘭雅停車場B1F停車場管理室",
    "lat": 25.1098596,
    "lng": 121.5288998,
    "address": "111臺北市士林區德行東路129巷31號B1F"
  },
  {
    "name": "稅捐處士林分處1F地價稅服務台",
    "lat": 25.0967108,
    "lng": 121.5226061,
    "address": "111臺北市士林區美崙街41號1F"
  },
  {
    "name": "圖書館石牌分館5F兒童閱覽區靠中央樓梯",
    "lat": 25.1129603,
    "lng": 121.5227456,
    "address": "112臺北市北投區明德路208巷5號5F"
  },
  {
    "name": "圖書館石牌分館10F洗手間門外",
    "lat": 25.1130243,
    "lng": 121.5225005,
    "address": "112臺北市北投區明德路208巷5號10F"
  },
  {
    "name": "北投區健康服務中心1F女洗手間門口",
    "lat": 25.1181858,
    "lng": 121.5172665,
    "address": "112臺北市北投區石牌路二段111號1F"
  },
  {
    "name": "北市聯醫陽明院區B1F員工餐廳",
    "lat": 25.1052695,
    "lng": 121.531749,
    "address": "111臺北市士林區雨聲街105號"
  },
  {
    "name": "北市聯醫陽明院區B1F藥庫門口",
    "lat": 25.105342,
    "lng": 121.531736,
    "address": "111臺北市士林區雨聲街105號"
  },
  {
    "name": "北市聯醫陽明院區B1F醫療事務室",
    "lat": 25.1052249,
    "lng": 121.5316146,
    "address": "111臺北市士林區雨聲街105號"
  },
  {
    "name": "北市聯醫陽明院區1F磁振造影室門口",
    "lat": 25.1049372,
    "lng": 121.5317732,
    "address": "111臺北市士林區雨聲街105號"
  },
  {
    "name": "北市聯醫陽明院區1F急診內急診護理站前",
    "lat": 25.1048724,
    "lng": 121.5314875,
    "address": "111臺北市士林區雨聲街105號"
  },
  {
    "name": "北市聯醫陽明院區1F檢驗科內檢驗室內門口",
    "lat": 25.1052354,
    "lng": 121.5317679,
    "address": "111臺北市士林區雨聲街105號"
  },
  {
    "name": "北市聯醫陽明院區1F萊爾富門口右方",
    "lat": 25.105342,
    "lng": 121.531736,
    "address": "111臺北市士林區雨聲街105號"
  },
  {
    "name": "北市聯醫陽明院區2F圖書館大門",
    "lat": 25.10455,
    "lng": 121.53195,
    "address": "111臺北市士林區雨聲街105號"
  },
  {
    "name": "北市聯醫陽明院區2F16室牙科門口前方等候區",
    "lat": 25.105246,
    "lng": 121.5313394,
    "address": "111臺北市士林區雨聲街105號"
  },
  {
    "name": "北市聯醫陽明院區2F2C門診區會議室門口前",
    "lat": 25.1049794,
    "lng": 121.5320998,
    "address": "111臺北市士林區雨聲街105號"
  },
  {
    "name": "北市聯醫陽明院區2F消化內科第36門診門口",
    "lat": 25.105372,
    "lng": 121.5315624,
    "address": "111臺北市士林區雨聲街105號"
  },
  {
    "name": "北市聯醫陽明院區3F超音波室門口前方等候區",
    "lat": 25.1052354,
    "lng": 121.5317679,
    "address": "111臺北市士林區雨聲街105號"
  },
  {
    "name": "北市聯醫陽明院區3F手術室內恢復室門口",
    "lat": 25.1052006,
    "lng": 121.5315044,
    "address": "111臺北市士林區雨聲街105號"
  },
  {
    "name": "北市聯醫陽明院區3F加護病房門口",
    "lat": 25.1052754,
    "lng": 121.5315211,
    "address": "111臺北市士林區雨聲街105號"
  },
  {
    "name": "北市聯醫陽明院區3F310職能治療室門口",
    "lat": 25.1048164,
    "lng": 121.5322215,
    "address": "111臺北市士林區雨聲街105號"
  },
  {
    "name": "北市聯醫陽明院區5F5A病房護理站",
    "lat": 25.1052006,
    "lng": 121.5315044,
    "address": "111臺北市士林區雨聲街105號"
  },
  {
    "name": "北市聯醫陽明院區5F產房內護理站西側",
    "lat": 25.105038,
    "lng": 121.5316348,
    "address": "111臺北市士林區雨聲街105號"
  },
  {
    "name": "北市聯醫陽明院區5F資訊室門口",
    "lat": 25.1050985,
    "lng": 121.5320002,
    "address": "111臺北市士林區雨聲街105號"
  },
  {
    "name": "北市聯醫陽明院區6F行政中心會議室門口",
    "lat": 25.1052278,
    "lng": 121.5322777,
    "address": "111臺北市士林區雨聲街105號"
  },
  {
    "name": "北市聯醫陽明院區6F行政中心茶水間門口",
    "lat": 25.1049791,
    "lng": 121.5323197,
    "address": "111臺北市士林區雨聲街105號"
  },
  {
    "name": "北市聯醫陽明院區6F6B護理站",
    "lat": 25.1054196,
    "lng": 121.5314229,
    "address": "111臺北市士林區雨聲街105號"
  },
  {
    "name": "北市聯醫陽明院區6F6A護理站與605病房門口中央",
    "lat": 25.1052006,
    "lng": 121.5315044,
    "address": "111臺北市士林區雨聲街105號"
  },
  {
    "name": "北市聯醫陽明院區7F護理站與756病房門口中央",
    "lat": 25.1052278,
    "lng": 121.5322777,
    "address": "111臺北市士林區雨聲街105號"
  },
  {
    "name": "北市聯醫陽明院區7F呼吸照護中心護理站櫃台",
    "lat": 25.1049691,
    "lng": 121.5315144,
    "address": "111臺北市士林區雨聲街105號"
  },
  {
    "name": "北市聯醫陽明院區7F705病房門口與儀器室中央",
    "lat": 25.1052006,
    "lng": 121.5315044,
    "address": "111臺北市士林區雨聲街105號"
  },
  {
    "name": "北市聯醫陽明院區8F護理之家護理站與活動室中央",
    "lat": 25.1053421,
    "lng": 121.5317361,
    "address": "111臺北市士林區雨聲街105號8F護理之家護理站與活動室中央"
  },
  {
    "name": "北市聯醫陽明院區8F8B護理站",
    "lat": 25.1049442,
    "lng": 121.5316898,
    "address": "111臺北市士林區雨聲街105號8F8B護理站"
  },
  {
    "name": "北市聯醫陽明院區8F839與822病房中央",
    "lat": 25.1051452,
    "lng": 121.5322141,
    "address": "111臺北市士林區雨聲街105號8F839與822病房中央"
  },
  {
    "name": "北市聯醫陽明院區9F血液透析中心護理站",
    "lat": 25.1052278,
    "lng": 121.5322777,
    "address": "111臺北市士林區雨聲街105號"
  },
  {
    "name": "北市聯醫陽明院區9F大禮堂會議室門口",
    "lat": 25.1052006,
    "lng": 121.5315044,
    "address": "111臺北市士林區雨聲街105號"
  },
  {
    "name": "北市聯醫陽明院區9F938與937病房中央",
    "lat": 25.1048724,
    "lng": 121.5314875,
    "address": "111臺北市士林區雨聲街105號"
  },
  {
    "name": "士林老人服務暨日間照顧中心5F502教室門口",
    "lat": 25.1117487,
    "lng": 121.5324596,
    "address": "111臺北市士林區忠誠路二段53巷7號5F"
  },
  {
    "name": "天文科學教育館B1F立體劇場前",
    "lat": 25.0960031,
    "lng": 121.5184799,
    "address": "111臺北市士林區基河路363號B1F"
  },
  {
    "name": "天文科學教育館2F資訊組",
    "lat": 25.0966237,
    "lng": 121.5190687,
    "address": "111臺北市士林區基河路363號2F"
  },
  {
    "name": "職能發展學院行政大樓1F電腦查詢台",
    "lat": 25.1149196,
    "lng": 121.537605,
    "address": "111臺北市士林區士東路301號1F"
  },
  {
    "name": "士林天母區民活動中心4F舞台左邊機櫃後面",
    "lat": 25.123966,
    "lng": 121.533033,
    "address": "111臺北市士林區中山北路七段154巷6號4F"
  },
  {
    "name": "士林舊佳區民活動中心1F舞台右邊電視架上",
    "lat": 25.0995161,
    "lng": 121.5268719,
    "address": "111臺北市士林區中山北路五段773-2號1F"
  },
  {
    "name": "北投區健康服務中心2F電梯出口",
    "lat": 25.11814,
    "lng": 121.5173017,
    "address": "112臺北市北投區石牌路二段111號1F"
  },
  {
    "name": "芝山文化生態綠園1F展示廳中央",
    "lat": 25.1040461,
    "lng": 121.5321692,
    "address": "111臺北市士林區雨聲街120號1F"
  },
  {
    "name": "圖書館天母分館3F服務台",
    "lat": 25.1235549,
    "lng": 121.5328753,
    "address": "111臺北市士林區中山北路七段154巷6號3F"
  },
  {
    "name": "圖書館天母分館4F視聽室",
    "lat": 25.1236773,
    "lng": 121.532986,
    "address": "111臺北市士林區中山北路七段154巷6號4F"
  },
  {
    "name": "圖書館天母分館4F自修區",
    "lat": 25.123966,
    "lng": 121.533033,
    "address": "111臺北市士林區中山北路七段154巷6號4F"
  },
  {
    "name": "圖書館李科永紀念圖書館B2F會議廳內",
    "lat": 25.0961118,
    "lng": 121.5311056,
    "address": "111臺北市士林區中正路15號B2F"
  },
  {
    "name": "士林文昌區民活動中心1F中央",
    "lat": 25.0981551,
    "lng": 121.5203733,
    "address": "111臺北市士林區文昌路166-1號1F"
  },
  {
    "name": "北投永明區民活動中心9F門口前方",
    "lat": 25.118066,
    "lng": 121.517175,
    "address": "112臺北市北投區石牌路二段115號9F"
  },
  {
    "name": "北投永明區民活動中心10F中央",
    "lat": 25.118065,
    "lng": 121.517173,
    "address": "112臺北市北投區石牌路二段115號10F"
  },
  {
    "name": "北投吉慶區民活動中心2F電視上方",
    "lat": 25.1150262,
    "lng": 121.5116298,
    "address": "112臺北市北投區致遠二路61巷2-2號2F"
  },
  {
    "name": "圖書館永明民眾閱覽室7F一般圖書區",
    "lat": 25.1183916,
    "lng": 121.5173413,
    "address": "112臺北市北投區石牌路二段115號7F"
  },
  {
    "name": "圖書館永明民眾閱覽室8F自修區中央",
    "lat": 25.1181247,
    "lng": 121.5175391,
    "address": "112臺北市北投區石牌路二段115號8F"
  },
  {
    "name": "士林德華區民活動中心1F中央",
    "lat": 25.0999974,
    "lng": 121.5201479,
    "address": "111臺北市士林區文昌路211-1號1F"
  },
  {
    "name": "士東市場1F 112攤位旁",
    "lat": 25.1116658,
    "lng": 121.5292932,
    "address": "111臺北市士林區士東路100號1F"
  },
  {
    "name": "士東市場1F 119攤位旁",
    "lat": 25.1118798,
    "lng": 121.5297475,
    "address": "111臺北市士林區士東路100號1F"
  },
  {
    "name": "士東市場1F 76攤位旁",
    "lat": 25.1119351,
    "lng": 121.5295966,
    "address": "111臺北市士林區士東路100號1F"
  },
  {
    "name": "士東市場2F 178攤位旁",
    "lat": 25.1120007,
    "lng": 121.5294883,
    "address": "111臺北市士林區士東路100號2F"
  },
  {
    "name": "士東市場2F 171攤位旁",
    "lat": 25.1120043,
    "lng": 121.5295547,
    "address": "111臺北市士林區士東路100號2F"
  },
  {
    "name": "士東市場2F 228攤位旁",
    "lat": 25.1120004,
    "lng": 121.5295125,
    "address": "111臺北市士林區士東路100號2F"
  },
  {
    "name": "公園路燈工程管理處園藝工程隊北區分隊1F大辦公室",
    "lat": 25.0975945,
    "lng": 121.5358314,
    "address": "111臺北市士林區福林路254巷20號1F"
  },
  {
    "name": "公園路燈工程管理處園藝工程隊北區分隊1F小辦公室",
    "lat": 25.0975972,
    "lng": 121.5358304,
    "address": "111臺北市士林區福林路254巷20號1F"
  }
]