[
  {
    "name": "新店龜山郵局",
    "lat": 24.90919,
    "lng": 121.551409,
    "address": "231新北市新店區屈尺里新烏路二段392、394號"
  },
  {
    "name": "台電公司訓練所在職大樓大廳川堂",
    "lat": 24.90313,
    "lng": 121.55334,
    "address": "231新北市新店區新烏路三段81號"
  },
  {
    "name": "新北市新店區長春里辦公處",
    "lat": 24.884,
    "lng": 121.548,
    "address": "231新北市新店區長春里10鄰新坡一街39號二樓"
  },
  {
    "name": "新北市烏來區忠治(桶壁)部落",
    "lat": 24.88369,
    "lng": 121.54846,
    "address": "233新北市烏來區忠治16號"
  },
  {
    "name": "翡翠水庫第一行政大樓1F右側秘書室中央",
    "lat": 24.9046698,
    "lng": 121.5621074,
    "address": "231新北市新店區新烏路三段43號"
  },
  {
    "name": "翡翠水庫第一行政大樓1F左側秘書室門口",
    "lat": 24.9045563,
    "lng": 121.5623109,
    "address": "231新北市新店區新烏路三段43號"
  },
  {
    "name": "翡翠水庫第一行政大樓2F第三會議室門口",
    "lat": 24.9046665,
    "lng": 121.5624925,
    "address": "231新北市新店區新烏路三段43號"
  },
  {
    "name": "翡翠水庫第一行政大樓3F中央走道西側",
    "lat": 24.9046665,
    "lng": 121.5624925,
    "address": "231新北市新店區新烏路三段43號"
  },
  {
    "name": "翡翠水庫第一行政大樓3F中央走道東側",
    "lat": 24.9045399,
    "lng": 121.5623347,
    "address": "231新北市新店區新烏路三段43號"
  },
  {
    "name": "翡翠水庫第二行政大樓1F第二會議室門口",
    "lat": 24.9046737,
    "lng": 121.5636996,
    "address": "231新北市新店區新烏路三段43號"
  },
  {
    "name": "翡翠水庫第二行政大樓2F水庫操作科內後門",
    "lat": 24.9048544,
    "lng": 121.5635239,
    "address": "231新北市新店區新烏路三段43號"
  },
  {
    "name": "翡翠水庫水資源生態教育館1F辦公室門口",
    "lat": 24.9044705,
    "lng": 121.5634513,
    "address": "231新北市新店區新烏路三段43號"
  },
  {
    "name": "翡翠水庫水資源生態教育館1F右側門口",
    "lat": 24.9044705,
    "lng": 121.5634513,
    "address": "231新北市新店區新烏路三段43號"
  },
  {
    "name": "翡翠水庫水資源生態教育館1F演講廳後方",
    "lat": 24.9042389,
    "lng": 121.5636882,
    "address": "231新北市新店區新烏路三段43號"
  },
  {
    "name": "翡翠水庫水資源生態教育館2F第一會議室門口",
    "lat": 24.9044705,
    "lng": 121.5634513,
    "address": "231新北市新店區新烏路三段43號"
  }
]