[
  {
    "name": "中壢志廣郵局",
    "lat": 24.961436,
    "lng": 121.211539,
    "address": "320桃園市中壢區中央西路二段271、273號"
  },
  {
    "name": "中壢東興郵局",
    "lat": 24.947719,
    "lng": 121.226089,
    "address": "320桃園市中壢區龍岡路一段229號"
  },
  {
    "name": "中壢建國路郵局",
    "lat": 24.955491,
    "lng": 121.225018,
    "address": "320桃園市中壢區建國路36號"
  },
  {
    "name": "中壢興國郵局",
    "lat": 24.962637,
    "lng": 121.219302,
    "address": "320桃園市中壢區興國里元化路二段126號"
  },
  {
    "name": "中壢環北郵局",
    "lat": 24.966203,
    "lng": 121.226262,
    "address": "320桃園市中壢區環北路413號"
  },
  {
    "name": "平鎮郵局",
    "lat": 24.945478,
    "lng": 121.209548,
    "address": "324桃園市平鎮區延平路二段221號"
  },
  {
    "name": "平鎮廣明郵局",
    "lat": 24.953852,
    "lng": 121.213457,
    "address": "324桃園市平鎮區廣明路71、73號1樓"
  },
  {
    "name": "公路總局新竹區監理所中壢監理站",
    "lat": 24.959568,
    "lng": 121.224307,
    "address": "320桃園市中壢區延平路394號"
  },
  {
    "name": "財政部北區國稅局中壢稽徵所第1辦公室",
    "lat": 24.956863,
    "lng": 121.224157,
    "address": "320桃園市中壢區中央東路路28號2樓"
  },
  {
    "name": "財政部北區國稅局中壢稽徵所第2辦公室",
    "lat": 24.9553379,
    "lng": 121.223137,
    "address": "320桃園市中壢區中平路115號1樓"
  },
  {
    "name": "自來水公司中壢服務所",
    "lat": 24.952805,
    "lng": 121.220809,
    "address": "324桃園市平鎮區延平路一段26號"
  },
  {
    "name": "中油公司中壢直銷中心",
    "lat": 24.94429,
    "lng": 121.230026,
    "address": "320桃園市中壢區環中東路二段659號"
  },
  {
    "name": "標準檢驗局新竹分局桃園辦事處商檢/計量業務民眾洽公區",
    "lat": 24.951039,
    "lng": 121.222156,
    "address": "320桃園市中壢區龍岡路一段46號"
  },
  {
    "name": "臺灣土地銀行中壢分行",
    "lat": 24.956452,
    "lng": 121.223552,
    "address": "320桃園市中壢區中山路190號"
  },
  {
    "name": "台電公司中壢服務所大廳",
    "lat": 24.957085,
    "lng": 121.223745,
    "address": "320桃園市中壢區延平路499號"
  },
  {
    "name": "兆豐國際商銀中壢分行1樓",
    "lat": 24.957666,
    "lng": 121.224998,
    "address": "320桃園市中壢區復興路46號1樓"
  },
  {
    "name": "兆豐國際商銀北中壢分行",
    "lat": 24.965559,
    "lng": 121.226819,
    "address": "320桃園市中壢區環北路406號"
  },
  {
    "name": "臺灣土地銀行北中壢分行",
    "lat": 24.9655328,
    "lng": 121.2265567,
    "address": "320桃園市中壢區環北路400、402、404號及398號地下層之一"
  },
  {
    "name": "臺灣銀行中壢分行",
    "lat": 24.954915,
    "lng": 121.222351,
    "address": "320桃園市中壢區延平路580號"
  },
  {
    "name": "臺鐵局中壢站後站大廳",
    "lat": 24.953671,
    "lng": 121.225783,
    "address": "320桃園市中壢區中和路139號"
  },
  {
    "name": "臺灣銀行建國分行",
    "lat": 24.948673,
    "lng": 121.22775,
    "address": "320桃園市中壢區健行路169號"
  },
  {
    "name": "華南商業銀行中壢分行",
    "lat": 24.955696,
    "lng": 121.214862,
    "address": "320桃園市中壢區民族路35號"
  },
  {
    "name": "華南商業銀行壢昌分行",
    "lat": 24.955115,
    "lng": 121.221063,
    "address": "320桃園市中壢區中正路175號"
  },
  {
    "name": "上海商銀中壢分行",
    "lat": 24.959898,
    "lng": 121.223733,
    "address": "320桃園市中壢區中美路一段18號"
  },
  {
    "name": "上海商銀延平分行",
    "lat": 24.95548,
    "lng": 121.222962,
    "address": "320桃園市中壢區延平路551號"
  },
  {
    "name": "第一商業銀行(中壢分行)",
    "lat": 24.9553954,
    "lng": 121.2219862,
    "address": "320桃園市中壢區中正路146號"
  },
  {
    "name": "第一商業銀行(西壢分行)",
    "lat": 24.9583198,
    "lng": 121.2175935,
    "address": "320桃園市中壢區中央西路二段30號"
  },
  {
    "name": "第一商業銀行(平鎮分行)",
    "lat": 24.9594522,
    "lng": 121.2071933,
    "address": "320桃園市中壢區環西路68號"
  },
  {
    "name": "臺灣銀行平鎮分行",
    "lat": 24.944931,
    "lng": 121.209256,
    "address": "324桃園市平鎮區環南路二段11號"
  },
  {
    "name": "臺鐵局中壢站第1月台5車位置",
    "lat": 24.9536701,
    "lng": 121.2257837,
    "address": "320桃園市中壢區石頭里中和路139號"
  },
  {
    "name": "臺鐵局中壢站第3月台5車位置",
    "lat": 24.9536701,
    "lng": 121.2257837,
    "address": "320桃園市中壢區石頭里中和路139號"
  },
  {
    "name": "臺鐵局中壢站第3月台2車位置",
    "lat": 24.9536701,
    "lng": 121.2257837,
    "address": "320桃園市中壢區石頭里中和路139號"
  },
  {
    "name": "臺鐵局中壢站第1月台總務室外",
    "lat": 24.9536701,
    "lng": 121.2257837,
    "address": "320桃園市中壢區石頭里中和路139號"
  },
  {
    "name": "臺鐵局中壢站售票大廳",
    "lat": 24.9536701,
    "lng": 121.2257837,
    "address": "320桃園市中壢區石頭里中和路139號"
  },
  {
    "name": "行政院勞動部勞工保險局中壢服務站洽公櫃台",
    "lat": 24.964335,
    "lng": 121.2146,
    "address": "320桃園市中壢區三光路325號"
  },
  {
    "name": "社團法人桃園市木匠的家關懷協會",
    "lat": 24.954215,
    "lng": 121.231922,
    "address": "320桃園市中壢區正義里中北路二段387號"
  },
  {
    "name": "桃園市中壢區光明里辦公處",
    "lat": 24.962185,
    "lng": 121.216903,
    "address": "320桃園市中壢區光明里民權路204號"
  },
  {
    "name": "桃園市平鎮區平興里辦公處",
    "lat": 24.94554,
    "lng": 121.20458,
    "address": "324桃園市平鎮區平興里廣泰路85號"
  },
  {
    "name": "桃園市宣愛社區關懷協會",
    "lat": 24.963599,
    "lng": 121.230438,
    "address": "320桃園市中壢區幸福里延平路98號二樓"
  },
  {
    "name": "桃園市平鎮區復興里辦公處",
    "lat": 24.954228,
    "lng": 121.204959,
    "address": "324桃園市平鎮區復興里復興街55號"
  },
  {
    "name": "桃園市平鎮區義興里辦公處",
    "lat": 24.949729,
    "lng": 121.209269,
    "address": "324桃園市平鎮區義興里義興街80號"
  },
  {
    "name": "社團法人桃園市愛鄰舍協會（復興據點）",
    "lat": 24.954029,
    "lng": 121.223768,
    "address": "320桃園市中壢區石頭里復興路161號五樓"
  },
  {
    "name": "桃園市中壢區東興社區發展協會",
    "lat": 24.949834,
    "lng": 121.225255,
    "address": "320桃園市中壢區東興里中北路二段76巷10號"
  },
  {
    "name": "桃園市平鎮區新榮里辦公處",
    "lat": 24.945969,
    "lng": 121.214348,
    "address": "324桃園市平鎮區新榮里振興西路112號之1"
  },
  {
    "name": "桃園市平鎮區北勢里辦公處",
    "lat": 24.949138,
    "lng": 121.222878,
    "address": "324桃園市平鎮區北勢里和平路52號"
  },
  {
    "name": "社團法人桃園市濟世功德協進會(中壢站)",
    "lat": 24.959429,
    "lng": 121.216897,
    "address": "320桃園市中壢區光明里明德路178號二樓"
  },
  {
    "name": "桃園市南區老人文康活動中心",
    "lat": 24.944542,
    "lng": 121.226513,
    "address": "320桃園市中壢區林森里林森路90號"
  },
  {
    "name": "桃園市中壢區新振社區發展協會",
    "lat": 24.943616,
    "lng": 121.22696,
    "address": "320桃園市中壢區林森里12鄰林森路194號"
  },
  {
    "name": "桃園市松齡會",
    "lat": 24.960342,
    "lng": 121.227251,
    "address": "320桃園市中壢區中央里元化路182之2號"
  },
  {
    "name": "社團法人台灣樂活服務發展協會(行道會據點)",
    "lat": 24.946996,
    "lng": 121.222329,
    "address": "324桃園市平鎮區北勢里莒光路1號二樓之3"
  },
  {
    "name": "桃園市平鎮區守望相助推廣協會",
    "lat": 24.950796,
    "lng": 121.21632,
    "address": "324桃園市平鎮區新勢里延平路一段162號"
  },
  {
    "name": "桃園市平鎮區廣興里辦公處",
    "lat": 24.953389,
    "lng": 121.21452,
    "address": "324桃園市平鎮區廣興里廣東路13號"
  },
  {
    "name": "社團法人台灣樂活服務發展協會(執信據點)",
    "lat": 24.944915,
    "lng": 121.227143,
    "address": "320桃園市中壢區林森里執信一街167號"
  },
  {
    "name": "財團法人桃園市亮詮公益慈善基金會(中壢)",
    "lat": 24.951604,
    "lng": 121.233687,
    "address": "320桃園市中壢區信義里嘉善街37之39號"
  },
  {
    "name": "桃園市樂活銀髮族協會",
    "lat": 24.964065,
    "lng": 121.227156,
    "address": "320桃園市中壢區新街里七和一街31號三樓"
  },
  {
    "name": "桃園市松鶴會",
    "lat": 24.960342,
    "lng": 121.227251,
    "address": "320桃園市中壢區中央里元化路182之2號"
  },
  {
    "name": "桃園市中壢區普義里辦公處",
    "lat": 24.958903,
    "lng": 121.230831,
    "address": "320桃園市中壢區普義里3鄰立和路29號"
  },
  {
    "name": "桃園市平鎮區義民社區發展協會",
    "lat": 24.946589,
    "lng": 121.204476,
    "address": "324桃園市平鎮區義民里復旦路二段二十三巷8號左段/右段二樓"
  },
  {
    "name": "桃園市中壢地政事務所",
    "lat": 24.958787,
    "lng": 121.217608,
    "address": "320桃園市中壢區中央西路二段30號三至五樓"
  },
  {
    "name": "平鎮區公所一樓大廳",
    "lat": 24.945927,
    "lng": 121.218123,
    "address": "324桃園市平鎮區振興路5號"
  },
  {
    "name": "平鎮區公所二樓大廳",
    "lat": 24.945927,
    "lng": 121.218123,
    "address": "324桃園市平鎮區振興路5號"
  },
  {
    "name": "桃園市政府地方稅務局中壢分局",
    "lat": 24.962755,
    "lng": 121.230783,
    "address": "320桃園市中壢區普義里溪洲街296號3樓"
  },
  {
    "name": "桃園市政府消防局中壢分隊",
    "lat": 24.953768,
    "lng": 121.215591,
    "address": "320桃園市中壢區義民路120號"
  },
  {
    "name": "桃園市政府消防局興國分隊",
    "lat": 24.963028,
    "lng": 121.220076,
    "address": "320桃園市中壢區中豐路88號"
  },
  {
    "name": "平鎮區戶政事務所民眾洽公區",
    "lat": 24.946083,
    "lng": 121.218553,
    "address": "324桃園市平鎮區德育路242號"
  },
  {
    "name": "桃園市中壢區衛生所",
    "lat": 24.962814,
    "lng": 121.230397,
    "address": "320桃園市中壢區溪洲街296號1樓"
  },
  {
    "name": "桃園市中壢區戶政事務所",
    "lat": 24.963086,
    "lng": 121.22999,
    "address": "320桃園市中壢區溪洲街298號"
  },
  {
    "name": "桃園市政府社會局桃園市南區青少年活動中心",
    "lat": 24.951141,
    "lng": 121.21572,
    "address": "324桃園市平鎮區延平路一段168號"
  },
  {
    "name": "桃園市平鎮區衛生所",
    "lat": 24.944312,
    "lng": 121.218874,
    "address": "324桃園市平鎮區振興路1號"
  },
  {
    "name": "桃園市政府警察局中壢分局",
    "lat": 24.954006,
    "lng": 121.222297,
    "address": "320桃園市中壢區延平路607號1樓公關業務辦公室"
  },
  {
    "name": "中壢藝術館",
    "lat": 24.958067,
    "lng": 121.227361,
    "address": "320桃園市中壢區中美路16號"
  },
  {
    "name": "桃園市政府社會局-桃園市南區老人文康活動中心",
    "lat": 24.945665,
    "lng": 121.226213,
    "address": "320桃園市中壢區林森路90號"
  },
  {
    "name": "桃園市中壢區公所",
    "lat": 24.965887,
    "lng": 121.225076,
    "address": "320桃園市中壢區環北路380號"
  },
  {
    "name": "桃園市中壢區圖書館",
    "lat": 24.958756,
    "lng": 121.22581,
    "address": "320桃園市中壢區中美路76號"
  },
  {
    "name": "平鎮區調解委員會",
    "lat": 24.945927,
    "lng": 121.218123,
    "address": "324桃園市平鎮區振興路7號二樓"
  },
  {
    "name": "中壢火車站旅遊服務中心",
    "lat": 24.953495,
    "lng": 121.225719,
    "address": "320桃園市中壢區中和路139號"
  },
  {
    "name": "中壢區五福商圈五常街22巷9號路燈北向",
    "lat": 24.959518,
    "lng": 121.208228,
    "address": "320桃園市中壢區五常街22巷9號"
  },
  {
    "name": "中壢區五福商圈五常街22巷9號路燈南向",
    "lat": 24.959518,
    "lng": 121.208228,
    "address": "320桃園市中壢區五常街22巷9號"
  },
  {
    "name": "中壢新民夜市新民路115號路燈左側",
    "lat": 24.960148,
    "lng": 121.215045,
    "address": "320桃園市中壢區新民路115號"
  },
  {
    "name": "中壢新民夜市新民路115號路燈右側",
    "lat": 24.960148,
    "lng": 121.215045,
    "address": "320桃園市中壢區新民路115號"
  },
  {
    "name": "中壢新民夜市新民路83號路燈左側",
    "lat": 24.959388,
    "lng": 121.214919,
    "address": "320桃園市中壢區新民路83號"
  },
  {
    "name": "新竹客運中壢總站(試辦單位)",
    "lat": 24.953631,
    "lng": 121.224561,
    "address": "320桃園市中壢區建國路105號"
  },
  {
    "name": "新竹客運中壢北站(試辦單位)",
    "lat": 24.95439,
    "lng": 121.226063,
    "address": "320桃園市中壢區元化路2-36號"
  },
  {
    "name": "桃園客運中壢站(試辦單位)",
    "lat": 24.953165,
    "lng": 121.223896,
    "address": "320桃園市中壢區中和路225號"
  },
  {
    "name": "桃園客運中壢公車站(試辦單位)",
    "lat": 24.954332,
    "lng": 121.224024,
    "address": "320桃園市中壢區中正路51號"
  },
  {
    "name": "中壢客運總公司(試辦單位)",
    "lat": 24.95334,
    "lng": 121.224132,
    "address": "320桃園市中壢區建國路100號"
  },
  {
    "name": "中壢五福商圈志欣路67號路燈",
    "lat": 24.958441,
    "lng": 121.207793,
    "address": "320桃園市中壢區志欣路67號"
  },
  {
    "name": "中壢五福商圈志成路71號路燈",
    "lat": 24.958007,
    "lng": 121.207841,
    "address": "320桃園市中壢區志成路71號"
  },
  {
    "name": "中壢區五福商圈五常街22巷9號路燈西向",
    "lat": 24.959518,
    "lng": 121.208228,
    "address": "320桃園市中壢區五常街22巷9號"
  },
  {
    "name": "中壢五福商圈五穀街40號路燈左側",
    "lat": 24.959445,
    "lng": 121.207791,
    "address": "320桃園市中壢區五穀街40號"
  },
  {
    "name": "中壢五福商圈五穀街40號路燈右側",
    "lat": 24.959445,
    "lng": 121.207791,
    "address": "320桃園市中壢區五穀街40號"
  },
  {
    "name": "中壢火車站前商圈中正路58號前號誌桿",
    "lat": 24.954563,
    "lng": 121.224094,
    "address": "320桃園市中壢區中正路58號"
  },
  {
    "name": "中壢火車站前商圈中山路147號前路燈桿",
    "lat": 24.955819,
    "lng": 121.224182,
    "address": "320桃園市中壢區中山路147號"
  },
  {
    "name": "中壢火車站前商圈中央西路1段69號前路燈桿",
    "lat": 24.95762,
    "lng": 121.221519,
    "address": "320桃園市中壢區中央西路一段69號"
  },
  {
    "name": "中壢六合商圈元化路2段3號前燈桿",
    "lat": 24.962206,
    "lng": 121.222803,
    "address": "320桃園市中壢區元化路二段3號"
  },
  {
    "name": "中壢六合商圈元化路260號前燈桿",
    "lat": 24.9621028,
    "lng": 121.2254421,
    "address": "320桃園市中壢區元化路258號"
  },
  {
    "name": "中壢中正公園中美路47號前燈桿左前方",
    "lat": 24.9583676,
    "lng": 121.2262975,
    "address": "320桃園市中壢區中美路47號"
  },
  {
    "name": "中壢中正公園中美路47號前燈桿右前方",
    "lat": 24.9583676,
    "lng": 121.2262975,
    "address": "320桃園市中壢區中美路47號"
  },
  {
    "name": "中壢五權兒童公園五族二街56號前燈桿左前方",
    "lat": 24.9588307,
    "lng": 121.204811,
    "address": "320桃園市中壢區五族二街56號"
  },
  {
    "name": "中壢五權兒童公園五族二街56號前燈桿右前方",
    "lat": 24.9588307,
    "lng": 121.204811,
    "address": "320桃園市中壢區五族二街56號"
  },
  {
    "name": "中壢光明公園三光路381號前燈桿左前方",
    "lat": 24.9645725,
    "lng": 121.2159886,
    "address": "320桃園市中壢區三光路381號"
  },
  {
    "name": "中壢光明公園三光路381號前燈桿右前方",
    "lat": 24.9645725,
    "lng": 121.2159886,
    "address": "320桃園市中壢區三光路381號"
  },
  {
    "name": "中壢新興公園少康二街31號前燈桿左前方",
    "lat": 24.9449086,
    "lng": 121.2255345,
    "address": "320桃園市中壢區少康二街31號"
  },
  {
    "name": "中壢新興公園少康二街31號前燈桿右前方",
    "lat": 24.9449086,
    "lng": 121.2255345,
    "address": "320桃園市中壢區少康二街31號"
  },
  {
    "name": "桃園捷運紅線先導公車智慧站牌-中壢聯合辦公大樓",
    "lat": 24.96332,
    "lng": 121.229072,
    "address": "320桃園市中壢區延平路140號"
  },
  {
    "name": "平鎮新勢公園延平路一段201號對面號誌桿左前方",
    "lat": 24.9504695,
    "lng": 121.2161497,
    "address": "324桃園市平鎮區延平路一段201號"
  },
  {
    "name": "平鎮新勢公園延平路一段201號對面號誌桿右前方",
    "lat": 24.9504695,
    "lng": 121.2161497,
    "address": "324桃園市平鎮區延平路一段201號"
  },
  {
    "name": "平鎮新勢公園延平路一段143號前路燈桿左前方",
    "lat": 24.9506022,
    "lng": 121.2180039,
    "address": "324桃園市平鎮區延平路一段143號"
  },
  {
    "name": "平鎮新勢公園延平路一段143號前路燈桿右前方",
    "lat": 24.9506022,
    "lng": 121.2180039,
    "address": "324桃園市平鎮區延平路一段143號"
  },
  {
    "name": "老街溪開蓋紀念館廣場義民路二段17號前路燈桿左前方",
    "lat": 24.959039,
    "lng": 121.218075,
    "address": "320桃園市中壢區義民路二段17號"
  },
  {
    "name": "老街溪開蓋紀念館廣場義民路二段17號前路燈桿右前方",
    "lat": 24.959039,
    "lng": 121.218075,
    "address": "320桃園市中壢區義民路二段17號"
  },
  {
    "name": "老街溪開蓋紀念館廣場義民路二段157號前路燈桿左前方",
    "lat": 24.9621649,
    "lng": 121.217646,
    "address": "320桃園市中壢區義民路二段157號"
  },
  {
    "name": "老街溪開蓋紀念館廣場義民路二段157號前路燈桿右前方",
    "lat": 24.9621649,
    "lng": 121.217646,
    "address": "320桃園市中壢區義民路二段157號"
  },
  {
    "name": "老街溪河川教育中心廣場中正路295巷33號前路燈桿",
    "lat": 24.9540932,
    "lng": 121.2244066,
    "address": "320桃園市中壢區中正路295巷33號"
  },
  {
    "name": "桃園市立圖書館中壢分館自修室",
    "lat": 24.959093,
    "lng": 121.226175,
    "address": "320桃園市中壢區中美路76號"
  },
  {
    "name": "桃園市立圖書館中壢分館三樓",
    "lat": 24.959093,
    "lng": 121.226175,
    "address": "320桃園市中壢區中美路76號"
  },
  {
    "name": "桃園市政府就業服務處中壢就業中心",
    "lat": 24.953288,
    "lng": 121.227075,
    "address": "320桃園市中壢區新興路182號"
  },
  {
    "name": "桃園市政府環境保護局中壢辦公室",
    "lat": 24.962298,
    "lng": 121.230052,
    "address": "320桃園市中壢區溪洲街296號5樓"
  },
  {
    "name": "中壢家庭服務中心",
    "lat": 24.960177,
    "lng": 121.227859,
    "address": "320桃園市中壢區元化路159號1樓"
  },
  {
    "name": "桃園市立圖書館義民分館5樓",
    "lat": 24.9484881,
    "lng": 121.2038039,
    "address": "324桃園市平鎮區復旦路二段115號"
  },
  {
    "name": "桃園市立圖書館義民分館6樓",
    "lat": 24.9484881,
    "lng": 121.2038039,
    "address": "324桃園市平鎮區復旦路二段115號"
  }
]