[
  {
    "name": "金門縣金城鎮庵前社區發展協會",
    "lat": 24.420415,
    "lng": 118.322021,
    "address": "893金門縣金城鎮賢庵里庵前19號"
  },
  {
    "name": "金門縣自來水廠-1F服務台",
    "lat": 24.427663,
    "lng": 118.32351,
    "address": "893金門縣金城鎮金山路21號"
  },
  {
    "name": "金門縣議會行政大樓議事廳",
    "lat": 24.428151,
    "lng": 118.323053,
    "address": "893金門縣金城鎮金山路17號"
  },
  {
    "name": "財政部國有財產署北區分署金馬辦事處",
    "lat": 24.428337,
    "lng": 118.323644,
    "address": "893金門縣金城鎮金山路48號"
  },
  {
    "name": "財政部北區國稅局金門稽徵所",
    "lat": 24.4283593,
    "lng": 118.3234478,
    "address": "893金門縣金城鎮金山路46號"
  },
  {
    "name": "金門縣警察局-1F服務台",
    "lat": 24.428537,
    "lng": 118.322365,
    "address": "893金門縣金城鎮金山路15號"
  },
  {
    "name": "金城鎮公所6樓",
    "lat": 24.43284,
    "lng": 118.32074,
    "address": "893金門縣金城鎮民生路2號6樓"
  },
  {
    "name": "金門縣金城鎮公所-1F服務台",
    "lat": 24.432887,
    "lng": 118.320616,
    "address": "893金門縣金城鎮民生路2號"
  },
  {
    "name": "金門郵局",
    "lat": 24.43296,
    "lng": 118.320387,
    "address": "893金門縣金城鎮民生路4號"
  },
  {
    "name": "臺灣土地銀行金城分行",
    "lat": 24.4329607,
    "lng": 118.3203875,
    "address": "893金門縣金城鎮民生路6號"
  },
  {
    "name": "金門縣金城車站-候車區",
    "lat": 24.433119,
    "lng": 118.320115,
    "address": "893金門縣金城鎮民生路7號"
  },
  {
    "name": "金門縣金寧鄉榜林社區發展協會",
    "lat": 24.436609,
    "lng": 118.329826,
    "address": "892金門縣金寧鄉榜林村榜林27-1號"
  }
]
