[
  {
    "name": "金門縣烈嶼鄉羅厝社區發展協會",
    "lat": 24.4250028,
    "lng": 118.2597583,
    "address": "894金門縣烈嶼鄉林湖村羅厝6號"
  },
  {
    "name": "金門縣烈嶼鄉東林社區發展協會",
    "lat": 24.42744,
    "lng": 118.24855,
    "address": "894金門縣烈嶼鄉上林村東林24號"
  },
  {
    "name": "烈嶼鄉埔頭社區照顧關懷據點",
    "lat": 24.42885,
    "lng": 118.24754,
    "address": "894金門縣烈嶼鄉埔頭2-2號"
  },
  {
    "name": "金門縣烈嶼圖書館-借書登記區",
    "lat": 24.428933,
    "lng": 118.242824,
    "address": "894金門縣烈嶼鄉后井40號"
  },
  {
    "name": "金門縣烈嶼鄉公所-1F服務台",
    "lat": 24.429517,
    "lng": 118.244533,
    "address": "894金門縣烈嶼鄉西路60號"
  },
  {
    "name": "金門烈嶼郵局",
    "lat": 24.430222,
    "lng": 118.246608,
    "address": "894金門縣烈嶼鄉林湖村西宅7-5號"
  },
  {
    "name": "金門縣烈嶼鄉衛生所-掛號區",
    "lat": 24.43033,
    "lng": 118.246901,
    "address": "894金門縣烈嶼鄉林湖村西宅46號"
  },
  {
    "name": "金門烈嶼文化館(1樓入口)",
    "lat": 24.431174,
    "lng": 118.244725,
    "address": "894金門縣烈嶼鄉西路1-1號"
  }
]
