[
  {
    "name": "彰化縣埤頭鄉老人文康中心",
    "lat": 23.889614,
    "lng": 120.459726,
    "address": "523彰化縣埤頭鄉安康街72號"
  },
  {
    "name": "彰化縣警察局北斗分局埤頭分駐所",
    "lat": 23.891861,
    "lng": 120.458136,
    "address": "523彰化縣埤頭鄉合興村斗苑西路305號"
  },
  {
    "name": "彰化縣北斗戶政事務所埤頭辦公室",
    "lat": 23.891903,
    "lng": 120.457959,
    "address": "523彰化縣埤頭鄉合興村斗苑西路315號"
  },
  {
    "name": "彰化縣埤頭鄉立圖書館",
    "lat": 23.893213,
    "lng": 120.458766,
    "address": "523彰化縣埤頭鄉合興村文鄉路135號"
  },
  {
    "name": "彰化縣埤頭鄉立圖書館_1樓禮堂",
    "lat": 23.893219,
    "lng": 120.458753,
    "address": "523彰化縣埤頭鄉合興村文鄉路135號1樓"
  },
  {
    "name": "彰化縣埤頭鄉立圖書館_2樓自習室",
    "lat": 23.893219,
    "lng": 120.458753,
    "address": "523彰化縣埤頭鄉合興村文鄉路135號2樓"
  },
  {
    "name": "彰化縣埤頭鄉衛生所",
    "lat": 23.894809,
    "lng": 120.457299,
    "address": "523彰化縣埤頭鄉合興村健安街119號"
  }
]
