[
  {
    "name": "南投縣私立迦南居家式長期照顧服務機構(硘磘)",
    "lat": 23.7469295,
    "lng": 120.675823,
    "address": "557南投縣竹山鎮鯉南路99-1號"
  },
  {
    "name": "南投林區管理處竹山工作站",
    "lat": 23.749551,
    "lng": 120.678915,
    "address": "557南投縣竹山鎮鯉南路21號"
  },
  {
    "name": "南投縣竹山地政事務所",
    "lat": 23.750031,
    "lng": 120.679364,
    "address": "557南投縣竹山鎮鯉南路23號"
  },
  {
    "name": "東華醫院(中山)",
    "lat": 23.7504495,
    "lng": 120.6758096,
    "address": "557南投縣竹山鎮新生路346號"
  },
  {
    "name": "私立東華居家式長期照顧服務機構(竹山1)",
    "lat": 23.7504495,
    "lng": 120.6758096,
    "address": "557南投縣竹山鎮中山里新生路346號1樓"
  },
  {
    "name": "東華醫院(中崎)",
    "lat": 23.7574399,
    "lng": 120.6686894,
    "address": "557南投縣竹山鎮中崎里集山路三段1392號"
  },
  {
    "name": "財政部中區國稅局竹山稽徵所",
    "lat": 23.7581612,
    "lng": 120.6718498,
    "address": "557南投縣竹山鎮雲林里公所路106號"
  }
]
