[
  {
    "name": "屏東縣高樹鄉高樹社區發展協會",
    "lat": 22.820692,
    "lng": 120.602068,
    "address": "906屏東縣高樹鄉高樹村南興路47號"
  },
  {
    "name": "臺灣土地銀行高樹分行",
    "lat": 22.824064,
    "lng": 120.601138,
    "address": "906屏東縣高樹鄉高樹村南興路99號"
  },
  {
    "name": "屏東縣高樹鄉東振社區發展協會",
    "lat": 22.82549,
    "lng": 120.60038,
    "address": "906屏東縣高樹鄉東振村民權路19號"
  },
  {
    "name": "高樹郵局",
    "lat": 22.826293,
    "lng": 120.600523,
    "address": "906屏東縣高樹鄉高樹村興中路327號"
  },
  {
    "name": "向日葵護理之家(高樹鄉)",
    "lat": 22.8294679,
    "lng": 120.6003697,
    "address": "906屏東縣高樹鄉興中路355號"
  },
  {
    "name": "屏東縣高樹鄉大埔社區發展協會",
    "lat": 22.836802,
    "lng": 120.604083,
    "address": "906屏東縣高樹鄉大埔村和興路2號"
  }
]
