[
  {
    "dataType": "wifi",
    "category": "洽公場所",
    "name": "六龜郵局",
    "lat": 22.994371,
    "lng": 120.635562,
    "address": "844高雄市六龜區義寶村光復路173號"
  },
  {
    "dataType": "wifi",
    "category": "其他",
    "name": "社團法人中華富德關懷協會(大同站)",
    "lat": 22.995,
    "lng": 120.637,
    "address": "823高雄市田寮區大同里平安路47之1號"
  },
  {
    "dataType": "wifi",
    "category": "其他",
    "name": "高雄市六龜區新寮社區發展協會",
    "lat": 22.995,
    "lng": 120.637,
    "address": "844高雄市六龜區新寮里三民路14號"
  },
  {
    "dataType": "wifi",
    "category": "其他",
    "name": "高雄市政府社會局六龜社會福利服務中心",
    "lat": 22.99538,
    "lng": 120.634909,
    "address": "844高雄市六龜區光復路102號"
  },
  {
    "dataType": "wifi",
    "category": "文教館所",
    "name": "高雄市立圖書館六龜分館",
    "lat": 22.996116,
    "lng": 120.634751,
    "address": "844高雄市六龜區義寶里光復路70號"
  },
  {
    "dataType": "wifi",
    "category": "其他",
    "name": "高雄市六龜區中興社區發展協會",
    "lat": 22.998,
    "lng": 120.638,
    "address": "844高雄市六龜區中興里中庄194號"
  },
  {
    "dataType": "wifi",
    "category": "其他",
    "name": "高雄市六龜區六龜社區發展協會",
    "lat": 22.9984,
    "lng": 120.638,
    "address": "844高雄市六龜區六龜里華北街60號之一"
  },
  {
    "dataType": "wifi",
    "category": "洽公場所",
    "name": "高雄市六龜區衛生所",
    "lat": 22.998931,
    "lng": 120.63338,
    "address": "844高雄市六龜區六龜里民治路16號"
  },
  {
    "dataType": "wifi",
    "category": "洽公場所",
    "name": "高雄市六龜區公所",
    "lat": 22.999148,
    "lng": 120.632973,
    "address": "844高雄市六龜區六龜里民治路18號"
  },
  {
    "dataType": "wifi",
    "category": "洽公場所",
    "name": "高雄市六龜區戶政事務所",
    "lat": 22.999721,
    "lng": 120.632973,
    "address": "844高雄市六龜區民治路18-2號"
  }
]
