[
  {
    "dataType": "wifi",
    "category": "文教館所",
    "name": "新竹公園(動物園圖書館分館-視聽室右側)",
    "lat": 24.800102,
    "lng": 120.97942,
    "address": "300新竹市東區博愛街111號動物園圖書館"
  },
  {
    "dataType": "wifi",
    "category": "文教館所",
    "name": "新竹公園(動物園圖書館分館-視聽室左側)",
    "lat": 24.800102,
    "lng": 120.97942,
    "address": "300新竹市東區博愛街111號動物園圖書館"
  },
  {
    "dataType": "wifi",
    "category": "文教館所",
    "name": "新竹公園(昆蟲館)室內",
    "lat": 24.800553,
    "lng": 120.977891,
    "address": "300新竹市東區東大路一段2號"
  },
  {
    "dataType": "wifi",
    "category": "旅遊景點",
    "name": "新竹公園(動物園辦公室)右側",
    "lat": 24.800836,
    "lng": 120.979507,
    "address": "300新竹市東區公園路279號B1"
  },
  {
    "dataType": "wifi",
    "category": "旅遊景點",
    "name": "新竹公園(動物園辦公室)左側",
    "lat": 24.800836,
    "lng": 120.979507,
    "address": "300新竹市東區公園路279號B1"
  },
  {
    "dataType": "wifi",
    "category": "文教館所",
    "name": "新竹公園(動物園圖書館分館)",
    "lat": 24.80095,
    "lng": 120.979487,
    "address": "300新竹市東區公園路279號"
  },
  {
    "dataType": "wifi",
    "category": "大眾運輸節點",
    "name": "新竹客運轉運站(左側)",
    "lat": 24.801047,
    "lng": 120.972473,
    "address": "300新竹市東區東南街1巷6號"
  },
  {
    "dataType": "wifi",
    "category": "大眾運輸節點",
    "name": "新竹客運轉運站(右側)",
    "lat": 24.801047,
    "lng": 120.972473,
    "address": "300新竹市東區東南街1巷6號"
  },
  {
    "dataType": "wifi",
    "category": "文教館所",
    "name": "新竹公園玻工館右側(玻璃工坊1F)",
    "lat": 24.80121,
    "lng": 120.9781,
    "address": "300新竹市東區東大路一段2號"
  },
  {
    "dataType": "wifi",
    "category": "文教館所",
    "name": "新竹市西門自修室(左側)",
    "lat": 24.80142,
    "lng": 120.963136,
    "address": "300新竹市東區西門街146號6樓"
  },
  {
    "dataType": "wifi",
    "category": "文教館所",
    "name": "新竹市西門自修室",
    "lat": 24.801438,
    "lng": 120.963149,
    "address": "300新竹市北區西門街146號6樓"
  },
  {
    "dataType": "wifi",
    "category": "大眾運輸節點",
    "name": "臺鐵局新竹站第2月台11車位置",
    "lat": 24.801577,
    "lng": 120.97156,
    "address": "300新竹市東區榮光里中華路二段445號"
  },
  {
    "dataType": "wifi",
    "category": "大眾運輸節點",
    "name": "臺鐵局新竹站後站南大路地下道出口位置",
    "lat": 24.801577,
    "lng": 120.97156,
    "address": "300新竹市東區榮光里中華路二段445號"
  },
  {
    "dataType": "wifi",
    "category": "大眾運輸節點",
    "name": "臺鐵局新竹站第1月台2車位置",
    "lat": 24.801577,
    "lng": 120.97156,
    "address": "300新竹市東區榮光里中華路二段445號"
  },
  {
    "dataType": "wifi",
    "category": "大眾運輸節點",
    "name": "臺鐵局新竹站第1月台11車位置",
    "lat": 24.801577,
    "lng": 120.97156,
    "address": "300新竹市東區榮光里中華路二段445號"
  },
  {
    "dataType": "wifi",
    "category": "大眾運輸節點",
    "name": "臺鐵局新竹站第2月台5車位置",
    "lat": 24.801577,
    "lng": 120.97156,
    "address": "300新竹市東區榮光里中華路二段445號"
  },
  {
    "dataType": "wifi",
    "category": "大眾運輸節點",
    "name": "臺鐵局新竹站第3月台9車位置",
    "lat": 24.801577,
    "lng": 120.97156,
    "address": "300新竹市東區榮光里中華路二段445號"
  },
  {
    "dataType": "wifi",
    "category": "旅遊景點",
    "name": "新竹公園(新竹公園麗池)",
    "lat": 24.801685,
    "lng": 120.978506,
    "address": "300新竹市東區公園路與東大路一段交叉口新竹公園入口旁麗池"
  },
  {
    "dataType": "wifi",
    "category": "洽公場所",
    "name": "臺灣銀行新竹分行",
    "lat": 24.801744,
    "lng": 120.96908,
    "address": "300新竹市東區林森路29號"
  },
  {
    "dataType": "wifi",
    "category": "洽公場所",
    "name": "新竹西門郵局",
    "lat": 24.801747,
    "lng": 120.960466,
    "address": "300新竹市北區北大路471號"
  },
  {
    "dataType": "wifi",
    "category": "大眾運輸節點",
    "name": "臺鐵局新竹站候車大廳",
    "lat": 24.801825,
    "lng": 120.971686,
    "address": "300新竹市東區中華路二段445號"
  },
  {
    "dataType": "wifi",
    "category": "大眾運輸節點",
    "name": "臺鐵局新竹站第1月台南端天橋樓梯處",
    "lat": 24.801825,
    "lng": 120.971686,
    "address": "300新竹市東區中華路二段445號"
  },
  {
    "dataType": "wifi",
    "category": "旅遊景點",
    "name": "新竹市大遠百前廣場(右側)",
    "lat": 24.802065,
    "lng": 120.965288,
    "address": "300新竹市東區西大路323號"
  },
  {
    "dataType": "wifi",
    "category": "旅遊景點",
    "name": "新竹市大遠百前廣場(左側)",
    "lat": 24.802065,
    "lng": 120.965288,
    "address": "300新竹市東區西大路323號"
  },
  {
    "dataType": "wifi",
    "category": "文教館所",
    "name": "新竹市長青學苑旁公園",
    "lat": 24.802425,
    "lng": 120.979106,
    "address": "300新竹市東區公園路255號"
  },
  {
    "dataType": "wifi",
    "category": "洽公場所",
    "name": "新竹市都市發展處新辦公室",
    "lat": 24.802591,
    "lng": 120.969076,
    "address": "300新竹市東區復興路1號"
  },
  {
    "dataType": "wifi",
    "category": "洽公場所",
    "name": "行政院勞動部勞工保險局新竹市辦事處洽公櫃台",
    "lat": 24.802789,
    "lng": 120.97822,
    "address": "300新竹市東區南大路42號"
  },
  {
    "dataType": "wifi",
    "category": "旅遊景點",
    "name": "新竹市護城河岸大同橋(右側)",
    "lat": 24.802912,
    "lng": 120.970159,
    "address": "300新竹市東區大同路"
  },
  {
    "dataType": "wifi",
    "category": "旅遊景點",
    "name": "新竹市護城河岸大同橋(左側)",
    "lat": 24.802912,
    "lng": 120.970159,
    "address": "300新竹市東區大同路"
  },
  {
    "dataType": "wifi",
    "category": "洽公場所",
    "name": "台電公司新竹區處服務中心營業廳",
    "lat": 24.803137,
    "lng": 120.973007,
    "address": "300新竹市東區中華路二段400號"
  },
  {
    "dataType": "wifi",
    "category": "大眾運輸節點",
    "name": "新竹市公車([FAD-223])",
    "lat": 24.8032,
    "lng": 120.972,
    "address": "300新竹市東區民族路14號"
  },
  {
    "dataType": "wifi",
    "category": "大眾運輸節點",
    "name": "新竹市公車([FAD-226])",
    "lat": 24.8032,
    "lng": 120.972,
    "address": "300新竹市東區民族路14號"
  },
  {
    "dataType": "wifi",
    "category": "大眾運輸節點",
    "name": "新竹市公車([FAD-227])",
    "lat": 24.8032,
    "lng": 120.972,
    "address": "300新竹市東區民族路14號"
  },
  {
    "dataType": "wifi",
    "category": "大眾運輸節點",
    "name": "新竹市公車([FAD-228])",
    "lat": 24.8032,
    "lng": 120.972,
    "address": "300新竹市東區民族路14號"
  },
  {
    "dataType": "wifi",
    "category": "大眾運輸節點",
    "name": "新竹市公車([FAD-229])",
    "lat": 24.8032,
    "lng": 120.972,
    "address": "300新竹市東區民族路14號"
  },
  {
    "dataType": "wifi",
    "category": "大眾運輸節點",
    "name": "新竹市公車([FAD-230])",
    "lat": 24.8032,
    "lng": 120.972,
    "address": "300新竹市東區民族路14號"
  },
  {
    "dataType": "wifi",
    "category": "大眾運輸節點",
    "name": "新竹市公車([FAD-220])",
    "lat": 24.8032,
    "lng": 120.972,
    "address": "300新竹市東區民族路14號"
  },
  {
    "dataType": "wifi",
    "category": "大眾運輸節點",
    "name": "新竹市公車([FAD-221])",
    "lat": 24.8032,
    "lng": 120.972,
    "address": "300新竹市東區民族路14號"
  },
  {
    "dataType": "wifi",
    "category": "大眾運輸節點",
    "name": "新竹市公車([FAD-231])",
    "lat": 24.8032,
    "lng": 120.972,
    "address": "300新竹市東區民族路14號"
  },
  {
    "dataType": "wifi",
    "category": "大眾運輸節點",
    "name": "新竹市公車([KKA-3368])",
    "lat": 24.8032,
    "lng": 120.972,
    "address": "300新竹市東區民族路14號"
  },
  {
    "dataType": "wifi",
    "category": "大眾運輸節點",
    "name": "新竹市公車([KKA-3035])",
    "lat": 24.8032,
    "lng": 120.972,
    "address": "300新竹市東區民族路14號"
  },
  {
    "dataType": "wifi",
    "category": "大眾運輸節點",
    "name": "新竹市公車([KKA-3365])",
    "lat": 24.8032,
    "lng": 120.972,
    "address": "300新竹市東區民族路14號"
  },
  {
    "dataType": "wifi",
    "category": "大眾運輸節點",
    "name": "新竹市公車([FAD-232])",
    "lat": 24.8032,
    "lng": 120.972,
    "address": "300新竹市東區民族路14號"
  },
  {
    "dataType": "wifi",
    "category": "大眾運輸節點",
    "name": "新竹市公車([FAD-233])",
    "lat": 24.8032,
    "lng": 120.972,
    "address": "300新竹市東區民族路14號"
  },
  {
    "dataType": "wifi",
    "category": "大眾運輸節點",
    "name": "新竹市公車(藍1[FAD-270])",
    "lat": 24.80323,
    "lng": 120.972033,
    "address": "300新竹市東區民族路14號"
  },
  {
    "dataType": "wifi",
    "category": "大眾運輸節點",
    "name": "新竹市公車(藍1[FAD-271])",
    "lat": 24.80323,
    "lng": 120.972033,
    "address": "300新竹市東區民族路14號"
  },
  {
    "dataType": "wifi",
    "category": "大眾運輸節點",
    "name": "新竹市公車(藍1[FAD-272])",
    "lat": 24.80323,
    "lng": 120.972033,
    "address": "300新竹市東區民族路14號"
  },
  {
    "dataType": "wifi",
    "category": "大眾運輸節點",
    "name": "新竹市公車(新竹客運-藍線[FAD-350])",
    "lat": 24.80323,
    "lng": 120.972033,
    "address": "300新竹市東區民族路14號"
  },
  {
    "dataType": "wifi",
    "category": "大眾運輸節點",
    "name": "新竹市公車(新竹客運-藍線[FAD-339])",
    "lat": 24.80323,
    "lng": 120.972033,
    "address": "300新竹市東區民族路14號"
  },
  {
    "dataType": "wifi",
    "category": "大眾運輸節點",
    "name": "新竹市公車(藍線[FAD-275])",
    "lat": 24.80323,
    "lng": 120.972033,
    "address": "300新竹市東區民族路14號"
  },
  {
    "dataType": "wifi",
    "category": "大眾運輸節點",
    "name": "新竹市公車(藍線[FAD-273])",
    "lat": 24.80323,
    "lng": 120.972033,
    "address": "300新竹市東區民族路14號"
  },
  {
    "dataType": "wifi",
    "category": "文教館所",
    "name": "國立新竹生活美學館美學堂",
    "lat": 24.803435,
    "lng": 120.96749,
    "address": "300新竹市東區武昌街110號"
  },
  {
    "dataType": "wifi",
    "category": "洽公場所",
    "name": "華南商業銀行新竹分行",
    "lat": 24.803954,
    "lng": 120.968313,
    "address": "300新竹市東區東門街131號"
  },
  {
    "dataType": "wifi",
    "category": "洽公場所",
    "name": "新竹東門郵局",
    "lat": 24.80398,
    "lng": 120.973034,
    "address": "300新竹市東區東門街51號"
  },
  {
    "dataType": "wifi",
    "category": "洽公場所",
    "name": "臺灣土地銀行新竹分行",
    "lat": 24.804062,
    "lng": 120.966393,
    "address": "300新竹市東區中央路1號"
  },
  {
    "dataType": "wifi",
    "category": "旅遊景點",
    "name": "新竹市城隍廟旁廣場(右側)",
    "lat": 24.804325,
    "lng": 120.965695,
    "address": "300新竹市北區中山路75號"
  },
  {
    "dataType": "wifi",
    "category": "旅遊景點",
    "name": "新竹市城隍廟旁廣場(左側)",
    "lat": 24.804325,
    "lng": 120.965695,
    "address": "300新竹市北區中山路75號"
  },
  {
    "dataType": "wifi",
    "category": "洽公場所",
    "name": "第一商業銀行東門分行",
    "lat": 24.804641,
    "lng": 120.966223,
    "address": "300新竹市北區東門街216號"
  },
  {
    "dataType": "wifi",
    "category": "洽公場所",
    "name": "新竹市東區區公所",
    "lat": 24.805139,
    "lng": 120.973242,
    "address": "300新竹市東區民族路40號"
  },
  {
    "dataType": "wifi",
    "category": "洽公場所",
    "name": "新竹市東區戶政事務所",
    "lat": 24.805259,
    "lng": 120.973248,
    "address": "300新竹市東區民族路40-1號1樓"
  },
  {
    "dataType": "wifi",
    "category": "文教館所",
    "name": "新竹市東區區公所圖書館",
    "lat": 24.805259,
    "lng": 120.973248,
    "address": "300新竹市東區民族路40號3樓"
  },
  {
    "dataType": "wifi",
    "category": "其他",
    "name": "新竹市北區水田社區發展協會",
    "lat": 24.806,
    "lng": 120.961,
    "address": "300新竹市北區水田里水田街98號"
  },
  {
    "dataType": "wifi",
    "category": "洽公場所",
    "name": "財政部北區國稅局新竹市分局第2辦公室",
    "lat": 24.806246,
    "lng": 120.969924,
    "address": "300新竹市東區中央路112號6樓"
  },
  {
    "dataType": "wifi",
    "category": "洽公場所",
    "name": "新竹市稅務局1樓",
    "lat": 24.806272,
    "lng": 120.969901,
    "address": "300新竹市東區中央路112號"
  },
  {
    "dataType": "wifi",
    "category": "洽公場所",
    "name": "新竹市稅務局3樓",
    "lat": 24.806272,
    "lng": 120.969901,
    "address": "300新竹市東區中央路112號"
  },
  {
    "dataType": "wifi",
    "category": "洽公場所",
    "name": "新竹市警察局刑警大隊",
    "lat": 24.806394,
    "lng": 120.968508,
    "address": "300新竹市北區中山路1號"
  },
  {
    "dataType": "wifi",
    "category": "洽公場所",
    "name": "第一商業銀行(新竹分行)",
    "lat": 24.806571,
    "lng": 120.967856,
    "address": "300新竹市北區英明街3號"
  },
  {
    "dataType": "wifi",
    "category": "洽公場所",
    "name": "新竹市政府府前廣場(右側)",
    "lat": 24.806659,
    "lng": 120.969316,
    "address": "300新竹市北區中正路120號"
  },
  {
    "dataType": "wifi",
    "category": "洽公場所",
    "name": "新竹市政府大禮堂前",
    "lat": 24.806681,
    "lng": 120.968807,
    "address": "300新竹市北區中正路120號"
  },
  {
    "dataType": "wifi",
    "category": "洽公場所",
    "name": "新竹市政府地政處民眾洽公處",
    "lat": 24.806713,
    "lng": 120.968841,
    "address": "300新竹市東區中正路120號"
  },
  {
    "dataType": "wifi",
    "category": "洽公場所",
    "name": "新竹市產業發展處工商科民眾洽公處",
    "lat": 24.806713,
    "lng": 120.968841,
    "address": "300新竹市東區中正路120號"
  },
  {
    "dataType": "wifi",
    "category": "洽公場所",
    "name": "新竹英明街郵局",
    "lat": 24.806783,
    "lng": 120.967444,
    "address": "300新竹市北區英明街10號"
  },
  {
    "dataType": "wifi",
    "category": "洽公場所",
    "name": "新竹市政府服務中心",
    "lat": 24.806951,
    "lng": 120.968776,
    "address": "300新竹市東區中正路120號"
  },
  {
    "dataType": "wifi",
    "category": "洽公場所",
    "name": "新竹市政府府前廣場(左側)",
    "lat": 24.807231,
    "lng": 120.968871,
    "address": "300新竹市北區中正路120號"
  },
  {
    "dataType": "wifi",
    "category": "洽公場所",
    "name": "標準檢驗局新竹分局商檢/計量業務民眾洽公區",
    "lat": 24.807636,
    "lng": 120.977283,
    "address": "300新竹市東區民族路109巷14號"
  },
  {
    "dataType": "wifi",
    "category": "其他",
    "name": "新竹市北區港北社區發展協會",
    "lat": 24.808,
    "lng": 120.964,
    "address": "300新竹市北區港北里西濱路一段1巷76弄1號"
  },
  {
    "dataType": "wifi",
    "category": "洽公場所",
    "name": "兆豐國際商銀北新竹分行",
    "lat": 24.808069,
    "lng": 120.967342,
    "address": "300新竹市北區中正路129號"
  },
  {
    "dataType": "wifi",
    "category": "洽公場所",
    "name": "農業部動植物防疫檢疫署桃園分署(新竹檢疫站申報檢疫櫃檯)",
    "lat": 24.808403,
    "lng": 120.976819,
    "address": "300新竹市東區民族路111號"
  },
  {
    "dataType": "wifi",
    "category": "文教館所",
    "name": "新竹市青少年館(右側)",
    "lat": 24.80845,
    "lng": 120.9688,
    "address": "300新竹市東區府後街58號"
  },
  {
    "dataType": "wifi",
    "category": "旅遊景點",
    "name": "新竹市遠東巨城購物中心前廣場(右側)",
    "lat": 24.809447,
    "lng": 120.978135,
    "address": "300新竹市東區中央路229號"
  },
  {
    "dataType": "wifi",
    "category": "旅遊景點",
    "name": "新竹市遠東巨城購物中心前廣場(左側)",
    "lat": 24.80945,
    "lng": 120.9781,
    "address": "300新竹市東區中央路229號"
  },
  {
    "dataType": "wifi",
    "category": "文教館所",
    "name": "新竹市終身教育學習中心",
    "lat": 24.809739,
    "lng": 120.976246,
    "address": "300新竹市東區中央路241號"
  },
  {
    "dataType": "wifi",
    "category": "洽公場所",
    "name": "新竹市社福大樓10樓服務台",
    "lat": 24.81007,
    "lng": 120.976403,
    "address": "300新竹市東區中央路241號"
  },
  {
    "dataType": "wifi",
    "category": "洽公場所",
    "name": "上海商銀新竹分行",
    "lat": 24.810101,
    "lng": 120.968892,
    "address": "300新竹市東區北大路115號"
  },
  {
    "dataType": "wifi",
    "category": "洽公場所",
    "name": "水利署第二河川局1樓服務台",
    "lat": 24.81065,
    "lng": 120.969708,
    "address": "300新竹市北區北大路97號"
  },
  {
    "dataType": "wifi",
    "category": "洽公場所",
    "name": "新竹武昌街郵局",
    "lat": 24.810866,
    "lng": 120.970418,
    "address": "300新竹市東區北大路95號1樓"
  },
  {
    "dataType": "wifi",
    "category": "其他",
    "name": "新竹市北區士林社區發展協會",
    "lat": 24.811,
    "lng": 120.964,
    "address": "300新竹市北區士林里吉羊路229號"
  },
  {
    "dataType": "wifi",
    "category": "洽公場所",
    "name": "財政部國有財產署中區分署新竹辦事處",
    "lat": 24.811471,
    "lng": 120.970268,
    "address": "300新竹市東區北大路94號"
  },
  {
    "dataType": "wifi",
    "category": "洽公場所",
    "name": "財政部北區國稅局新竹市分局第1辦公室",
    "lat": 24.811499,
    "lng": 120.97059,
    "address": "300新竹市東區北大路90-2號1樓"
  },
  {
    "dataType": "wifi",
    "category": "文教館所",
    "name": "新竹市文化局荷花池廣場",
    "lat": 24.811668,
    "lng": 120.968978,
    "address": "300新竹市北區東大路二段15巷1號"
  },
  {
    "dataType": "wifi",
    "category": "洽公場所",
    "name": "新竹民生路郵局",
    "lat": 24.812196,
    "lng": 120.975164,
    "address": "300新竹市東區民生路243號"
  },
  {
    "dataType": "wifi",
    "category": "洽公場所",
    "name": "智慧財產局新竹服務處",
    "lat": 24.81226,
    "lng": 120.971893,
    "address": "300新竹市北區北大路68號5樓"
  },
  {
    "dataType": "wifi",
    "category": "洽公場所",
    "name": "行政執行署新竹分署8樓等候區",
    "lat": 24.812374,
    "lng": 120.971762,
    "address": "300新竹市東區民權路220號9樓"
  },
  {
    "dataType": "wifi",
    "category": "洽公場所",
    "name": "新竹經國路郵局",
    "lat": 24.812882,
    "lng": 120.965665,
    "address": "300新竹市北區經國路二段56號1樓"
  },
  {
    "dataType": "wifi",
    "category": "洽公場所",
    "name": "臺灣土地銀行東新竹分行",
    "lat": 24.813408,
    "lng": 120.97368,
    "address": "300新竹市東區北大路22號"
  },
  {
    "dataType": "wifi",
    "category": "其他",
    "name": "新竹市農產運銷公司1F承銷人休息區",
    "lat": 24.81469,
    "lng": 120.97733,
    "address": "300新竹市東區經國路一段411號"
  },
  {
    "dataType": "wifi",
    "category": "其他",
    "name": "新竹市農產運銷公司1F入口廣場",
    "lat": 24.81469,
    "lng": 120.97733,
    "address": "300新竹市東區經國路一段411號"
  },
  {
    "dataType": "wifi",
    "category": "洽公場所",
    "name": "新竹市勞工育樂中心2樓",
    "lat": 24.814881,
    "lng": 120.977175,
    "address": "300新竹市東區田美三街2號"
  },
  {
    "dataType": "wifi",
    "category": "洽公場所",
    "name": "新竹復中里郵局",
    "lat": 24.814989,
    "lng": 120.979354,
    "address": "300新竹市東區經國路一段452-1號"
  },
  {
    "dataType": "wifi",
    "category": "公立醫院",
    "name": "國軍桃園總醫院新竹分院門診等候區",
    "lat": 24.816116,
    "lng": 120.962131,
    "address": "300新竹市北區武陵路3號"
  },
  {
    "dataType": "wifi",
    "category": "公立醫院",
    "name": "國軍桃園總醫院新竹分院門診檢查區",
    "lat": 24.816116,
    "lng": 120.962131,
    "address": "300新竹市北區武陵路3號"
  },
  {
    "dataType": "wifi",
    "category": "公立醫院",
    "name": "國軍桃園總醫院新竹分院急診室等候區",
    "lat": 24.816116,
    "lng": 120.962131,
    "address": "300新竹市北區武陵路3號"
  },
  {
    "dataType": "wifi",
    "category": "公立醫院",
    "name": "國軍桃園總醫院新竹分院病房護理站",
    "lat": 24.816116,
    "lng": 120.962131,
    "address": "300新竹市北區武陵路3號"
  },
  {
    "dataType": "wifi",
    "category": "公立醫院",
    "name": "國軍桃園總醫院新竹分院藥局等候區",
    "lat": 24.816116,
    "lng": 120.962131,
    "address": "300新竹市北區武陵路3號"
  },
  {
    "dataType": "wifi",
    "category": "公立醫院",
    "name": "國軍桃園總醫院新竹分院體檢中心",
    "lat": 24.816116,
    "lng": 120.962131,
    "address": "300新竹市北區武陵路3號"
  },
  {
    "dataType": "wifi",
    "category": "洽公場所",
    "name": "新竹市北區戶政事務所",
    "lat": 24.816303,
    "lng": 120.970244,
    "address": "300新竹市北區國華街69號2樓"
  },
  {
    "dataType": "wifi",
    "category": "洽公場所",
    "name": "新竹市北區區公所3樓",
    "lat": 24.816322,
    "lng": 120.970266,
    "address": "300新竹市北區國華街69號3樓"
  },
  {
    "dataType": "wifi",
    "category": "洽公場所",
    "name": "新竹市北區衛生所",
    "lat": 24.816361,
    "lng": 120.970223,
    "address": "300新竹市北區國華街69號1樓1樓"
  },
  {
    "dataType": "wifi",
    "category": "洽公場所",
    "name": "勞動部勞動力發展署桃竹苗分署新竹就業中心洽公櫃台",
    "lat": 24.81642,
    "lng": 120.975013,
    "address": "300新竹市北區光華東街56號"
  },
  {
    "dataType": "wifi",
    "category": "洽公場所",
    "name": "新竹市地政事務所1樓",
    "lat": 24.816654,
    "lng": 120.975523,
    "address": "300新竹市東區光華東街60號1樓"
  },
  {
    "dataType": "wifi",
    "category": "洽公場所",
    "name": "新竹光華街郵局",
    "lat": 24.816821,
    "lng": 120.971164,
    "address": "300新竹市北區光華北街87號"
  },
  {
    "dataType": "wifi",
    "category": "其他",
    "name": "新竹市武陵市民活動中心",
    "lat": 24.819765,
    "lng": 120.964271,
    "address": "300新竹市北區武陵西三路7號"
  },
  {
    "dataType": "wifi",
    "category": "其他",
    "name": "社團法人新竹市福祿壽長青協會",
    "lat": 24.8198,
    "lng": 120.9643,
    "address": "300新竹市北區湳中里武陵西三路7號三樓"
  }
]
