[
  {
    "name": "國軍退除役官兵輔導委員會新竹榮譽國民之家嵩德樓一樓大廳",
    "lat": 24.793286,
    "lng": 120.954794,
    "address": "300新竹市北區崧嶺路57巷41號"
  },
  {
    "name": "新竹市殯葬管理所服務中心",
    "lat": 24.793338,
    "lng": 120.957091,
    "address": "300新竹市北區成德路132號1樓"
  },
  {
    "name": "新竹市殯葬管理所新館禮廳(右側)",
    "lat": 24.793338,
    "lng": 120.957091,
    "address": "300新竹市北區成德路132號2樓"
  },
  {
    "name": "新竹市殯葬管理所新館禮廳(左側)",
    "lat": 24.793338,
    "lng": 120.957091,
    "address": "300新竹市北區成德路132號2樓"
  },
  {
    "name": "新竹市殯葬管理所舊館左側靈堂",
    "lat": 24.793392,
    "lng": 120.956581,
    "address": "300新竹市北區成德路132號2樓"
  },
  {
    "name": "新竹市香山衛生所",
    "lat": 24.7940156,
    "lng": 120.942208,
    "address": "300新竹市香山區育德街188號1樓"
  },
  {
    "name": "新竹市香山戶政事務所",
    "lat": 24.794358,
    "lng": 120.942555,
    "address": "300新竹市香山區育德街188號2樓"
  },
  {
    "name": "新竹市香山區公所",
    "lat": 24.794358,
    "lng": 120.942555,
    "address": "300新竹市香山區育德街188號3樓"
  },
  {
    "name": "新竹牛埔郵局",
    "lat": 24.794573,
    "lng": 120.941915,
    "address": "300新竹市香山區牛埔南路42號"
  },
  {
    "name": "交通部公路總局第一區養護工程處新竹工務段",
    "lat": 24.795501,
    "lng": 120.955439,
    "address": "300新竹市香山區崧嶺路40號"
  },
  {
    "name": "衛生福利部少年之家",
    "lat": 24.796207,
    "lng": 120.956111,
    "address": "300新竹市北區崧嶺路181號"
  },
  {
    "name": "新竹市公車(50、51路[KKA-3036])",
    "lat": 24.7970394,
    "lng": 120.942084,
    "address": "300新竹市香山區牛埔路391-411號"
  },
  {
    "name": "新竹市公車(50、51路[KKA-3037])",
    "lat": 24.7970394,
    "lng": 120.942084,
    "address": "300新竹市香山區牛埔路391-411號"
  },
  {
    "name": "新竹市香山圖書館",
    "lat": 24.797359,
    "lng": 120.942783,
    "address": "300新竹市香山區牛埔路389號2樓"
  },
  {
    "name": "新竹市香山圖書館(閱讀室)",
    "lat": 24.79736,
    "lng": 120.9428,
    "address": "300新竹市香山區牛埔路389號2樓"
  },
  {
    "name": "新竹市香山圖書館(櫃台)",
    "lat": 24.79736,
    "lng": 120.9428,
    "address": "300新竹市香山區牛埔路389號2樓"
  },
  {
    "name": "新竹市警察局第三分局",
    "lat": 24.797608,
    "lng": 120.942621,
    "address": "300新竹市香山區牛埔路432號"
  }
]
