[
  {
    "dataType": "wifi",
    "category": "洽公場所",
    "name": "花蓮縣新城鄉民代表會",
    "lat": 24.040124,
    "lng": 121.603661,
    "address": "971花蓮縣新城鄉大漢村光復路574號"
  },
  {
    "dataType": "wifi",
    "category": "洽公場所",
    "name": "新城鄉立幼兒園",
    "lat": 24.049741,
    "lng": 121.606489,
    "address": "971花蓮縣新城鄉康樂村大漢街396號"
  },
  {
    "dataType": "wifi",
    "category": "文教館所",
    "name": "花蓮縣新城鄉康樂國民小學",
    "lat": 24.052578,
    "lng": 121.607623,
    "address": "971花蓮縣新城鄉康樂村康樂1街38號"
  },
  {
    "dataType": "wifi",
    "category": "其他",
    "name": "財團法人基督教芥菜種會-富安",
    "lat": 24.053,
    "lng": 121.61,
    "address": "970花蓮縣花蓮市國裕里富安路13號"
  },
  {
    "dataType": "wifi",
    "category": "洽公場所",
    "name": "花蓮縣新城鄉康樂村辦公處",
    "lat": 24.053472,
    "lng": 121.606091,
    "address": "971花蓮縣新城鄉康樂村廣安一街112號"
  }
]
