[
  {
    "dataType": "charging",
    "name": "平鎮北勢郵局",
    "lat": 24.941972,
    "lng": 121.223201,
    "address": "324桃園市平鎮區金陵路2段59號"
  },
  {
    "dataType": "charging",
    "name": "中壢東興郵局",
    "lat": 24.947719,
    "lng": 121.226089,
    "address": "320桃園市中壢區龍岡路一段229號"
  },
  {
    "dataType": "charging",
    "name": "標準檢驗局新竹分局桃園辦事處商檢/計量業務民眾洽公區",
    "lat": 24.951039,
    "lng": 121.222156,
    "address": "320桃園市中壢區龍岡路一段46號"
  },
  {
    "dataType": "charging",
    "name": "自來水公司中壢服務所",
    "lat": 24.952805,
    "lng": 121.220809,
    "address": "324桃園市平鎮區延平路一段26號"
  },
  {
    "dataType": "charging",
    "name": "桃園市政府警察局中壢分局",
    "lat": 24.954006,
    "lng": 121.222297,
    "address": "320桃園市中壢區延平路607號1樓"
  },
  {
    "dataType": "charging",
    "name": "中壢普仁郵局",
    "lat": 24.954153,
    "lng": 121.237239,
    "address": "320桃園市中壢區中山東路二段24號"
  },
  {
    "dataType": "charging",
    "name": "中壢建國路郵局",
    "lat": 24.955491,
    "lng": 121.225018,
    "address": "320桃園市中壢區建國路36號"
  },
  {
    "dataType": "charging",
    "name": "台電公司中壢服務所大廳",
    "lat": 24.957085,
    "lng": 121.223745,
    "address": "320桃園市中壢區延平路499號"
  },
  {
    "dataType": "charging",
    "name": "公路總局新竹區監理所中壢監理站",
    "lat": 24.959568,
    "lng": 121.224307,
    "address": "320桃園市中壢區延平路394號"
  }
]
