[
  {
    "dataType": "charging",
    "dataSource": "gov-data",
    "name": "冬山群英郵局",
    "lat": 24.667063,
    "lng": 121.768078,
    "address": "269宜蘭縣冬山鄉義成路三段482號"
  },
  {
    "dataType": "charging",
    "dataSource": "gov-data",
    "name": "冬山鄉戶政事務所",
    "lat": 24.667211,
    "lng": 121.771517,
    "address": "269宜蘭縣冬山鄉冬山路170號"
  },
  {
    "dataType": "charging",
    "dataSource": "gov-data",
    "name": "羅東南門郵局",
    "lat": 24.670064,
    "lng": 121.771588,
    "address": "265宜蘭縣羅東鎮南昌里中正南路102號"
  },
  {
    "dataType": "charging",
    "dataSource": "gov-data",
    "name": "羅東郵局",
    "lat": 24.677527,
    "lng": 121.768196,
    "address": "265宜蘭縣羅東鎮賢文里興東路69號"
  },
  {
    "dataType": "charging",
    "dataSource": "gov-data",
    "name": "羅東鎮戶政事務所",
    "lat": 24.678764,
    "lng": 121.768781,
    "address": "265宜蘭縣羅東鎮公正路159之1號"
  },
  {
    "dataType": "charging",
    "dataSource": "gov-data",
    "name": "羅東大同路郵局",
    "lat": 24.679622,
    "lng": 121.77362,
    "address": "265宜蘭縣羅東鎮大同路44-6號"
  }
]
