[
  {
    "name": "臺北榮民總醫院蘇澳分院-南成社區",
    "lat": 24.5809244,
    "lng": 121.8642339,
    "address": "270宜蘭縣蘇澳鎮南成里民生路15號"
  },
  {
    "name": "宜蘭縣蘇澳鎮南寧社區發展協會",
    "lat": 24.581317,
    "lng": 121.869638,
    "address": "270宜蘭縣蘇澳鎮南寧里南新路9號"
  },
  {
    "name": "蘇澳南方澳郵局",
    "lat": 24.581699,
    "lng": 121.865133,
    "address": "270宜蘭縣蘇澳鎮江夏路13號"
  },
  {
    "name": "宜蘭縣政府警察局南方澳派出所",
    "lat": 24.582335,
    "lng": 121.866116,
    "address": "270宜蘭縣蘇澳鎮漁港路84號"
  },
  {
    "name": "南方澳消防分隊",
    "lat": 24.583239,
    "lng": 121.865235,
    "address": "270宜蘭縣蘇澳鎮海邊路138號"
  },
  {
    "name": "交通部觀光局東北角暨宜蘭海岸國家風景區管理處南方澳遊客中心",
    "lat": 24.585159,
    "lng": 121.862755,
    "address": "270宜蘭縣蘇澳鎮南正里江夏路85號"
  }
]
