[
  {
    "dataType": "wifi",
    "category": "文教館所",
    "name": "馬祖WiFi加值_仁愛村活動中心戶外(含活動中心)",
    "lat": 26.145973,
    "lng": 119.912627,
    "address": "209連江縣南竿鄉仁愛村59-1號"
  },
  {
    "dataType": "wifi",
    "category": "旅遊景點",
    "name": "連江縣津沙聚落",
    "lat": 26.146097,
    "lng": 119.913106,
    "address": "209連江縣南竿鄉津沙村中華電信電信室"
  },
  {
    "dataType": "wifi",
    "category": "其他",
    "name": "連江縣南竿鄉山隴社區發展協會",
    "lat": 26.148,
    "lng": 119.915,
    "address": "209連江縣南竿鄉介壽村338號"
  },
  {
    "dataType": "wifi",
    "category": "洽公場所",
    "name": "行政院勞動部勞工保險局馬祖辦事處洽公櫃台",
    "lat": 26.15,
    "lng": 119.919662,
    "address": "209連江縣南竿鄉介壽村47-4號"
  },
  {
    "dataType": "wifi",
    "category": "旅遊景點",
    "name": "連江縣馬港天后宮",
    "lat": 26.158821,
    "lng": 119.918003,
    "address": "209連江縣南竿鄉馬祖村4-2號"
  },
  {
    "dataType": "wifi",
    "category": "大眾運輸節點",
    "name": "連江縣馬港公車站",
    "lat": 26.159109,
    "lng": 119.918333,
    "address": "209連江縣南竿鄉馬祖村馬港侯車亭"
  },
  {
    "dataType": "wifi",
    "category": "文教館所",
    "name": "連江縣馬港圖書館",
    "lat": 26.159619,
    "lng": 119.919897,
    "address": "209連江縣南竿鄉馬祖村5號"
  }
]
