[
  {
    "dataType": "wifi",
    "category": "洽公場所",
    "name": "高雄市田寮區公所",
    "lat": 22.869868,
    "lng": 120.35943,
    "address": "823高雄市田寮區南安里崗安路71號"
  },
  {
    "dataType": "wifi",
    "category": "洽公場所",
    "name": "田寮郵局",
    "lat": 22.872582,
    "lng": 120.359624,
    "address": "823高雄市田寮區南安村崗北路61號"
  },
  {
    "dataType": "wifi",
    "category": "文教館所",
    "name": "高雄市立圖書館田寮分館",
    "lat": 22.873645,
    "lng": 120.358973,
    "address": "823高雄市田寮區南安里崗安路71-1號"
  },
  {
    "dataType": "wifi",
    "category": "洽公場所",
    "name": "高雄市田寮區戶政事務所",
    "lat": 22.873787,
    "lng": 120.357125,
    "address": "823高雄市田寮區南安里崗安路71之3號"
  },
  {
    "dataType": "wifi",
    "category": "其他",
    "name": "高雄市路竹區鴨寮社區發展協會",
    "lat": 22.878,
    "lng": 120.353,
    "address": "821高雄市路竹區鴨寮里保安路86號"
  }
]
