[
  {
    "dataType": "wifi",
    "category": "大眾運輸節點",
    "name": "臺鐵局臺南站第2月台5車位置",
    "lat": 22.960904,
    "lng": 120.214125,
    "address": "701臺南市東區北門路二段4號"
  },
  {
    "dataType": "wifi",
    "category": "大眾運輸節點",
    "name": "臺鐵局臺南站大廳候車室",
    "lat": 22.960904,
    "lng": 120.214125,
    "address": "701臺南市東區北門路二段4號"
  },
  {
    "dataType": "wifi",
    "category": "大眾運輸節點",
    "name": "臺鐵局臺南站第1月台10車",
    "lat": 22.960904,
    "lng": 120.214125,
    "address": "701臺南市東區北門路二段4號"
  },
  {
    "dataType": "wifi",
    "category": "洽公場所",
    "name": "疾病管制署南區管制中心一樓",
    "lat": 22.964623,
    "lng": 120.216203,
    "address": "702臺南市南區大同路二段752號"
  },
  {
    "dataType": "wifi",
    "category": "洽公場所",
    "name": "疾病管制署南區管制中心二樓",
    "lat": 22.964623,
    "lng": 120.216203,
    "address": "702臺南市南區大同路二段752號"
  },
  {
    "dataType": "wifi",
    "category": "洽公場所",
    "name": "疾病管制署南區管制中心一樓2",
    "lat": 22.964623,
    "lng": 120.216203,
    "address": "702臺南市南區大同路二段752號"
  },
  {
    "dataType": "wifi",
    "category": "其他",
    "name": "臺南市南區大恩里辦公處",
    "lat": 22.966,
    "lng": 120.21,
    "address": "702臺南市南區大恩里大同路二段750巷186號"
  },
  {
    "dataType": "wifi",
    "category": "其他",
    "name": "臺南市南區大林社區發展協會",
    "lat": 22.973,
    "lng": 120.211,
    "address": "702臺南市南區大林里大同路二段482巷133弄15號"
  },
  {
    "dataType": "wifi",
    "category": "其他",
    "name": "臺南市南區明德社區發展協會",
    "lat": 22.974,
    "lng": 120.201,
    "address": "702臺南市南區明德里大成路一段61巷32號"
  },
  {
    "dataType": "wifi",
    "category": "洽公場所",
    "name": "台南大同路郵局",
    "lat": 22.974438,
    "lng": 120.214183,
    "address": "702臺南市南區大同路二段410號"
  },
  {
    "dataType": "wifi",
    "category": "其他",
    "name": "臺南市東區大德社區發展協會",
    "lat": 22.977,
    "lng": 120.215,
    "address": "701臺南市東區大德里立德十路30巷51號"
  },
  {
    "dataType": "wifi",
    "category": "其他",
    "name": "臺南市東區大福社區發展協會",
    "lat": 22.9772,
    "lng": 120.2152,
    "address": "701臺南市東區大德里立德九路46號"
  },
  {
    "dataType": "wifi",
    "category": "洽公場所",
    "name": "臺南市政府消防局第七大隊部",
    "lat": 22.978667,
    "lng": 120.203811,
    "address": "702臺南市南區南門路273號1樓"
  },
  {
    "dataType": "wifi",
    "category": "其他",
    "name": "社團法人中華民國基督教女青年會協會台灣省臺南市支會",
    "lat": 22.979,
    "lng": 120.21,
    "address": "702臺南市南區竹溪里健康路一段113巷51弄1號二樓"
  }
]
