[
  {
    "name": "臺南市南區新生社區發展協會",
    "lat": 22.98,
    "lng": 120.212,
    "address": "702臺南市南區新生里大同路二段100巷21弄18號"
  },
  {
    "name": "臺南市東區德光里辦公處",
    "lat": 22.981,
    "lng": 120.219,
    "address": "701臺南市東區德光里崇德路111號"
  },
  {
    "name": "公路總局嘉義區監理所臺南監理站",
    "lat": 22.981226,
    "lng": 120.217655,
    "address": "701臺南市東區崇德路1號"
  },
  {
    "name": "台南水交社郵局",
    "lat": 22.981438,
    "lng": 120.204491,
    "address": "700臺南市中西區健康路一段260號"
  },
  {
    "name": "行政院農業委員會水土保持局臺南分局",
    "lat": 22.983243,
    "lng": 120.219607,
    "address": "701臺南市東區林森路一段316號"
  },
  {
    "name": "臺南市中西區小西門里辦公處",
    "lat": 22.984,
    "lng": 120.2,
    "address": "700臺南市中西區小西門里府緯街4巷6號"
  },
  {
    "name": "臺南市東區大同社區發展協會",
    "lat": 22.984,
    "lng": 120.213,
    "address": "701臺南市東區大同里府連路182巷29號"
  },
  {
    "name": "兆豐國際商銀東台南分行",
    "lat": 22.985642,
    "lng": 120.21811,
    "address": "701臺南市東區長榮路一段225號"
  },
  {
    "name": "社團法人臺南市開山歡喜協會",
    "lat": 22.986,
    "lng": 120.21,
    "address": "700臺南市中西區開山里樹林街二段52號"
  },
  {
    "name": "第一商業銀行(竹溪分行)",
    "lat": 22.9861169,
    "lng": 120.2109177,
    "address": "700臺南市中西區大同路一段98號"
  },
  {
    "name": "台南東城郵局",
    "lat": 22.986242,
    "lng": 120.217036,
    "address": "701臺南市東區府連路433、435號"
  },
  {
    "name": "臺南市東區東安社區發展協會",
    "lat": 22.987,
    "lng": 120.219,
    "address": "701臺南市東區中西里長榮路二段17號二樓"
  },
  {
    "name": "行政院農業委員會農糧署南區分署",
    "lat": 22.987197,
    "lng": 120.216844,
    "address": "701臺南市東區東門路一段320號"
  },
  {
    "name": "衛生福利部胸腔病院-門診部大廳",
    "lat": 22.987201,
    "lng": 120.211416,
    "address": "701臺南市東區大同路一段69號"
  },
  {
    "name": "台電公司台南區處服務中心營業廳",
    "lat": 22.988066,
    "lng": 120.20173,
    "address": "700臺南市中西區忠義路一段109號"
  },
  {
    "name": "台南南門路郵局",
    "lat": 22.988785,
    "lng": 120.204744,
    "address": "700臺南市中西區南門路93號"
  },
  {
    "name": "臺灣銀行臺南分行",
    "lat": 22.9887891,
    "lng": 120.206999,
    "address": "700臺南市中西區府前路一段155號"
  },
  {
    "name": "司法院(高雄高等行政法院)-2",
    "lat": 22.9889029,
    "lng": 120.201277,
    "address": "700臺南市中西區忠義路一段125巷6號"
  },
  {
    "name": "行政執行署臺南分署一樓為民服務中心",
    "lat": 22.989079,
    "lng": 120.205412,
    "address": "700臺南市中西區府前路一段305號"
  },
  {
    "name": "兆豐國際商銀台南分行",
    "lat": 22.99119,
    "lng": 120.202746,
    "address": "700臺南市中西區忠義路二段14號"
  },
  {
    "name": "國立臺灣文學館1樓大廳",
    "lat": 22.992029,
    "lng": 120.204628,
    "address": "700臺南市中西區中正路1號"
  },
  {
    "name": "台南中正路郵局",
    "lat": 22.992036,
    "lng": 120.202241,
    "address": "700臺南市中西區中正路42號"
  },
  {
    "name": "臺灣土地銀行臺南分行",
    "lat": 22.992237,
    "lng": 120.203136,
    "address": "700臺南市中西區中正路28號"
  },
  {
    "name": "勞動部勞動力發展署雲嘉南分署臺南就業中心1F",
    "lat": 22.992545,
    "lng": 120.212461,
    "address": "701臺南市東區衛民街19號1樓"
  },
  {
    "name": "觀光局旅遊服務中心台南服務處",
    "lat": 22.9927577,
    "lng": 120.2072088,
    "address": "700臺南市中西區民權路一段243號10樓"
  },
  {
    "name": "第一商業銀行(台南分行)",
    "lat": 22.9939538,
    "lng": 120.2033508,
    "address": "700臺南市中西區忠義路二段82號"
  },
  {
    "name": "兆豐國際商銀府城分行",
    "lat": 22.994131,
    "lng": 120.207641,
    "address": "700臺南市中西區中山路90號"
  },
  {
    "name": "上海商銀東台南分行",
    "lat": 22.994569,
    "lng": 120.210039,
    "address": "700臺南市中西區民族路二段66號"
  },
  {
    "name": "華南商業銀行台南分行",
    "lat": 22.994715,
    "lng": 120.201734,
    "address": "700臺南市中西區永福路二段154號"
  },
  {
    "name": "臺南醫院-門診大樓1樓大廳",
    "lat": 22.995379,
    "lng": 120.208846,
    "address": "700臺南市中西區中山路125號"
  },
  {
    "name": "國軍退除役官兵輔導委員會臺南市榮民服務處服務大樓一樓大廳",
    "lat": 22.9956782,
    "lng": 120.2155911,
    "address": "701臺南市東區育樂街87號"
  },
  {
    "name": "國軍退除役官兵輔導委員會臺南市榮民服務處就業大樓一樓大廳",
    "lat": 22.9956782,
    "lng": 120.2155911,
    "address": "701臺南市東區育樂街87號"
  },
  {
    "name": "臺灣高等法院臺南分院檢察署為民服務中心",
    "lat": 22.995985,
    "lng": 120.210676,
    "address": "700臺南市中西區中山路170號"
  },
  {
    "name": "司法院(臺灣高等法院台南分院)",
    "lat": 22.9961727,
    "lng": 120.2108448,
    "address": "700臺南市中西區中山路170號"
  },
  {
    "name": "臺灣銀行南都分行",
    "lat": 22.996639,
    "lng": 120.204334,
    "address": "700臺南市中西區忠義路二段180號"
  },
  {
    "name": "成功大學郵局",
    "lat": 22.996718,
    "lng": 120.216715,
    "address": "701臺南市東區大學路1號"
  },
  {
    "name": "中央健康保險署-南區業務組1樓聯合服務中心",
    "lat": 22.9967411,
    "lng": 120.206699,
    "address": "700臺南市中西區公園路96號1樓"
  },
  {
    "name": "臺鐵局臺南站後站大廳",
    "lat": 22.9971281,
    "lng": 120.212648,
    "address": "701臺南市東區北門路二段4號"
  },
  {
    "name": "臺鐵局臺南站第1月台4車",
    "lat": 22.9973218,
    "lng": 120.2129445,
    "address": "701臺南市東區北門路二段4號"
  },
  {
    "name": "臺鐵局臺南站前站大廳（手機充電服務區）",
    "lat": 22.9973218,
    "lng": 120.2129445,
    "address": "701臺南市東區北門路二段4號"
  },
  {
    "name": "國立成功大學國際會議廳",
    "lat": 22.997578,
    "lng": 120.215578,
    "address": "701臺南市東區大學路1號"
  },
  {
    "name": "台南成功路郵局-1",
    "lat": 22.997599,
    "lng": 120.210353,
    "address": "704臺南市北區成功路6、8號"
  },
  {
    "name": "台南成功路郵局-2",
    "lat": 22.997599,
    "lng": 120.210353,
    "address": "704臺南市北區成功路6、8號"
  },
  {
    "name": "中油公司台南直銷中心",
    "lat": 22.997662,
    "lng": 120.2094968,
    "address": "704臺南市北區成功路16號"
  },
  {
    "name": "財政部南區國稅局臺南分局",
    "lat": 22.9981321,
    "lng": 120.2115132,
    "address": "704臺南市北區富北街7號1樓"
  },
  {
    "name": "台南普濟郵局",
    "lat": 22.998288,
    "lng": 120.200488,
    "address": "700臺南市中西區西門路二段366號"
  },
  {
    "name": "財政部南區國稅局會議室",
    "lat": 22.998694,
    "lng": 120.211201,
    "address": "704臺南市北區富北街7號10樓"
  },
  {
    "name": "財政部南區國稅局藝文展覽區",
    "lat": 22.998694,
    "lng": 120.211201,
    "address": "704臺南市北區富北街7號10樓"
  },
  {
    "name": "財政部國有財產署南區分署臺南辦事處",
    "lat": 22.998753,
    "lng": 120.211295,
    "address": "704臺南市北區富北街9號6樓"
  },
  {
    "name": "臺灣土地銀行北臺南分行(1樓)",
    "lat": 22.998773,
    "lng": 120.20854,
    "address": "704臺南市北區公園路128-7號1樓"
  },
  {
    "name": "臺灣土地銀行北臺南分行(2樓)",
    "lat": 22.998773,
    "lng": 120.20854,
    "address": "704臺南市北區公園路128-7號2樓"
  },
  {
    "name": "台南西華郵局",
    "lat": 22.999636,
    "lng": 120.20808,
    "address": "704臺南市北區公園路176-1號"
  },
  {
    "name": "華南商業銀行北台南分行",
    "lat": 22.999918,
    "lng": 120.201631,
    "address": "704臺南市北區成功路294號"
  },
  {
    "name": "國立成功大學圖書館",
    "lat": 22.999918,
    "lng": 120.219988,
    "address": "701臺南市東區大學路1號"
  }
]
