[
  {
    "dataType": "wifi",
    "category": "旅遊景點",
    "name": "三義鄉水美街(永美小吃)",
    "lat": 24.400714,
    "lng": 120.762993,
    "address": "367苗栗縣三義鄉勝興村水美路314號"
  },
  {
    "dataType": "wifi",
    "category": "其他",
    "name": "苗栗縣三義鄉西湖社區發展協會",
    "lat": 24.401,
    "lng": 120.763,
    "address": "367苗栗縣三義鄉西湖村上湖64之1號"
  },
  {
    "dataType": "wifi",
    "category": "其他",
    "name": "苗栗縣向揚推展關懷協會",
    "lat": 24.402,
    "lng": 120.766,
    "address": "367苗栗縣三義鄉勝興村29鄰水美315之56號一樓"
  },
  {
    "dataType": "wifi",
    "category": "旅遊景點",
    "name": "三義鄉木雕街(山逸雅事)",
    "lat": 24.405228,
    "lng": 120.761392,
    "address": "367苗栗縣三義鄉廣聲新城63號"
  },
  {
    "dataType": "wifi",
    "category": "旅遊景點",
    "name": "三義鄉木雕街(尋根雕刻工作室)",
    "lat": 24.40557,
    "lng": 120.76137,
    "address": "367苗栗縣三義鄉廣聲新城78號"
  },
  {
    "dataType": "wifi",
    "category": "旅遊景點",
    "name": "三義鄉木雕博物館",
    "lat": 24.406127,
    "lng": 120.761155,
    "address": "367苗栗縣三義鄉廣盛村廣聲新城88號"
  },
  {
    "dataType": "wifi",
    "category": "旅遊景點",
    "name": "三義鄉木雕博物館(停車場)",
    "lat": 24.406127,
    "lng": 120.761155,
    "address": "367苗栗縣三義鄉廣盛村廣聲新城88號"
  },
  {
    "dataType": "wifi",
    "category": "其他",
    "name": "苗栗縣三義鄉勝興社區發展協會",
    "lat": 24.407,
    "lng": 120.767,
    "address": "367苗栗縣三義鄉勝興村8鄰二十份235號"
  },
  {
    "dataType": "wifi",
    "category": "其他",
    "name": "苗栗縣三義鄉廣盛社區發展協會",
    "lat": 24.412579,
    "lng": 120.772058,
    "address": "367苗栗縣三義鄉廣盛村新生路30號"
  },
  {
    "dataType": "wifi",
    "category": "其他",
    "name": "惠生診所",
    "lat": 24.413702,
    "lng": 120.772639,
    "address": "367苗栗縣三義鄉廣盛村重河79號"
  },
  {
    "dataType": "wifi",
    "category": "洽公場所",
    "name": "三義郵局",
    "lat": 24.414283,
    "lng": 120.772563,
    "address": "367苗栗縣三義鄉中正路101號"
  },
  {
    "dataType": "wifi",
    "category": "其他",
    "name": "苗栗縣三義鄉老人福利會",
    "lat": 24.41437,
    "lng": 120.773251,
    "address": "367苗栗縣三義鄉廣盛村新生路9之21號三樓"
  },
  {
    "dataType": "wifi",
    "category": "文教館所",
    "name": "三義鄉立圖書館1樓",
    "lat": 24.414686,
    "lng": 120.773495,
    "address": "367苗栗縣三義鄉廣盛村新生路9-21號"
  },
  {
    "dataType": "wifi",
    "category": "文教館所",
    "name": "三義鄉立圖書館4樓",
    "lat": 24.414686,
    "lng": 120.773495,
    "address": "367苗栗縣三義鄉廣盛村新生路9-21號"
  }
]
