[
  {
    "dataType": "wifi",
    "category": "其他",
    "name": "新北市金山區五南社區發展協會",
    "lat": 25.22,
    "lng": 121.64,
    "address": "208新北市金山區五湖里南勢27號"
  },
  {
    "dataType": "wifi",
    "category": "其他",
    "name": "財團法人新北市金包里慈護宮",
    "lat": 25.2203,
    "lng": 121.6404,
    "address": "208新北市金山區和平里金包里街1之1號"
  },
  {
    "dataType": "wifi",
    "category": "其他",
    "name": "金包里社區發展協會",
    "lat": 25.221758,
    "lng": 121.640544,
    "address": "208新北市金山區磺港里磺港路171之1號B1"
  },
  {
    "dataType": "wifi",
    "category": "其他",
    "name": "社團法人中華民國新生活社會福利發展促進會(金山豐漁站)",
    "lat": 25.222812,
    "lng": 121.64666,
    "address": "208新北市金山區豐漁里民生路190號"
  },
  {
    "dataType": "wifi",
    "category": "其他",
    "name": "新北市金山區磺港里辦公處",
    "lat": 25.224154,
    "lng": 121.64397,
    "address": "208新北市金山區磺港里磺港路171之1號二樓"
  },
  {
    "dataType": "wifi",
    "category": "旅遊景點",
    "name": "金山遊客中心",
    "lat": 25.224396,
    "lng": 121.644007,
    "address": "208新北市金山區磺港路171-2號"
  }
]
