[
  {
    "dataType": "charging",
    "name": "台中國光路郵局",
    "lat": 24.12271,
    "lng": 120.679597,
    "address": "402臺中市南區國光路297號"
  },
  {
    "dataType": "charging",
    "name": "台中福平里郵局",
    "lat": 24.127495,
    "lng": 120.665667,
    "address": "402臺中市南區復興路二段169號"
  },
  {
    "dataType": "charging",
    "name": "台中愛國街郵局",
    "lat": 24.130872,
    "lng": 120.677936,
    "address": "402臺中市南區愛國街87號"
  },
  {
    "dataType": "charging",
    "name": "台中大全街郵局",
    "lat": 24.136168,
    "lng": 120.671231,
    "address": "403臺中市西區大全街42、44、46號"
  },
  {
    "dataType": "charging",
    "name": "臺中市西區戶政事務所",
    "lat": 24.136402,
    "lng": 120.673022,
    "address": "403臺中市西區三民路一段161號3樓"
  },
  {
    "dataType": "charging",
    "name": "台中民權路郵局",
    "lat": 24.139117,
    "lng": 120.678872,
    "address": "400臺中市中區民權路86號"
  }
]
