[
  {
    "dataType": "charging",
    "dataSource": "gov-data",
    "name": "中油公司台中市南屯區五權西路站",
    "lat": 24.141304,
    "lng": 120.641738,
    "address": "408臺中市南屯區五權西路二段562號"
  },
  {
    "dataType": "charging",
    "dataSource": "gov-data",
    "name": "台中東興路郵局",
    "lat": 24.141357,
    "lng": 120.653168,
    "address": "408臺中市南屯區東興路二段186號"
  },
  {
    "dataType": "charging",
    "dataSource": "gov-data",
    "name": "台中向上郵局",
    "lat": 24.146749,
    "lng": 120.640866,
    "address": "408臺中市南屯區向上路二段199號"
  },
  {
    "dataType": "charging",
    "dataSource": "gov-data",
    "name": "台中郵件處理中心視聽室",
    "lat": 24.147165,
    "lng": 120.640934,
    "address": "408臺中市南屯區向上路2段199號6樓"
  },
  {
    "dataType": "charging",
    "dataSource": "gov-data",
    "name": "台中大隆路郵局",
    "lat": 24.156532,
    "lng": 120.652867,
    "address": "407臺中市西屯區大隆路60、62號"
  }
]
