[
  {
    "name": "澎湖縣白沙鄉小赤社區發展協會",
    "lat": 23.660515,
    "lng": 119.597548,
    "address": "884澎湖縣白沙鄉小赤村小赤崁11之8號"
  },
  {
    "name": "北海遊客中心",
    "lat": 23.664044,
    "lng": 119.594854,
    "address": "884澎湖縣白沙鄉鄉赤崁村37-4號"
  },
  {
    "name": "澎湖縣白沙鄉公所",
    "lat": 23.666546,
    "lng": 119.598638,
    "address": "884澎湖縣白沙鄉赤崁村366號"
  },
  {
    "name": "白沙郵局",
    "lat": 23.666942,
    "lng": 119.598338,
    "address": "884澎湖縣白沙鄉大赤崁356號"
  },
  {
    "name": "澎湖縣政府警察局白沙分局",
    "lat": 23.667228,
    "lng": 119.583093,
    "address": "884澎湖縣白沙鄉7之9號"
  }
]
