[
  {
    "dataType": "charging",
    "dataSource": "gov-data",
    "name": "霧峰民生路郵局",
    "lat": 24.065922,
    "lng": 120.700407,
    "address": "413臺中市霧峰區民生路93號"
  },
  {
    "dataType": "charging",
    "dataSource": "gov-data",
    "name": "臺中市霧峰區戶政事務所",
    "lat": 24.07559,
    "lng": 120.700504,
    "address": "413臺中市霧峰區吉峰路16號"
  },
  {
    "dataType": "charging",
    "dataSource": "gov-data",
    "name": "水利署水利規劃試驗所1樓服務台",
    "lat": 24.077788,
    "lng": 120.700328,
    "address": "413臺中市霧峰區中正路1340號"
  },
  {
    "dataType": "charging",
    "dataSource": "gov-data",
    "name": "水利署中區水資源局1樓服務台",
    "lat": 24.078469,
    "lng": 120.701841,
    "address": "413臺中市霧峰區峰堤路195號"
  },
  {
    "dataType": "charging",
    "dataSource": "gov-data",
    "name": "水利署第三河川局1樓服務台",
    "lat": 24.0794,
    "lng": 120.703397,
    "address": "413臺中市霧峰區峰堤路191號"
  }
]
