[
  {
    "id": "62f42f9f-4a29-5ffc-9337-339040d5ef3a",
    "dataType": "charging",
    "dataSource": "gov-data",
    "name": "中研院郵局",
    "lat": 25.043259,
    "lng": 121.616207,
    "address": "115臺北市南港區研究院路二段108號"
  },
  {
    "id": "03a7aa13-20ba-583d-84c0-e35512dd5fb8",
    "dataType": "charging",
    "dataSource": "gov-data",
    "name": "臺鐵局南港站候車室",
    "lat": 25.053277,
    "lng": 121.607047,
    "address": "115臺北市南港區南港路1段313號"
  },
  {
    "id": "cf8d26a9-6b51-5119-bdad-ef0c441d2622",
    "dataType": "charging",
    "dataSource": "gov-data",
    "name": "南港富康郵局",
    "lat": 25.053552,
    "lng": 121.616129,
    "address": "115臺北市南港區研究院路一段44號"
  },
  {
    "id": "c25c69f2-d2c3-5ea7-9345-4eccfcbe4b40",
    "dataType": "charging",
    "dataSource": "gov-data",
    "name": "臺鐵局南港站2月台11車",
    "lat": 25.053704,
    "lng": 121.607065,
    "address": "115臺北市南港區南港路1段313號B3"
  },
  {
    "id": "d269cda9-3399-537e-9f6b-68f434d3020b",
    "dataType": "charging",
    "dataSource": "gov-data",
    "name": "臺鐵局南港站1月台9車",
    "lat": 25.053704,
    "lng": 121.607065,
    "address": "115臺北市南港區南港路1段313號B3"
  },
  {
    "id": "fd6d765a-4809-51b2-8581-f60964b67ffc",
    "dataType": "charging",
    "dataSource": "gov-data",
    "name": "南港郵局",
    "lat": 25.053867,
    "lng": 121.603417,
    "address": "115臺北市南港區南港路二段78號"
  },
  {
    "id": "c8397d1d-08b8-5789-afe3-1e827d0020ce",
    "dataType": "charging",
    "dataSource": "gov-data",
    "name": "南港軟體園區郵局",
    "lat": 25.05784,
    "lng": 121.611783,
    "address": "115臺北市南港區園區街3之2號H棟一摟"
  },
  {
    "id": "62ca8c55-f8f6-5c87-8ffa-e5eb9e9219e1",
    "dataType": "charging",
    "dataSource": "gov-data",
    "name": "經濟部工業局北區工業區管理處",
    "lat": 25.058303,
    "lng": 121.613953,
    "address": "115臺北市南港區三重路19之13號E棟1樓"
  }
]
