[
  {
    "dataType": "charging",
    "name": "基隆市安樂戶政事務所",
    "lat": 25.121002,
    "lng": 121.723258,
    "address": "204基隆市安樂區安樂路2段164號1樓"
  },
  {
    "dataType": "charging",
    "name": "基隆安樂路郵局",
    "lat": 25.121575,
    "lng": 121.723965,
    "address": "204基隆市安樂區安樂路二段132號"
  },
  {
    "dataType": "charging",
    "name": "基隆市仁愛戶政事務所",
    "lat": 25.125082,
    "lng": 121.736755,
    "address": "200基隆市仁愛區光一路28號"
  },
  {
    "dataType": "charging",
    "name": "中油公司基隆直銷中心",
    "lat": 25.127098,
    "lng": 121.737628,
    "address": "200基隆市仁愛區成功一路107號1樓"
  },
  {
    "dataType": "charging",
    "name": "基隆光二路郵局",
    "lat": 25.127282,
    "lng": 121.737172,
    "address": "200基隆市仁愛區光二路1號"
  },
  {
    "dataType": "charging",
    "name": "基隆孝三路郵局",
    "lat": 25.130428,
    "lng": 121.739696,
    "address": "200基隆市仁愛區孝三路62號"
  },
  {
    "dataType": "charging",
    "name": "基隆新民郵局",
    "lat": 25.130563,
    "lng": 121.736375,
    "address": "203基隆市中山區新民路19號"
  },
  {
    "dataType": "charging",
    "name": "基隆港務分公司西岸旅客大廳",
    "lat": 25.132231,
    "lng": 121.73995,
    "address": "200基隆市仁愛區港西街16號2樓"
  },
  {
    "dataType": "charging",
    "name": "基隆西定路郵局",
    "lat": 25.134129,
    "lng": 121.735024,
    "address": "203基隆市中山區西定路120號"
  }
]
