[
  {
    "name": "中研院郵局",
    "lat": 25.043259,
    "lng": 121.616207,
    "address": "115臺北市南港區研究院路二段108號"
  },
  {
    "name": "臺鐵局南港站候車室",
    "lat": 25.053277,
    "lng": 121.6070467,
    "address": "115臺北市南港區南港路1段313號"
  },
  {
    "name": "南港富康郵局",
    "lat": 25.053552,
    "lng": 121.616129,
    "address": "115臺北市南港區研究院路一段44號"
  },
  {
    "name": "臺鐵局南港站2月台11車",
    "lat": 25.053704,
    "lng": 121.607065,
    "address": "115臺北市南港區南港路1段313號B3"
  },
  {
    "name": "臺鐵局南港站1月台9車",
    "lat": 25.053704,
    "lng": 121.607065,
    "address": "115臺北市南港區南港路1段313號B3"
  },
  {
    "name": "南港郵局",
    "lat": 25.053867,
    "lng": 121.603417,
    "address": "115臺北市南港區南港路二段78號"
  },
  {
    "name": "南港軟體園區郵局",
    "lat": 25.05784,
    "lng": 121.611783,
    "address": "115臺北市南港區園區街3之2號H棟一摟"
  },
  {
    "name": "經濟部工業局北區工業區管理處",
    "lat": 25.058303,
    "lng": 121.613953,
    "address": "115臺北市南港區三重路19之13號E棟1樓"
  }
]
