[
  {
    "name": "宜蘭縣羅東鎮公正社區發展協會",
    "lat": 24.680256,
    "lng": 121.766435,
    "address": "265宜蘭縣羅東鎮公正里林森路173號"
  },
  {
    "name": "勞動部勞動力發展署北基宜花金馬分署就業服務中心(羅東就業服務站)",
    "lat": 24.680489,
    "lng": 121.771635,
    "address": "265宜蘭縣羅東鎮中正北路50號"
  },
  {
    "name": "宜蘭縣立羅東國中行政大樓二樓牆面朝中華路",
    "lat": 24.680631,
    "lng": 121.767708,
    "address": "265宜蘭縣羅東鎮中華路99號"
  },
  {
    "name": "台電公司羅東服務所大廳",
    "lat": 24.682215,
    "lng": 121.771173,
    "address": "265宜蘭縣羅東鎮中正北路93號"
  },
  {
    "name": "內政部移民署宜蘭縣服務站(新)",
    "lat": 24.682504,
    "lng": 121.766003,
    "address": "265宜蘭縣羅東鎮純精路三段160巷16號4樓"
  },
  {
    "name": "宜蘭縣羅東鎮樹林社區發展協會",
    "lat": 24.683331,
    "lng": 121.761391,
    "address": "265宜蘭縣羅東鎮樹林里文林路130號"
  },
  {
    "name": "羅東博愛醫院(樹林社區)",
    "lat": 24.6833311,
    "lng": 121.761391,
    "address": "265宜蘭縣羅東鎮樹林里文林路130號2樓"
  },
  {
    "name": "宜蘭縣羅東鎮信義社區發展協會",
    "lat": 24.683542,
    "lng": 121.768578,
    "address": "265宜蘭縣羅東鎮信義里中華路189號"
  },
  {
    "name": "行政院農業委員會林務局羅東林區管理處1樓民眾服務中心",
    "lat": 24.683823,
    "lng": 121.771485,
    "address": "265宜蘭縣羅東鎮中正北路118號1樓"
  },
  {
    "name": "行政院農業委員會林務局羅東林區管理處3樓會議室",
    "lat": 24.683823,
    "lng": 121.771485,
    "address": "265宜蘭縣羅東鎮中正北路118號3樓"
  },
  {
    "name": "林務局羅東林區管理處羅東林業文化園區",
    "lat": 24.684217,
    "lng": 121.772141,
    "address": "265宜蘭縣羅東鎮中正北路118號"
  },
  {
    "name": "宜蘭縣羅東鎮東安社區發展協會",
    "lat": 24.685698,
    "lng": 121.770889,
    "address": "265宜蘭縣羅東鎮東安里天祥路171號"
  },
  {
    "name": "羅東竹林郵局",
    "lat": 24.689388,
    "lng": 121.764995,
    "address": "265宜蘭縣羅東鎮復興路二段193號"
  },
  {
    "name": "上海商銀宜蘭分行",
    "lat": 24.690583,
    "lng": 121.770398,
    "address": "268宜蘭縣五結鄉中正路一段160號"
  },
  {
    "name": "宜蘭縣五結鄉中興社區發展協會",
    "lat": 24.692962,
    "lng": 121.773385,
    "address": "268宜蘭縣五結鄉中興村中興路三段6號"
  },
  {
    "name": "公路總局臺北區監理所宜蘭監理站",
    "lat": 24.693988,
    "lng": 121.769135,
    "address": "268宜蘭縣五結鄉中正路二段9號"
  },
  {
    "name": "司法院(宜蘭地方法院-羅東簡易庭)",
    "lat": 24.6957352,
    "lng": 121.7660089,
    "address": "268宜蘭縣五結鄉仁愛路二段88號"
  },
  {
    "name": "中油公司宜蘭縣五結鄉羅東站",
    "lat": 24.6975591,
    "lng": 121.7692641,
    "address": "268宜蘭縣五結鄉中正路二段94號"
  },
  {
    "name": "中油公司宜蘭直銷中心",
    "lat": 24.697997,
    "lng": 121.769194,
    "address": "268宜蘭縣五結鄉中正路二段96號"
  }
]
