[
  {
    "dataType": "wifi",
    "category": "洽公場所",
    "name": "大同衛生所-寒溪村衛生室",
    "lat": 24.609388,
    "lng": 121.686531,
    "address": "267宜蘭縣大同鄉寒溪村寒溪巷6號"
  },
  {
    "dataType": "wifi",
    "category": "其他",
    "name": "宜蘭縣大同鄉寒溪巷部落",
    "lat": 24.60958,
    "lng": 121.68697,
    "address": "267宜蘭縣大同鄉寒溪巷6號之1"
  },
  {
    "dataType": "wifi",
    "category": "文教館所",
    "name": "宜蘭縣大同鄉寒溪國小行政大樓三樓牆面朝大門",
    "lat": 24.610132,
    "lng": 121.687231,
    "address": "267宜蘭縣大同鄉寒溪巷16號"
  },
  {
    "dataType": "wifi",
    "category": "洽公場所",
    "name": "宜蘭縣政府警察局寒溪派出所",
    "lat": 24.610646,
    "lng": 121.688793,
    "address": "267宜蘭縣大同鄉寒溪村寒溪巷65之2號"
  },
  {
    "dataType": "wifi",
    "category": "其他",
    "name": "宜蘭縣大同鄉華興部落",
    "lat": 24.61871,
    "lng": 121.68461,
    "address": "267宜蘭縣大同鄉寒溪村華興巷35號"
  }
]
