[
  {
    "name": "瑞穗鄉吉蒸牧場",
    "lat": 23.4832291,
    "lng": 121.39546,
    "address": "978花蓮縣瑞穗鄉中山路三段230號"
  },
  {
    "name": "瑞穗鄉青蓮寺",
    "lat": 23.4908237,
    "lng": 121.388468,
    "address": "978花蓮縣瑞穗鄉仁愛路109號"
  },
  {
    "name": "花蓮縣瑞穗鄉瑞良村辦公處",
    "lat": 23.492296,
    "lng": 121.39388,
    "address": "978花蓮縣瑞穗鄉瑞良村4鄰信義路3號"
  },
  {
    "name": "花蓮縣瑞穗鄉瑞美國民小學",
    "lat": 23.493595,
    "lng": 121.391437,
    "address": "978花蓮縣瑞穗鄉瑞美村中山路二段389號"
  },
  {
    "name": "花蓮縣瑞穗鄉圖書館",
    "lat": 23.493658,
    "lng": 121.390429,
    "address": "978花蓮縣瑞穗鄉中山路二段377號"
  },
  {
    "name": "花蓮縣瑞穗鄉瑞美村辦公處",
    "lat": 23.4937218,
    "lng": 121.3912349,
    "address": "978花蓮縣瑞穗鄉瑞美村13鄰中山路二段387號"
  },
  {
    "name": "花蓮縣真善美發展協會",
    "lat": 23.496001,
    "lng": 121.382042,
    "address": "978花蓮縣瑞穗鄉瑞美村中山路一段197號"
  },
  {
    "name": "9453銀髮健身俱樂部",
    "lat": 23.49676,
    "lng": 121.38029,
    "address": "978花蓮縣瑞穗鄉中山路一段128號3樓"
  },
  {
    "name": "瑞穗郵局",
    "lat": 23.496783,
    "lng": 121.380173,
    "address": "978花蓮縣瑞穗鄉中山路一段120號"
  }
]
