[
  {
    "name": "自來水公司埔里營運所",
    "lat": 23.969203,
    "lng": 120.95865,
    "address": "545南投縣埔里鎮大城路9號"
  },
  {
    "name": "社團法人台中市活出美好關懷協會",
    "lat": 23.971033,
    "lng": 120.957764,
    "address": "545南投縣埔里鎮大城里大同一街67號"
  },
  {
    "name": "埔里崎下郵局",
    "lat": 23.971218,
    "lng": 120.948561,
    "address": "545南投縣埔里鎮大城里中山路三段648號"
  },
  {
    "name": "財團法人愚人之友社會福利慈善事業基金會",
    "lat": 23.9717095,
    "lng": 120.9460505,
    "address": "545南投縣埔里鎮鐵山路6號"
  },
  {
    "name": "南投縣埔里鎮大城社區發展協會",
    "lat": 23.972287,
    "lng": 120.95641,
    "address": "545南投縣埔里鎮大城里大城路72之5號"
  },
  {
    "name": "南投縣埔里鎮恆吉社區發展協會",
    "lat": 23.973186,
    "lng": 120.94979,
    "address": "545南投縣埔里鎮大城里大城路259號"
  },
  {
    "name": "南投縣埔里鎮愛蘭社區發展協會",
    "lat": 23.974,
    "lng": 120.94,
    "address": "545南投縣埔里鎮愛蘭里梅村路295號"
  },
  {
    "name": "埔基醫療財團法人埔里基督教醫院(大城)",
    "lat": 23.9764145,
    "lng": 120.9512687,
    "address": "545南投縣埔里鎮大城路226巷56號"
  }
]
