[
  {
    "name": "埔里虎頭山飛行場",
    "lat": 23.96356,
    "lng": 120.98982,
    "address": "545南投縣埔里鎮知安路100號"
  },
  {
    "name": "埔里虎頭山卡啦OK唱歌處",
    "lat": 23.97215,
    "lng": 120.9836,
    "address": "545南投縣埔里鎮中心路50號"
  },
  {
    "name": "埔里虎頭山頂地理座標中心",
    "lat": 23.97383,
    "lng": 120.98214,
    "address": "545南投縣埔里鎮中山路一段421號"
  },
  {
    "name": "台電公司埔里服務所大廳",
    "lat": 23.976215,
    "lng": 120.980759,
    "address": "545南投縣埔里鎮信義路9號"
  },
  {
    "name": "埔基醫療財團法人埔里基督教醫院(蜈蚣)",
    "lat": 23.976722,
    "lng": 120.9897158,
    "address": "545南投縣埔里鎮蜈蚣路36號"
  },
  {
    "name": "南投縣埔里鎮大湳社區發展協會",
    "lat": 23.9771,
    "lng": 120.9882,
    "address": "545南投縣埔里鎮大湳里新興巷1號"
  },
  {
    "name": "臺中榮民總醫院埔里分院醫療大樓1F大廳",
    "lat": 23.9787377,
    "lng": 120.9939333,
    "address": "545南投縣埔里鎮榮光路1號"
  }
]
